     2.11           OBSERVATION DATA    M (MIXED)           RINEX VERSION / TYPE
TPP                 Reference Data Shop 04-JUL-18 01:00     PGM / RUN BY / DATE 
MTLD                                                        MARKER NAME         
Maitland                                                    MARKER NUMBER       
CORSnet-NSW         NSW                                     OBSERVER / AGENCY   
                    TRIMBLE NETR9                           REC # / TYPE / VERS 
1912118025          TRM57971.00     NONE                    ANT # / TYPE        
 -4722246.3590  2557539.8900 -3429486.2010                  APPROX POSITION XYZ 
        0.0000        0.0000        0.0000                  ANTENNA: DELTA H/E/N
     1     1     0                                          WAVELENGTH FACT L1/2
    14    C1    P1    L1    D1    S1    C2    P2    L2    D2# / TYPES OF OBSERV 
          S2    C5    L5    D5    S5                        # / TYPES OF OBSERV 
     5.000                                                  INTERVAL            
     0                                                      RCV CLOCK OFFS APPL 
    18                                                      LEAP SECONDS        
  2018    07    01    00    00   00.0000000     GPS         TIME OF FIRST OBS   
                                                            END OF HEADER       
 18 07 01  0  0  0.0000000  0 19G01G08G10G11G14G18G20G22G27G31G32R05 0.000000000
                                R06R07R15R16R20R21R22       
  23832827.203                   125242353.99215                        39.500  
                  23832833.422    97591446.48116                        25.500  
                                                                
  23275369.484                   122312866.29916                        44.500  
                  23275376.883    95308722.93817                        31.000  
                                                                
  21835836.258                   114748098.71217                        48.300  
                  21835841.977    89414098.68918                        36.500  
                                                                
  23537425.625                   123690006.92916                        46.300  
                  23537428.824    96381823.80417                        30.000  
                                                                
  20077863.172                   105509892.86316                        46.500  
                  20077865.852    82215506.68818                        39.000  
                                                                
  22037755.672                   115809190.10617                        47.500  
                  22037759.750    90240931.18818                        35.500  
                                                                
  23461867.203                   123292929.94315                        41.000  
                  23461870.422    96072417.24516                        22.500  
                                                                
  23958837.164                   125904553.84413                        37.000  
                  23958839.504    98107444.93216                        22.000  
                                                                
  23699840.820                   124543481.93015                        41.000  
                  23699848.141    97046862.06116                        26.000  
                                                                
  22137941.711                   116335688.82517                        49.000  
                  22137946.973    90651190.45018                        36.300  
                                                                
  20864999.078                   109646319.31117                        49.800  
                  20865005.039    85438692.75919                        42.000  
                                                                
  21482661.219                   114837125.89216                        41.300  
                  21482663.777    89317780.19917                        28.500  
                                                                
  20429750.547                   109017070.12115                        39.500  
                                                                                
                                                                
  23121066.211                   123768889.66916                        42.000  
                  23121069.191    96264700.41518                        39.800  
                                                                
  22242420.273                   118856774.53916                        42.500  
                  22242425.434    92444165.31818                        35.000  
                                                                
  22133590.375                   118233696.55315                        39.800  
                  22133594.113    91959547.20018                        38.000  
                                                                
  21559711.344                   115289459.30216                        42.000  
                  21559716.742    89669575.58319                        44.300  
                                                                
  20193596.625                   108060005.08718                        49.800  
                  20193598.926    84046662.96319                        48.000  
                                                                
  23051301.406                   123049422.73214                        39.000  
                  23051305.168    95705104.36718                        39.800  
                                                                
 18 07 01  0  0  5.0000000  0 19G01G08G10G11G14G18G20G22G27G31G32R05 0.000000000
                                R06R07R15R16R20R21R22       
  23829646.578                   125225640.433 5      3342.376          39.500  
                  23829653.418    97578422.949 6      2604.455          26.000  
                                                                
  23277162.930                   122322291.914 6     -1885.906          45.000  
                  23277170.828    95316067.566 7     -1469.529          30.500  
                                                                
  21837284.758                   114755711.540 7     -1522.938          49.000  
                  21837290.617    89420030.753 8     -1186.705          37.000  
                                                                
  23535570.906                   123680261.321 6      1948.310          45.500  
                  23535574.227    96374229.826 7      1518.163          30.000  
                                                                
  20077713.406                   105509107.482 6       156.035          46.500  
                  20077716.305    82214894.709 8       121.586          39.800  
                                                                
  22035533.797                   115797514.234 7      2334.418          47.500  
                  22035537.938    90231833.102 8      1819.029          35.500  
                                                                
  23463989.625                   123304084.613 5     -2231.243          40.500  
                  23463992.586    96081109.184 6     -1738.615          23.300  
                                                                
  23956235.102                   125890874.587 4      2735.858          37.800  
                  23956236.121    98096785.773 6      2131.842          22.800  
                                                                
  23702641.766                   124558199.337 5     -2943.611          40.500  
                  23702648.965    97058330.174 6     -2293.731          25.500  
                                                                
  22135342.195                   116322027.606 7      2731.591          49.500  
                  22135346.676    90640545.363 8      2128.510          36.300  
                                                                
  20866521.578                   109654321.038 7     -1600.999          49.300  
                  20866527.020    85444927.871 9     -1247.526          41.500  
                                                                
  21484394.602                   114846391.813 6     -1853.262          41.300  
                  21484397.402    89324987.026 7     -1441.434          28.300  
                                                                
  20429337.367                   109014865.178 5       440.684          40.000  
                                                                                
                                                                
  23119044.289                   123758075.207 6      2162.649          41.300  
                  23119048.668    96256289.156 8      1682.067          39.800  
                                                                
  22242591.711                   118857685.214 6      -183.794          42.500  
                  22242596.270    92444873.626 8      -142.947          35.000  
                                                                
  22130523.977                   118217313.334 4      3275.957          39.000  
                  22130527.656    91946804.696 8      2547.969          38.000  
                                                                
  21563409.938                   115309229.338 6     -3954.773          42.300  
                  21563414.516    89684952.267 9     -3075.939          44.300  
                                                                
  20193996.531                   108062145.934 8      -429.985          49.500  
                  20193998.953    84048328.066 9      -334.429          48.300  
                                                                
  23048174.352                   123032728.205 4      3337.846          38.300  
                  23048177.711    95692119.730 8      2596.104          39.000  
                                                                
 18 07 01  0  0 10.0000000  0 19G01G08G10G11G14G18G20G22G27G31G32R05 0.000000000
                                R06R07R15R16R20R21R22       
  23826466.922                   125208931.257 5      3341.422          39.800  
                  23826473.582    97565402.814 6      2603.720          25.500  
                                                                
  23278958.586                   122331726.950 6     -1887.801          44.500  
                  23278966.324    95323419.549 7     -1471.020          31.500  
                                                                
  21838733.758                   114763329.034 7     -1523.913          48.500  
                  21838740.219    89425966.465 8     -1187.467          37.300  
                                                                
  23533718.602                   123670525.827 6      1946.237          45.500  
                  23533721.840    96366643.721 7      1516.550          29.500  
                                                                
  20077565.945                   105508335.050 6       153.408          46.000  
                  20077569.324    82214292.815 8       119.538          39.000  
                                                                
  22033313.633                   115785847.745 7      2332.505          47.800  
                  22033317.414    90222742.329 8      1817.531          35.500  
                                                                
  23466113.742                   123315243.171 5     -2232.087          39.500  
                  23466116.121    96089804.163 6     -1739.291          22.000  
                                                                
  23953631.820                   125877195.257 4      2735.806          39.000  
                  23953633.699    98086126.561 6      2131.801          22.800  
                                                                
  23705442.445                   124572918.250 5     -2943.960          40.500  
                  23705448.906    97069799.455 6     -2293.999          24.500  
                                                                
  22132744.375                   116308374.519 7      2729.909          49.500  
                  22132748.734    90629906.602 8      2127.196          36.000  
                                                                
  20868045.680                   109662330.944 7     -1602.699          49.500  
                  20868051.398    85451169.365 9     -1248.863          42.300  
                                                                
  21486126.477                   114855658.855 6     -1853.559          41.500  
                  21486130.676    89332194.724 7     -1441.663          27.500  
                                                                
  20428924.805                   109012664.807 5       439.617          39.500  
                                                                                
                                                                
  23117025.250                   123747263.798 6      2161.990          41.500  
                  23117029.172    96247880.286 8      1681.548          40.000  
                                                                
  22242765.250                   118858616.524 6      -187.954          42.000  
                  22242770.148    92445597.964 8      -146.176          35.500  
                                                                
  22127457.438                   118200938.771 5      3274.181          39.500  
                  22127461.797    91934068.936 8      2546.587          37.500  
                                                                
  21567107.961                   115329008.823 6     -3956.688          42.500  
                  21567113.039    89700336.293 9     -3077.421          44.300  
                                                                
  20194401.070                   108064309.532 8      -434.584          49.800  
                  20194403.629    84050010.857 9      -338.010          47.500  
                                                                
  23045048.547                   123016047.140 4      3335.099          37.300  
                  23045052.969    95679145.584 8      2593.970          39.000  
                                                                
 18 07 01  0  0 15.0000000  0 19G01G08G10G11G14G18G20G22G27G31G32R05 0.000000000
                                R06R07R15R16R20R21R22       
  23823288.578                   125192226.668 5      3340.502          40.000  
                  23823294.879    97552386.255 7      2602.983          26.500  
                                                                
  23280755.266                   122341171.741 6     -1889.784          44.800  
                  23280762.824    95330779.121 7     -1472.559          31.300  
                                                                
  21840184.680                   114770951.521 7     -1524.953          48.500  
                  21840191.039    89431906.058 8     -1188.277          37.500  
                                                                
  23531867.547                   123660800.848 6      1944.100          45.500  
                  23531870.867    96359065.819 7      1514.887          29.500  
                                                                
  20077422.266                   105507575.881 6       150.728          46.800  
                  20077424.844    82213701.259 8       117.444          38.800  
                                                                
  22031095.477                   115774190.955 7      2330.524          47.300  
                  22031099.258    90213659.116 8      1815.993          36.000  
                                                                
  23468237.984                   123326405.880 5     -2232.946          41.300  
                  23468240.043    96098502.378 6     -1739.964          22.500  
                                                                
  23951028.844                   125863516.197 4      2735.711          38.800  
                  23951030.582    98075467.556 6      2131.723          22.300  
                                                                
  23708244.039                   124587638.984 5     -2944.341          40.800  
                  23708250.438    97081270.155 7     -2294.292          26.800  
                                                                
  22130147.992                   116294729.928 7      2728.183          50.300  
                  22130151.891    90619274.459 8      2125.861          36.000  
                                                                
  20869571.961                   109670349.301 7     -1604.402          49.300  
                  20869577.520    85457417.429 9     -1250.183          43.000  
                                                                
  21487860.602                   114864927.229 5     -1853.821          40.800  
                  21487864.723    89339403.447 7     -1441.844          27.300  
                                                                
  20428514.023                   109010469.223 5       438.720          40.000  
                                                                                
                                                                
  23115005.828                   123736455.724 5      2161.303          40.500  
                  23115009.770    96239474.002 8      1681.015          40.000  
                                                                
  22242944.453                   118859568.669 6      -192.138          42.300  
                  22242948.754    92446338.527 8      -149.434          35.000  
                                                                
  22124394.734                   118184572.835 5      3272.410          39.800  
                  22124397.914    91921339.883 8      2545.208          37.000  
                                                                
  21570808.820                   115348798.076 6     -3958.666          42.300  
                  21570813.781    89715727.936 9     -3078.967          44.300  
                                                                
  20194809.625                   108066496.098 8      -439.219          49.300  
                  20194812.203    84051711.508 9      -341.612          47.300  
                                                                
  23041926.672                   122999379.904 4      3332.310          37.500  
                  23041929.973    95666182.173 8      2591.803          38.500  
                                                                
 18 07 01  0  0 20.0000000  0 19G01G08G10G11G14G18G20G22G27G31G32R05 0.000000000
                                R06R07R15R16R20R21R22       
  23820110.445                   125175526.468 5      3339.704          39.500  
                  23820116.785    97539373.116 6      2602.363          26.000  
                                                                
  23282554.625                   122350626.038 6     -1891.626          45.500  
                  23282561.566    95338146.104 7     -1473.990          30.300  
                                                                
  21841635.578                   114778578.680 7     -1525.797          48.000  
                  21841642.199    89437849.293 8     -1188.927          37.300  
                                                                
  23530019.141                   123651086.024 6      1942.125          45.300  
                  23530022.402    96351495.830 7      1513.336          29.500  
                                                                
  20077280.391                   105506829.685 7       148.192          47.300  
                  20077282.789    82213119.808 8       115.474          38.500  
                                                                
  22028879.234                   115762543.615 6      2328.688          46.500  
                  22028882.875    90204583.267 8      1814.560          36.000  
                                                                
  23470362.742                   123337572.471 5     -2233.663          40.000  
                  23470364.684    96107203.601 6     -1740.513          22.300  
                                                                
  23948426.039                   125849837.177 4      2735.798          38.800  
                  23948427.359    98064808.575 6      2131.778          22.800  
                                                                
  23711045.742                   124602361.202 5     -2944.580          40.500  
                  23711052.383    97092742.009 6     -2294.480          26.000  
                                                                
  22127553.156                   116281093.570 7      2726.588          49.500  
                  22127557.156    90608648.724 8      2124.616          36.500  
                                                                
  20871099.383                   109678375.852 7     -1605.989          49.000  
                  20871105.102    85463671.889 9     -1251.428          42.500  
                                                                
  21489596.039                   114874196.696 6     -1853.973          41.500  
                  21489598.719    89346613.030 7     -1441.987          27.000  
                                                                
  20428102.547                   109008277.935 5       437.856          40.000  
                                                                                
                                                                
  23112988.805                   123725650.626 5      2160.783          40.000  
                  23112992.023    96231070.023 8      1680.611          39.800  
                                                                
  22243126.773                   118860541.444 6      -196.194          42.800  
                  22243131.074    92447095.138 8      -152.599          34.800  
                                                                
  22121333.156                   118168215.516 5      3270.770          39.500  
                  22121335.836    91908617.519 8      2543.934          37.500  
                                                                
  21574511.797                   115368596.783 6     -3960.554          42.500  
                  21574516.398    89731126.924 9     -3080.431          44.500  
                                                                
  20195222.828                   108068705.360 8      -443.690          49.500  
                  20195225.066    84053429.823 9      -345.092          47.500  
                                                                
  23038806.484                   122982726.069 3      3329.646          36.800  
                  23038810.563    95653229.199 8      2589.729          39.000  
                                                                
 18 07 01  0  0 25.0000000  0 19G01G08G10G11G14G18G20G22G27G31G32R05 0.000000000
                                R06R07R15R16R20R21R22       
  23816933.445                   125158830.886 5      3338.734          40.000  
                  23816939.324    97526363.580 7      2601.601          27.000  
                                                                
  23284355.242                   122360090.016 6     -1893.597          45.300  
                  23284362.863    95345520.634 7     -1475.524          29.800  
                                                                
  21843088.297                   114786210.778 7     -1526.832          47.500  
                  21843094.719    89443796.382 8     -1189.741          37.500  
                                                                
  23528172.445                   123641381.626 6      1940.025          45.500  
                  23528175.625    96343933.958 7      1511.693          30.300  
                                                                
  20077140.508                   105506096.723 6       145.504          46.800  
                  20077143.609    82212548.668 8       113.380          39.000  
                                                                
  22026664.656                   115750905.927 7      2326.746          47.500  
                  22026668.715    90195514.936 8      1813.051          36.000  
                                                                
  23472488.164                   123348743.192 5     -2234.491          40.000  
                  23472489.723    96115908.030 6     -1741.147          22.500  
                                                                
  23945822.742                   125836158.399 4      2735.719          39.000  
                  23945824.461    98054149.790 6      2131.725          22.000  
                                                                
  23713847.461                   124617085.144 5     -2944.959          40.500  
                  23713854.660    97104215.194 6     -2294.773          24.800  
                                                                
  22124959.570                   116267465.621 7      2724.907          50.000  
                  22124963.531    90598029.543 8      2123.300          36.500  
                                                                
  20872628.422                   109686410.775 7     -1607.673          49.000  
                  20872634.582    85469932.866 9     -1252.736          43.000  
                                                                
  21491329.578                   114883467.673 5     -1854.304          40.800  
                  21491333.117    89353823.773 7     -1442.229          27.800  
                                                                
  20427692.727                   109006091.251 5       436.986          39.800  
                                                                                
                                                                
  23110970.867                   123714848.797 5      2160.101          40.300  
                  23110974.328    96222668.613 8      1680.074          40.800  
                                                                
  22243311.531                   118861535.112 6      -200.423          42.500  
                  22243317.410    92447867.989 8      -155.883          36.000  
                                                                
  22118272.977                   118151866.968 5      3269.026          39.800  
                  22118274.855    91895901.998 8      2542.578          37.500  
                                                                
  21578215.359                   115388405.227 6     -3962.476          42.300  
                  21578220.418    89746533.483 9     -3081.922          44.000  
                                                                
  20195638.906                   108070937.574 8      -448.294          49.500  
                  20195641.688    84055165.996 9      -348.673          47.300  
                                                                
  23035688.891                   122966085.969 3      3326.865          35.800  
                  23035693.770    95640286.917 8      2587.554          38.800  
                                                                
 18 07 01  0  0 30.0000000  0 19G01G08G10G11G14G18G20G22G27G31G32R05 0.000000000
                                R06R07R15R16R20R21R22       
  23813756.961                   125142139.727 5      3337.830          40.300  
                  23813763.563    97513357.486 7      2600.903          26.300  
                                                                
  23286158.383                   122369563.452 6     -1895.494          44.500  
                  23286165.504    95352902.528 7     -1477.008          30.500  
                                                                
  21844541.375                   114793847.640 6     -1527.789          46.500  
                  21844547.414    89449747.178 8     -1190.480          37.500  
                                                                
  23526327.688                   123631687.544 6      1937.942          45.500  
                  23526330.688    96336380.134 7      1510.084          29.500  
                                                                
  20077003.648                   105505376.801 6       142.890          46.500  
                  20077006.527    82211987.685 8       111.349          39.000  
                                                                
  22024451.813                   115739277.692 6      2324.823          47.000  
                  22024456.074    90186453.980 8      1811.550          35.800  
                                                                
  23474614.320                   123359917.880 5     -2235.295          40.000  
                  23474615.961    96124615.596 6     -1741.792          22.500  
                                                                
  23943219.461                   125822479.717 4      2735.677          39.000  
                  23943221.039    98043491.076 6      2131.686          23.800  
                                                                
  23716649.563                   124631810.636 5     -2945.277          40.800  
                  23716657.063    97115689.610 7     -2295.015          26.500  
                                                                
  22122368.156                   116253845.991 7      2723.222          49.000  
                  22122372.035    90587416.848 8      2121.987          36.000  
                                                                
  20874159.000                   109694453.943 7     -1609.320          49.000  
                  20874164.441    85476200.263 9     -1254.020          42.300  
                                                                
  21493064.422                   114892739.727 6     -1854.548          41.500  
                  21493068.160    89361035.375 7     -1442.428          26.300  
                                                                
  20427283.367                   109003909.147 5       435.991          39.500  
                                                                                
                                                                
  23108954.266                   123704050.174 5      2159.448          40.800  
                  23108956.785    96214269.673 8      1679.571          40.500  
                                                                
  22243502.672                   118862549.597 6      -204.591          43.000  
                  22243506.934    92448657.035 8      -159.125          35.800  
                                                                
  22115212.953                   118135527.065 5      3267.210          39.500  
                  22115216.492    91883193.183 8      2541.165          37.500  
                                                                
  21581921.781                   115408223.110 6     -3964.380          42.300  
                  21581926.082    89761947.377 9     -3083.404          44.000  
                                                                
  20196060.227                   108073192.578 8      -452.859          49.500  
                  20196063.328    84056919.899 9      -352.226          47.500  
                                                                
  23032575.484                   122949459.505 3      3324.122          36.300  
                  23032579.023    95627355.248 8      2585.430          38.800  
                                                                
 18 07 01  0  0 35.0000000  0 19G01G08G10G11G14G18G20G22G27G31G32R05 0.000000000
                                R06R07R15R16R20R21R22       
  23810581.922                   125125453.092 5      3336.961          40.000  
                  23810587.762    97500354.914 7      2600.225          26.300  
                                                                
  23287962.844                   122379046.468 6     -1897.391          44.000  
                  23287969.863    95360291.885 7     -1478.486          29.500  
                                                                
  21845996.078                   114801489.305 6     -1528.742          46.300  
                  21846001.777    89455701.728 8     -1191.232          37.000  
                                                                
  23524484.703                   123622003.743 6      1935.916          45.300  
                  23524487.805    96328834.313 7      1508.512          29.000  
                                                                
  20076868.852                   105504669.923 6       140.304          46.500  
                  20076871.910    82211436.880 8       109.324          39.000  
                                                                
  22022240.711                   115727659.019 6      2322.967          46.800  
                  22022245.371    90177400.477 8      1810.100          35.300  
                                                                
  23476741.641                   123371096.586 5     -2236.075          39.800  
                  23476743.180    96133326.265 6     -1742.398          22.500  
                                                                
  23940616.844                   125808801.128 4      2735.700          39.000  
                  23940618.605    98032832.441 6      2131.717          22.500  
                                                                
  23719451.563                   124646537.668 5     -2945.547          40.300  
                  23719459.543    97127165.211 6     -2295.236          25.500  
                                                                
  22119777.711                   116240234.684 7      2721.583          48.800  
                  22119781.570    90576810.643 8      2120.710          36.000  
                                                                
  20875690.820                   109702505.346 7     -1610.952          48.800  
                  20875696.781    85482474.079 9     -1255.285          41.300  
                                                                
  21494800.063                   114902013.113 6     -1854.775          41.500  
                  21494802.262    89368248.010 6     -1442.601          25.800  
                                                                
  20426875.063                   109001731.569 5       435.150          39.300  
                                                                                
                                                                
  23106937.867                   123693254.444 5      2158.840          40.500  
                  23106940.309    96205872.995 8      1679.098          40.000  
                                                                
  22243695.375                   118863584.896 6      -208.776          43.000  
                  22243700.355    92449462.273 8      -162.383          35.500  
                                                                
  22112155.680                   118119195.918 4      3265.532          37.800  
                  22112158.719    91870491.186 8      2539.854          37.500  
                                                                
  21585629.578                   115428050.522 6     -3966.227          42.000  
                  21585633.938    89777368.692 9     -3084.841          44.000  
                                                                
  20196486.008                   108075470.344 7      -457.397          49.000  
                  20196488.949    84058691.486 9      -355.749          47.500  
                                                                
  23029463.789                   122932846.645 4      3321.482          37.800  
                  23029466.289    95614434.137 8      2583.366          39.500  
                                                                
 18 07 01  0  0 40.0000000  0 19G01G08G10G11G14G18G20G22G27G31G32R05 0.000000000
                                R06R07R15R16R20R21R22       
  23807407.063                   125108771.051 5      3336.007          40.500  
                  23807413.563    97487355.922 6      2599.490          25.500  
                                                                
  23289769.125                   122388539.001 6     -1899.262          43.800  
                  23289775.863    95367688.652 7     -1479.946          30.800  
                                                                
  21847450.953                   114809135.815 6     -1529.712          46.300  
                  21847456.754    89461660.041 8     -1191.987          37.500  
                                                                
  23522644.141                   123612330.332 6      1933.819          45.500  
                  23522646.941    96321296.588 7      1506.874          29.800  
                                                                
  20076737.031                   105503976.161 6       137.682          47.000  
                  20076739.930    82210896.287 8       107.278          38.500  
                                                                
  22020031.891                   115716050.009 6      2321.002          46.800  
                  22020035.949    90168354.489 8      1808.575          35.500  
                                                                
  23478870.125                   123382279.351 5     -2236.882          39.800  
                  23478871.324    96142040.100 6     -1743.002          21.500  
                                                                
  23938014.039                   125795122.767 4      2735.627          38.800  
                  23938015.617    98022173.994 6      2131.651          22.800  
                                                                
  23722255.563                   124661266.327 5     -2945.886          41.000  
                  23722262.121    97138642.057 6     -2295.492          26.000  
                                                                
  22117189.336                   116226631.833 7      2719.854          48.300  
                  22117193.234    90566211.017 8      2119.371          35.800  
                                                                
  20877224.539                   109710565.052 7     -1612.621          49.000  
                  20877230.320    85488754.363 9     -1256.585          42.300  
                                                                
  21496535.563                   114911287.752 6     -1855.058          41.800  
                  21496537.223    89375461.616 7     -1442.821          27.000  
                                                                
  20426469.563                   108999558.528 5       434.214          39.500  
                                                                                
                                                                
  23104923.305                   123682461.975 6      2158.222          41.500  
                  23104924.285    96197478.850 8      1678.617          41.000  
                                                                
  22243892.492                   118864641.289 6      -212.973          43.300  
                  22243897.793    92450283.914 8      -165.646          35.000  
                                                                
  22109100.234                   118102873.510 4      3263.780          38.500  
                  22109103.133    91857795.992 8      2538.494          37.000  
                                                                
  21589340.016                   115447887.490 6     -3968.182          42.500  
                  21589343.797    89792797.440 9     -3086.366          43.500  
                                                                
  20196916.352                   108077771.048 7      -461.999          48.800  
                  20196918.891    84060480.906 9      -359.328          47.500  
                                                                
  23026353.352                   122916247.573 4      3318.671          37.300  
                  23026357.512    95601523.743 8      2581.189          39.800  
                                                                
 18 07 01  0  0 45.0000000  0 19G01G08G10G11G14G18G20G22G27G31G32R05 0.000000000
                                R06R07R15R16R20R21R22       
  23804233.219                   125092093.539 5      3335.150          41.000  
                  23804239.820    97474360.454 6      2598.810          25.500  
                                                                
  23291577.430                   122398041.051 6     -1901.169          44.300  
                  23291584.148    95375092.835 7     -1481.420          31.000  
                                                                
  21848907.094                   114816787.191 6     -1530.658          46.800  
                  21848912.516    89467622.140 8     -1192.716          37.500  
                                                                
  23520804.688                   123602667.288 6      1931.777          45.500  
                  23520807.469    96313766.948 7      1505.269          29.000  
                                                                
  20076607.531                   105503295.516 6       135.089          47.000  
                  20076610.512    82210365.908 8       105.268          39.300  
                                                                
  22017824.492                   115704450.625 7      2319.094          47.300  
                  22017828.594    90159316.010 8      1807.087          35.500  
                                                                
  23480998.344                   123393466.195 5     -2237.712          39.800  
                  23480999.484    96150757.103 6     -1743.666          21.800  
                                                                
  23935411.023                   125781444.535 4      2735.632          39.000  
                  23935412.504    98011515.636 6      2131.649          22.500  
                                                                
  23725057.945                   124675996.577 5     -2946.183          41.500  
                  23725064.887    97150120.189 7     -2295.727          26.800  
                                                                
  22114601.656                   116213037.408 7      2718.201          49.000  
                  22114605.938    90555617.969 8      2118.075          35.800  
                                                                
  20878760.023                   109718633.039 7     -1614.252          48.800  
                  20878765.645    85495041.107 9     -1257.857          42.000  
                                                                
  21498268.703                   114920563.647 5     -1855.267          41.000  
                  21498271.883    89382676.203 7     -1442.983          27.800  
                                                                
  20426061.664                   108997390.167 5       433.299          39.500  
                                                                                
                                                                
  23102906.547                   123671672.666 6      2157.652          41.500  
                  23102909.387    96189087.167 8      1678.170          40.500  
                                                                
  22244094.234                   118865718.452 6      -217.109          43.300  
                  22244099.414    92451121.700 8      -168.858          35.800  
                                                                
  22106045.773                   118086559.897 4      3262.007          39.000  
                  22106049.133    91845107.631 8      2537.118          37.300  
                                                                
  21593050.375                   115467733.963 6     -3970.045          43.000  
                  21593055.297    89808233.575 9     -3087.809          44.000  
                                                                
  20197349.984                   108080094.545 8      -466.526          50.000  
                  20197353.664    84062288.070 9      -362.851          47.300  
                                                                
  23023247.305                   122899662.156 4      3316.008          37.800  
                  23023250.586    95588623.991 8      2579.117          39.800  
                                                                
 18 07 01  0  0 50.0000000  0 19G01G08G10G11G14G18G20G22G27G31G32R05 0.000000000
                                R06R07R15R16R20R21R22       
  23801060.281                   125075420.630 5      3334.228          41.300  
                  23801067.520    97461368.582 7      2598.083          26.800  
                                                                
  23293387.727                   122407552.597 6     -1903.027          45.500  
                  23293394.566    95382504.437 7     -1482.874          30.300  
                                                                
  21850364.039                   114824443.399 6     -1531.606          46.800  
                  21850369.758    89473588.019 8     -1193.464          37.300  
                                                                
  23518968.727                   123593014.590 6      1929.738          45.300  
                  23518970.926    96306245.370 7      1503.692          29.500  
                                                                
  20076480.445                   105502627.984 6       132.464          46.300  
                  20076483.246    82209845.751 8       103.218          39.000  
                                                                
  22015619.117                   115692860.854 6      2317.184          46.300  
                  22015622.738    90150285.020 8      1805.602          36.000  
                                                                
  23483127.805                   123404657.000 4     -2238.451          39.000  
                  23483129.645    96159477.211 6     -1744.221          22.500  
                                                                
  23932808.164                   125767766.445 4      2735.622          38.500  
                  23932809.926    98000857.408 6      2131.621          22.800  
                                                                
  23727861.820                   124690728.328 5     -2946.443          41.000  
                  23727868.121    97161599.467 7     -2295.928          26.500  
                                                                
  22112016.852                   116199451.384 7      2716.556          49.000  
                  22112020.191    90545031.463 8      2116.799          35.800  
                                                                
  20880296.781                   109726709.246 7     -1615.874          49.000  
                  20880302.500    85501334.257 9     -1259.122          42.000  
                                                                
  21500004.203                   114929840.787 5     -1855.502          41.000  
                  21500007.965    89389891.757 7     -1443.164          28.300  
                                                                
  20425657.625                   108995226.165 5       432.445          39.500  
                                                                                
                                                                
  23100892.172                   123660886.542 6      2156.975          42.500  
                  23100894.953    96180697.975 8      1677.651          41.000  
                                                                
  22244300.734                   118866816.328 6      -221.213          43.300  
                  22244305.254    92451975.608 8      -172.055          35.000  
                                                                
  22102993.539                   118070255.003 4      3260.295          39.000  
                  22102996.758    91832426.046 8      2535.785          37.300  
                                                                
  21596764.133                   115487589.906 6     -3971.949          43.000  
                  21596768.031    89823677.081 9     -3089.288          43.800  
                                                                
  20197788.109                   108082440.820 8      -471.045          49.500  
                  20197792.031    84064112.963 9      -366.368          47.000  
                                                                
  23020142.430                   122883090.474 4      3313.243          37.300  
                  23020146.129    95575734.915 8      2576.973          40.800  
                                                                
 18 07 01  0  0 55.0000000  0 19G01G08G10G11G14G18G20G22G27G31G32R05 0.000000000
                                R06R07R15R16R20R21R22       
  23797888.844                   125058752.283 5      3333.314          40.300  
                  23797895.344    97448380.257 6      2597.379          24.800  
                                                                
  23295199.125                   122417073.608 6     -1904.974          44.300  
                  23295206.344    95389923.408 7     -1484.395          30.500  
                                                                
  21851822.219                   114832104.432 7     -1532.600          48.500  
                  21851827.520    89479557.651 8     -1194.235          37.500  
                                                                
  23517133.266                   123583372.322 6      1927.634          45.500  
                  23517136.344    96298731.903 7      1502.054          29.800  
                                                                
  20076355.430                   105501973.504 6       129.836          46.500  
                  20076358.391    82209335.770 8       101.175          39.500  
                                                                
  22013415.055                   115681280.643 6      2315.242          47.000  
                  22013419.395    90141261.478 8      1804.087          35.800  
                                                                
  23485258.766                   123415851.892 5     -2239.305          39.800  
                  23485260.066    96168200.507 6     -1744.905          22.000  
                                                                
  23930204.805                   125754088.497 4      2735.566          38.800  
                  23930207.484    97990199.277 6      2131.596          24.500  
                                                                
  23730664.461                   124705461.658 5     -2946.803          40.500  
                  23730671.801    97173079.988 7     -2296.223          26.500  
                                                                
  22109433.031                   116185873.804 7      2714.835          48.500  
                  22109436.410    90534451.530 8      2115.450          36.000  
                                                                
  20881835.484                   109734793.706 7     -1617.552          49.300  
                  20881840.805    85507633.836 9     -1260.430          42.300  
                                                                
  21501739.641                   114939119.291 5     -1855.809          41.000  
                  21501743.301    89397108.365 6     -1443.399          26.000  
                                                                
  20425252.086                   108993066.918 5       431.479          40.000  
                                                                                
                                                                
  23098878.227                   123650103.486 6      2156.348          43.300  
                  23098880.086    96172311.151 8      1677.160          41.000  
                                                                
  22244508.930                   118867935.090 6      -225.408          43.500  
                  22244514.551    92452845.760 8      -175.323          35.000  
                                                                
  22099943.477                   118053959.005 5      3258.460          39.500  
                  22099947.078    91819751.385 8      2534.351          37.800  
                                                                
  21600478.914                   115507455.336 6     -3973.842          42.300  
                  21600482.633    89839127.964 9     -3090.760          43.300  
                                                                
  20198231.852                   108084809.947 8      -475.647          49.800  
                  20198234.953    84065955.609 9      -369.952          47.500  
                                                                
  23017041.031                   122866532.534 4      3310.472          37.800  
                  23017043.910    95562856.529 8      2574.814          39.500  
                                                                
 18 07 01  0  1  0.0000000  0 19G01G08G10G11G14G18G20G22G27G31G32R05 0.000000000
                                R06R07R15R16R20R21R22       
  23794718.023                   125042088.452 5      3332.455          39.500  
                  23794724.664    97435395.440 7      2596.740          26.300  
                                                                
  23297012.789                   122426604.072 6     -1906.784          44.300  
                  23297020.270    95397349.735 7     -1485.800          30.500  
                                                                
  21853280.719                   114839770.244 7     -1533.493          48.800  
                  21853286.258    89485531.004 8     -1194.927          37.800  
                                                                
  23515301.086                   123573740.386 6      1925.626          45.800  
                  23515303.305    96291226.506 7      1500.486          29.500  
                                                                
  20076233.805                   105501332.050 6       127.311          46.300  
                  20076236.746    82208835.939 8        99.197          39.000  
                                                                
  22011213.711                   115669710.066 6      2313.422          46.500  
                  22011217.570    90132245.441 8      1802.674          36.000  
                                                                
  23487389.641                   123427050.719 5     -2239.982          39.800  
                  23487391.781    96176926.850 6     -1745.435          22.500  
                                                                
  23927602.141                   125740410.643 4      2735.598          38.500  
                  23927604.602    97979541.224 6      2131.614          22.800  
                                                                
  23733469.203                   124720196.423 5     -2947.027          39.800  
                  23733475.324    97184561.604 6     -2296.370          25.800  
                                                                
  22106850.938                   116172304.635 7      2713.214          49.000  
                  22106854.656    90523878.160 8      2114.193          36.000  
                                                                
  20883375.305                   109742886.350 7     -1619.134          49.000  
                  20883380.703    85513939.788 9     -1261.657          42.000  
                                                                
  21503476.797                   114948398.906 5     -1855.975          40.800  
                  21503479.578    89404325.846 7     -1443.542          27.800  
                                                                
  20424849.125                   108990911.974 5       430.708          39.500  
                                                                                
                                                                
  23096862.547                   123639323.489 6      2155.834          42.800  
                  23096866.469    96163926.707 8      1676.762          41.000  
                                                                
  22244723.195                   118869074.588 6      -229.493          43.800  
                  22244727.617    92453732.025 8      -178.490          35.300  
                                                                
  22096894.656                   118037671.802 5      3256.836          39.500  
                  22096897.957    91807083.579 8      2533.086          37.800  
                                                                
  21604196.195                   115527330.142 6     -3975.639          42.800  
                  21604200.074    89854586.132 9     -3092.159          44.000  
                                                                
  20198678.789                   108087201.846 8      -480.137          49.500  
                  20198681.949    84067815.967 9      -373.433          48.000  
                                                                
  23013941.391                   122849988.324 4      3307.819          38.500  
                  23013944.629    95549988.824 8      2572.738          39.800  
                                                                
 18 07 01  0  1  5.0000000  0 19G01G08G10G11G14G18G20G22G27G31G32R05 0.000000000
                                R06R07R15R16R20R21R22       
  23791547.500                   125025429.265 5      3331.446          39.500  
                  23791554.020    97422414.255 7      2595.942          27.000  
                                                                
  23298828.227                   122436144.115 6     -1908.789          43.500  
                  23298835.805    95404783.530 7     -1487.364          29.500  
                                                                
  21854740.180                   114847440.956 7     -1534.583          49.000  
                  21854745.980    89491508.181 8     -1195.779          37.500  
                                                                
  23513470.023                   123564118.902 6      1923.417          46.000  
                  23513472.664    96283729.248 7      1498.756          29.500  
                                                                
  20076114.289                   105500703.737 6       124.589          47.000  
                  20076116.969    82208346.340 8        97.084          39.500  
                                                                
  22009013.570                   115658149.193 6      2311.375          47.000  
                  22009017.270    90123236.966 8      1801.073          36.000  
                                                                
  23489521.867                   123438253.690 5     -2240.963          40.000  
                  23489523.746    96185656.444 6     -1746.215          22.500  
                                                                
  23924999.398                   125726732.968 5      2735.498          40.000  
                  23925002.117    97968883.305 6      2131.549          23.500  
                                                                
  23736272.398                   124734932.754 5     -2947.423          40.800  
                  23736279.539    97196044.464 6     -2296.689          26.000  
                                                                
  22104270.031                   116158743.937 7      2711.435          49.500  
                  22104273.953    90513311.393 8      2112.805          35.500  
                                                                
  20884916.898                   109750987.234 7     -1620.860          49.500  
                  20884922.340    85520252.168 9     -1263.008          42.500  
                                                                
  21505212.742                   114957679.898 5     -1856.330          40.500  
                  21505215.621    89411544.389 7     -1443.806          26.500  
                                                                
  20424445.305                   108988761.814 5       429.622          39.500  
                                                                                
                                                                
  23094849.305                   123628546.688 6      2155.064          43.000  
                  23094854.004    96155544.765 8      1676.163          41.000  
                                                                
  22244940.375                   118870235.030 6      -233.795          43.500  
                  22244944.137    92454634.596 8      -181.840          34.500  
                                                                
  22093847.734                   118021393.432 5      3254.931          40.500  
                  22093850.953    91794422.619 8      2531.613          37.500  
                                                                
  21607913.758                   115547214.336 6     -3977.631          43.500  
                  21607918.418    89870051.612 9     -3093.713          43.500  
                                                                
  20199130.609                   108089616.619 8      -484.856          50.000  
                  20199133.391    84069694.119 9      -377.111          47.300  
                                                                
  23010845.945                   122833457.962 4      3304.915          39.000  
                  23010848.367    95537131.871 8      2570.492          40.000  
                                                                
 18 07 01  0  1 10.0000000  0 19G01G08G10G11G14G18G20G22G27G31G32R05 0.000000000
                                R06R07R15R16R20R21R22       
  23788378.266                   125008774.628 5      3330.573          39.300  
                  23788384.984    97409436.632 6      2595.256          26.000  
                                                                
  23300645.023                   122445693.429 6     -1910.626          44.000  
                  23300652.664    95412224.549 7     -1488.799          29.300  
                                                                
  21856201.180                   114855116.400 7     -1535.479          49.500  
                  21856206.359    89497489.042 8     -1196.479          37.500  
                                                                
  23511640.367                   123554507.716 6      1921.399          45.500  
                  23511643.469    96276240.012 7      1497.190          28.300  
                                                                
  20075997.125                   105500088.388 6       122.027          47.000  
                  20076000.105    82207866.843 8        95.086          39.000  
                                                                
  22006815.570                   115646597.858 7      2309.483          47.500  
                  22006819.129    90114235.922 8      1799.599          35.800  
                                                                
  23491654.102                   123449460.579 5     -2241.704          40.000  
                  23491656.301    96194389.074 6     -1746.794          22.800  
                                                                
  23922397.023                   125713055.401 5      2735.511          39.500  
                  23922399.422    97958225.453 6      2131.573          24.000  
                                                                
  23739077.539                   124749670.459 5     -2947.660          40.800  
                  23739084.520    97207528.367 7     -2296.878          26.300  
                                                                
  22101691.477                   116145191.634 7      2709.777          49.800  
                  22101695.438    90502751.165 8      2111.511          36.000  
                                                                
  20886459.625                   109759096.261 7     -1622.463          49.000  
                  20886465.547    85526570.894 9     -1264.267          41.500  
                                                                
  21506949.078                   114966961.973 5     -1856.501          40.800  
                  21506952.199    89418763.778 7     -1443.946          26.300  
                                                                
  20424043.383                   108986616.073 5       428.790          40.500  
                                                                                
                                                                
  23092836.367                   123617772.901 6      2154.480          42.500  
                  23092840.707    96147165.163 8      1675.696          40.800  
                                                                
  22245160.891                   118871416.212 6      -237.901          43.000  
                  22245165.332    92455553.303 8      -185.032          34.800  
                                                                
  22090802.016                   118005123.862 5      3253.217          40.800  
                  22090804.895    91781768.515 8      2530.278          37.800  
                                                                
  21611634.453                   115567107.965 6     -3979.481          43.300  
                  21611638.492    89885524.420 9     -3095.152          43.500  
                                                                
  20199584.906                   108092054.035 8      -489.330          50.500  
                  20199588.566    84071589.893 9      -380.594          47.800  
                                                                
  23007750.805                   122816941.248 4      3302.278          38.800  
                  23007753.984    95524285.553 8      2568.432          40.300  
                                                                
 18 07 01  0  1 15.0000000  0 19G01G08G10G11G14G18G20G22G27G31G32R05 0.000000000
                                R06R07R15R16R20R21R22       
  23785209.922                   124992124.697 5      3329.625          39.500  
                  23785216.602    97396462.676 6      2594.504          25.500  
                                                                
  23302464.883                   122455252.320 6     -1912.520          45.300  
                  23302471.461    95419673.034 7     -1490.288          29.500  
                                                                
  21857662.836                   114862796.745 7     -1536.436          49.500  
                  21857667.797    89503473.727 8     -1197.225          37.500  
                                                                
  23509813.867                   123544907.010 6      1919.331          44.300  
                  23509816.668    96268758.941 7      1495.589          29.300  
                                                                
  20075882.227                   105499486.148 6       119.415          46.500  
                  20075885.527    82207397.563 8        93.049          38.300  
                                                                
  22004619.117                   115635056.279 7      2307.575          48.500  
                  22004622.758    90105242.483 8      1798.115          35.800  
                                                                
  23493787.266                   123460671.529 5     -2242.502          40.000  
                  23493790.707    96203124.859 6     -1747.413          22.500  
                                                                
  23919794.164                   125699378.021 5      2735.482          39.800  
                  23919796.605    97947567.760 6      2131.547          24.500  
                                                                
  23741882.141                   124764409.735 5     -2947.962          40.800  
                  23741889.602    97219013.505 7     -2297.105          27.300  
                                                                
  22099114.570                   116131647.882 7      2708.083          49.500  
                  22099118.469    90492197.591 8      2110.198          36.300  
                                                                
  20888004.539                   109767213.551 7     -1624.100          50.500  
                  20888010.418    85532896.047 9     -1265.533          41.500  
                                                                
  21508686.563                   114976245.429 5     -1856.806          40.300  
                  21508688.563    89425984.236 7     -1444.176          28.500  
                                                                
  20423642.445                   108984474.729 5       427.931          40.300  
                                                                                
                                                                
  23090824.727                   123607002.320 6      2153.894          43.300  
                  23090828.988    96138788.061 9      1675.251          41.300  
                                                                
  22245386.273                   118872618.220 6      -242.059          43.000  
                  22245390.293    92456488.194 8      -188.262          34.500  
                                                                
  22087757.656                   117988863.118 5      3251.422          41.000  
                  22087760.734    91769121.278 8      2528.882          37.500  
                                                                
  21615356.516                   115587010.939 6     -3981.323          43.000  
                  21615360.797    89901004.503 9     -3096.578          43.300  
                                                                
  20200045.930                   108094514.320 8      -493.876          50.300  
                  20200048.648    84073503.450 9      -384.126          47.800  
                                                                
  23004658.750                   122800438.435 5      3299.457          39.800  
                  23004661.949    95511450.055 8      2566.244          40.500  
                                                                
 18 07 01  0  1 20.0000000  0 19G01G08G10G11G14G18G20G22G27G31G32R05 0.000000000
                                R06R07R15R16R20R21R22       
  23782042.141                   124975479.251 5      3328.716          39.800  
                  23782048.961    97383492.191 6      2593.802          25.800  
                                                                
  23304285.469                   122464820.497 6     -1914.391          45.300  
                  23304292.270    95427128.768 7     -1491.735          29.500  
                                                                
  21859125.016                   114870481.827 7     -1537.403          48.500  
                  21859130.496    89509462.096 8     -1197.978          37.300  
                                                                
  23507988.805                   123535316.652 6      1917.218          45.000  
                  23507992.184    96261285.932 7      1493.938          28.300  
                                                                
  20075769.648                   105498896.854 6       116.798          46.800  
                  20075773.129    82206938.377 8        91.010          38.500  
                                                                
  22002424.438                   115623524.253 7      2305.634          48.000  
                  22002428.277    90096256.487 8      1796.594          36.000  
                                                                
  23495921.641                   123471886.380 5     -2243.285          40.000  
                  23495925.563    96211863.691 6     -1748.021          22.000  
                                                                
  23917191.961                   125685700.650 5      2735.446          39.800  
                  23917194.262    97936910.085 6      2131.494          24.500  
                                                                
  23744687.539                   124779150.330 5     -2948.251          40.500  
                  23744694.598    97230499.675 6     -2297.340          25.300  
                                                                
  22096538.813                   116118112.510 7      2706.393          50.300  
                  22096542.672    90481650.551 8      2108.878          36.000  
                                                                
  20889550.641                   109775338.895 7     -1625.724          49.000  
                  20889556.160    85539227.488 9     -1266.800          42.000  
                                                                
  21510422.539                   114985529.976 5     -1857.012          41.000  
                  21510425.820    89433205.552 7     -1444.345          27.300  
                                                                
  20423241.203                   108982337.728 5       427.031          40.300  
                                                                                
                                                                
  23088813.609                   123596234.788 6      2153.271          42.500  
                  23088816.629    96130413.310 8      1674.764          40.300  
                                                                
  22245614.391                   118873841.080 6      -246.254          43.000  
                  22245619.012    92457439.307 8      -191.528          35.000  
                                                                
  22084714.813                   117972611.382 5      3249.672          40.300  
                  22084717.852    91756481.043 8      2527.521          37.500  
                                                                
  21619080.359                   115606923.087 6     -3983.179          42.500  
                  21619084.121    89916491.731 9     -3098.028          43.000  
                                                                
  20200509.266                   108096997.283 8      -498.422          50.000  
                  20200512.305    84075434.631 9      -387.659          47.300  
                                                                
  23001570.367                   122783949.282 5      3296.703          40.300  
                  23001573.027    95498625.158 8      2564.104          40.000  
                                                                
 18 07 01  0  1 25.0000000  0 19G01G08G10G11G14G18G20G22G27G31G32R05 0.000000000
                                R06R07R15R16R20R21R22       
  23778875.484                   124958838.538 5      3327.788          40.500  
                  23778882.445    97370525.411 7      2593.083          27.000  
                                                                
  23306107.484                   122474398.109 6     -1916.264          45.000  
                  23306114.746    95434591.835 7     -1493.189          30.800  
                                                                
  21860587.797                   114878171.833 6     -1538.375          47.000  
                  21860593.777    89515454.309 8     -1198.738          37.300  
                                                                
  23506165.508                   123525736.741 6      1915.161          45.000  
                  23506168.930    96253821.068 7      1492.327          28.300  
                                                                
  20075660.766                   105498320.666 6       114.213          47.000  
                  20075663.688    82206489.397 8        89.003          38.500  
                                                                
  22000232.117                   115612002.068 7      2303.660          47.300  
                  22000235.738    90087278.161 8      1795.060          36.000  
                                                                
  23498056.641                   123483105.360 5     -2244.100          41.000  
                  23498060.121    96220605.731 6     -1748.631          24.000  
                                                                
  23914588.563                   125672023.493 5      2735.459          40.500  
                  23914590.961    97926252.560 6      2131.512          24.800  
                                                                
  23747492.523                   124793892.415 5     -2948.509          40.800  
                  23747500.203    97241987.016 6     -2297.545          25.500  
                                                                
  22093964.531                   116104585.681 7      2704.714          50.800  
                  22093968.512    90471110.166 8      2107.567          36.800  
                                                                
  20891098.641                   109783472.534 7     -1627.374          48.800  
                  20891103.660    85545565.386 9     -1268.080          42.300  
                                                                
  21512159.719                   114994815.862 5     -1857.250          41.000  
                  21512162.777    89440427.906 7     -1444.519          26.800  
                                                                
  20422842.086                   108980205.439 5       426.092          40.000  
                                                                                
                                                                
  23086801.867                   123585470.440 6      2152.644          42.300  
                  23086805.688    96122041.023 8      1674.283          40.800  
                                                                
  22245847.969                   118875084.793 6      -250.374          42.500  
                  22245851.848    92458406.640 8      -194.737          34.500  
                                                                
  22081674.859                   117956368.575 5      3247.864          40.800  
                  22081677.680    91743847.759 8      2526.117          38.500  
                                                                
  21622805.680                   115626844.683 6     -3985.072          43.000  
                  21622809.258    89931986.296 9     -3099.496          43.000  
                                                                
  20200977.648                   108099503.063 8      -502.946          49.800  
                  20200980.547    84077383.578 9      -391.182          47.500  
                                                                
  22998483.805                   122767474.120 5      3293.929          41.000  
                  22998486.445    95485811.135 8      2561.947          39.800  
                                                                
 18 07 01  0  1 30.0000000  0 19G01G08G10G11G14G18G20G22G27G31G32R05 0.000000000
                                R06R07R15R16R20R21R22       
  23775710.141                   124942202.444 5      3326.889          40.300  
                  23775717.262    97357562.215 7      2592.385          26.800  
                                                                
  23307931.945                   122483985.165 6     -1918.138          44.500  
                  23307939.285    95442062.269 7     -1494.655          29.300  
                                                                
  21862052.875                   114885866.624 6     -1539.313          46.300  
                  21862058.395    89521450.241 8     -1199.463          37.300  
                                                                
  23504345.008                   123516167.255 6      1913.088          45.000  
                  23504347.547    96246364.326 7      1490.720          29.000  
                                                                
  20075553.766                   105497757.499 6       111.622          47.000  
                  20075556.586    82206050.570 8        86.978          39.000  
                                                                
  21998041.195                   115600489.522 7      2301.758          48.300  
                  21998045.195    90078307.346 8      1793.572          35.800  
                                                                
  23500192.227                   123494328.319 5     -2244.859          40.000  
                  23500196.445    96229350.906 6     -1749.223          24.500  
                                                                
  23911986.359                   125658346.451 5      2735.425          40.500  
                  23911988.418    97915595.123 6      2131.508          24.300  
                                                                
  23750297.703                   124808635.919 5     -2948.758          39.800  
                  23750305.383    97253475.452 6     -2297.723          25.500  
                                                                
  22091391.836                   116091067.334 7      2703.011          50.300  
                  22091396.035    90460576.399 8      2106.237          36.500  
                                                                
  20892647.500                   109791614.281 7     -1628.974          48.500  
                  20892653.379    85551909.597 9     -1269.324          42.000  
                                                                
  21513896.898                   115004102.924 5     -1857.461          41.000  
                  21513900.137    89447651.186 7     -1444.692          28.500  
                                                                
  20422443.047                   108978077.603 5       425.252          40.800  
                                                                                
                                                                
  23084791.445                   123574709.152 6      2152.039          43.000  
                  23084795.445    96113671.141 8      1673.810          40.800  
                                                                
  22246085.273                   118876349.307 6      -254.542          41.800  
                  22246089.012    92459390.153 8      -197.973          34.000  
                                                                
  22078634.555                   117940134.582 5      3246.094          40.500  
                  22078639.215    91731221.335 8      2524.748          38.500  
                                                                
  21626532.992                   115646775.542 6     -3986.871          42.000  
                  21626536.492    89947488.074 9     -3100.896          43.000  
                                                                
  20201450.008                   108102031.608 8      -507.484          50.000  
                  20201453.066    84079350.226 9      -394.708          47.800  
                                                                
  22995399.750                   122751012.784 5      3291.178          41.000  
                  22995402.629    95473007.882 8      2559.799          39.800  
                                                                
 18 07 01  0  1 35.0000000  0 19G01G08G10G11G14G18G20G22G27G31G32R05 0.000000000
                                R06R07R15R16R20R21R22       
  23772544.945                   124925571.102 5      3325.846          39.800  
                  23772552.023    97344602.755 7      2591.563          27.300  
                                                                
  23309758.383                   122493581.732 6     -1920.082          44.000  
                  23309765.262    95449540.102 7     -1496.170          30.000  
                                                                
  21863517.594                   114893566.339 6     -1540.366          46.500  
                  21863523.773    89527450.017 8     -1200.290          37.300  
                                                                
  23502526.008                   123506608.209 6      1910.944          45.000  
                  23502528.930    96238915.723 7      1489.049          29.300  
                                                                
  20075449.172                   105497207.436 6       108.945          45.800  
                  20075452.012    82205621.954 8        84.892          38.500  
                                                                
  21995852.734                   115588986.754 7      2299.751          47.800  
                  21995856.473    90069344.146 8      1792.020          36.300  
                                                                
  23502328.727                   123505555.402 5     -2245.766          40.500  
                  23502333.387    96238099.287 6     -1749.972          24.000  
                                                                
  23909383.539                   125644669.646 5      2735.330          40.300  
                  23909385.578    97904937.890 6      2131.418          25.500  
                                                                
  23753103.719                   124823380.910 5     -2949.155          39.800  
                  23753111.117    97264965.064 6     -2298.034          24.300  
                                                                
  22088821.617                   116077557.539 7      2701.249          50.300  
                  22088824.918    90450049.299 8      2104.867          36.500  
                                                                
  20894198.664                   109799764.242 7     -1630.674          48.500  
                  20894204.383    85558260.216 9     -1270.653          41.800  
                                                                
  21515634.422                   115013391.296 6     -1857.803          41.300  
                  21515637.863    89454875.467 7     -1444.964          26.300  
                                                                
  20422045.242                   108975954.247 5       424.310          40.500  
                                                                                
                                                                
  23082780.867                   123563951.031 6      2151.338          42.000  
                  23082785.207    96105303.706 8      1673.261          40.000  
                                                                
  22246324.750                   118877634.722 6      -258.771          42.000  
                  22246329.551    92460389.923 8      -201.273          34.500  
                                                                
  22075598.773                   117923909.756 5      3244.202          40.800  
                  22075601.094    91718602.034 8      2523.275          37.300  
                                                                
  21630261.273                   115666715.729 6     -3988.807          41.500  
                  21630266.094    89962997.103 9     -3102.409          43.300  
                                                                
  20201926.250                   108104582.981 7      -512.099          49.000  
                  20201929.391    84081334.625 9      -398.295          47.500  
                                                                
  22992319.688                   122734565.334 5      3288.365          40.500  
                  22992322.266    95460215.427 8      2557.613          40.500  
                                                                
 18 07 01  0  1 40.0000000  0 19G01G08G10G11G14G18G20G22G27G31G32R05 0.000000000
                                R06R07R15R16R20R21R22       
  23769381.398                   124908944.307 5      3324.953          40.500  
                  23769388.457    97331646.818 7      2590.856          28.000  
                                                                
  23311586.508                   122503187.490 6     -1921.893          45.000  
                  23311593.188    95457025.104 7     -1497.585          29.500  
                                                                
  21864983.813                   114901270.767 6     -1541.302          47.000  
                  21864989.551    89533453.466 8     -1201.014          37.500  
                                                                
  23500708.664                   123497059.542 6      1908.881          45.000  
                  23500712.004    96231475.201 7      1487.436          29.300  
                                                                
  20075346.891                   105496670.316 6       106.367          46.000  
                  20075349.512    82205203.419 8        82.884          38.800  
                                                                
  21993665.617                   115577493.553 7      2297.838          48.500  
                  21993669.195    90060388.407 8      1790.519          35.800  
                                                                
  23504465.586                   123516786.388 5     -2246.530          39.500  
                  23504471.027    96246850.709 6     -1750.551          24.500  
                                                                
  23906781.141                   125630992.967 5      2735.325          40.000  
                  23906783.000    97894280.734 6      2131.410          25.000  
                                                                
  23755909.703                   124838127.170 5     -2949.370          39.800  
                  23755917.625    97276455.638 6     -2298.207          25.500  
                                                                
  22086252.031                   116064056.207 7      2699.583          50.500  
                  22086256.371    90439528.787 8      2103.563          36.800  
                                                                
  20895750.805                   109807922.259 7     -1632.261          48.500  
                  20895756.824    85564617.114 9     -1271.892          42.000  
                                                                
  21517371.844                   115022680.838 5     -1858.038          40.300  
                  21517375.582    89462100.652 7     -1445.124          26.300  
                                                                
  20421648.281                   108973835.427 5       423.400          40.000  
                                                                                
                                                                
  23080771.750                   123553195.936 6      2150.771          41.800  
                  23080775.969    96096938.627 8      1672.819          40.500  
                                                                
  22246568.711                   118878940.981 6      -262.953          42.000  
                  22246573.992    92461405.904 8      -204.523          35.300  
                                                                
  22072561.773                   117907693.656 5      3242.485          40.800  
                  22072565.633    91705989.526 8      2521.933          37.500  
                                                                
  21633992.375                   115686665.151 6     -3990.662          41.500  
                  21633996.156    89978513.309 9     -3103.851          43.000  
                                                                
  20202408.531                   108107157.067 8      -516.656          50.000  
                  20202410.293    84083336.688 9      -401.843          47.300  
                                                                
  22989239.609                   122718131.697 5      3285.613          40.300  
                  22989243.848    95447433.709 8      2555.477          39.800  
                                                                
 18 07 01  0  1 45.0000000  0 19G01G08G10G11G14G18G20G22G27G31G32R05 0.000000000
                                R06R07R15R16R20R21R22       
  23766218.141                   124892322.209 5      3324.039          39.500  
                  23766225.320    97318694.510 7      2590.174          26.500  
                                                                
  23313416.063                   122512802.531 6     -1923.740          45.000  
                  23313422.801    95464517.342 7     -1499.018          29.500  
                                                                
  21866450.914                   114908980.046 7     -1542.248          48.500  
                  21866456.813    89539460.694 8     -1201.750          37.000  
                                                                
  23498893.508                   123487521.303 6      1906.790          44.500  
                  23498896.867    96224042.799 7      1485.818          29.500  
                                                                
  20075247.086                   105496146.198 6       103.795          46.500  
                  20075249.664    82204795.012 8        80.883          39.000  
                                                                
  21991480.594                   115566010.050 7      2295.941          48.000  
                  21991484.293    90051440.223 8      1789.045          36.000  
                                                                
  23506603.820                   123528021.396 5     -2247.326          39.500  
                  23506608.641    96255605.252 6     -1751.170          23.300  
                                                                
  23904178.742                   125617316.456 5      2735.312          40.300  
                  23904180.242    97883623.718 6      2131.404          25.300  
                                                                
  23758716.359                   124852874.831 5     -2949.662          40.000  
                  23758723.680    97287947.309 6     -2298.434          24.500  
                                                                
  22083684.633                   116050563.433 7      2697.870          50.500  
                  22083687.914    90429014.945 8      2102.230          36.500  
                                                                
  20897305.023                   109816088.429 7     -1633.888          49.300  
                  20897310.824    85570980.355 9     -1273.155          41.300  
                                                                
  21519110.719                   115031971.620 5     -1858.258          40.800  
                  21519113.840    89469326.814 7     -1445.309          27.000  
                                                                
  20421252.203                   108971720.937 5       422.570          40.000  
                                                                                
                                                                
  23078764.805                   123542443.840 6      2150.217          42.000  
                  23078767.145    96088575.876 8      1672.395          40.800  
                                                                
  22246817.391                   118880268.171 6      -267.105          41.800  
                  22246822.551    92462438.154 8      -207.746          35.800  
                                                                
  22069528.156                   117891486.711 5      3240.717          40.000  
                  22069531.695    91693384.125 8      2520.558          37.000  
                                                                
  21637724.695                   115706623.794 6     -3992.454          41.300  
                  21637728.957    89994036.690 9     -3105.244          43.300  
                                                                
  20202894.008                   108109753.885 8      -521.162          50.300  
                  20202895.527    84085356.431 9      -405.348          47.300  
                                                                
  22986165.250                   122701711.977 6      3282.866          41.300  
                  22986167.551    95434662.807 8      2553.338          40.000  
                                                                
 18 07 01  0  1 50.0000000  0 19G01G08G10G11G14G18G20G22G27G31G32R05 0.000000000
                                R06R07R15R16R20R21R22       
  23763056.000                   124875704.859 5      3323.056          40.500  
                  23763062.820    97305745.950 7      2589.394          26.500  
                                                                
  23315247.625                   122522426.984 6     -1925.658          45.300  
                  23315254.504    95472016.930 7     -1500.521          31.000  
                                                                
  21867918.773                   114916694.175 7     -1543.233          48.800  
                  21867924.852    89545471.710 8     -1202.519          36.800  
                                                                
  23497080.406                   123477993.543 6      1904.680          45.000  
                  23497083.785    96216618.587 7      1484.168          28.800  
                                                                
  20075149.867                   105495635.151 6       101.125          47.000  
                  20075152.727    82204396.796 8        78.803          39.000  
                                                                
  21989296.977                   115554536.329 7      2293.952          48.300  
                  21989301.137    90042499.667 8      1787.485          36.300  
                                                                
  23508741.922                   123539260.480 5     -2248.183          40.500  
                  23508747.762    96264362.974 6     -1751.827          23.300  
                                                                
  23901575.945                   125603640.111 5      2735.214          40.500  
                  23901577.906    97872966.832 6      2131.342          25.500  
                                                                
  23761522.625                   124867623.837 5     -2949.938          39.300  
                  23761530.285    97299440.037 7     -2298.638          26.300  
                                                                
  22081118.297                   116037079.249 7      2696.133          50.500  
                  22081122.438    90418507.790 8      2100.883          36.300  
                                                                
  20898860.781                   109824262.723 7     -1635.538          49.800  
                  20898866.359    85577349.939 9     -1274.445          41.300  
                                                                
  21520848.602                   115041263.654 5     -1858.557          40.500  
                  21520852.082    89476553.951 7     -1445.546          28.000  
                                                                
  20420856.164                   108969611.084 5       421.530          39.500  
                                                                                
                                                                
  23076756.406                   123531694.872 6      2149.523          41.300  
                  23076759.406    96080215.572 8      1671.851          40.300  
                                                                
  22247070.516                   118881616.100 6      -271.257          41.500  
                  22247074.977    92463486.539 8      -210.975          35.500  
                                                                
  22066495.578                   117875288.762 5      3238.837          39.800  
                  22066498.879    91680785.724 8      2519.093          37.300  
                                                                
  21641458.836                   115726591.649 6     -3994.320          41.300  
                  21641463.438    90009567.236 9     -3106.689          44.000  
                                                                
  20203382.711                   108112373.461 8      -525.780          50.500  
                  20203385.410    84087393.894 9      -408.944          47.000  
                                                                
  22983091.688                   122685306.322 5      3279.997          41.000  
                  22983094.406    95421902.860 8      2551.109          40.300  
                                                                
 18 07 01  0  1 55.0000000  0 19G01G08G10G11G14G18G20G22G27G31G32R05 0.000000000
                                R06R07R15R16R20R21R22       
  23759894.602                   124859092.274 5      3322.139          40.800  
                  23759901.941    97292801.064 7      2588.680          27.000  
                                                                
  23317080.969                   122532060.707 6     -1927.468          44.500  
                  23317087.328    95479523.715 7     -1501.913          30.300  
                                                                
  21869387.656                   114924413.231 7     -1544.187          48.500  
                  21869393.617    89551486.557 8     -1203.260          37.000  
                                                                
  23495269.820                   123468476.345 6      1902.617          45.300  
                  23495272.602    96209202.584 7      1482.555          28.500  
                                                                
  20075054.805                   105495137.197 6        98.595          47.000  
                  20075058.023    82204008.782 8        76.823          39.000  
                                                                
  21987115.695                   115543072.464 7      2291.997          47.300  
                  21987119.695    90033566.781 8      1785.976          36.800  
                                                                
  23510882.188                   123550503.610 4     -2248.908          39.000  
                  23510887.449    96273123.852 6     -1752.392          24.000  
                                                                
  23898973.422                   125589964.060 5      2735.199          40.300  
                  23898975.543    97862310.185 6      2131.315          24.300  
                                                                
  23764330.180                   124882374.322 5     -2950.198          40.300  
                  23764337.379    97310933.907 6     -2298.839          25.500  
                                                                
  22078553.875                   116023603.711 7      2694.435          50.000  
                  22078558.137    90408007.386 8      2099.554          36.500  
                                                                
  20900417.898                   109832445.218 7     -1637.120          48.800  
                  20900423.578    85583725.909 9     -1275.676          41.800  
                                                                
  21522587.742                   115050556.965 5     -1858.725          40.800  
                  21522590.164    89483782.078 7     -1445.671          27.800  
                                                                
  20420461.484                   108967505.690 5       420.729          39.300  
                                                                                
                                                                
  23074748.805                   123520949.094 6      2148.934          41.800  
                  23074752.125    96071857.754 8      1671.396          40.800  
                                                                
  22247325.273                   118882984.944 6      -275.419          42.000  
                  22247331.313    92464551.196 8      -214.211          35.000  
                                                                
  22063465.516                   117859099.924 5      3237.039          40.000  
                  22063468.336    91668194.420 8      2517.687          37.000  
                                                                
  21645195.219                   115746568.790 6     -3996.160          41.800  
                  21645199.000    90025105.003 9     -3108.118          44.000  
                                                                
  20203875.891                   108115015.864 8      -530.288          49.800  
                  20203878.930    84089449.087 9      -412.442          47.000  
                                                                
  22980020.906                   122668914.551 6      3277.240          42.300  
                  22980023.125    95409153.696 8      2548.969          40.000  
                                                                
 18 07 01  0  2  0.0000000  0 19G01G08G10G11G14G18G20G22G27G31G32R05 0.000000000
                                R06R07R15R16R20R21R22       
  23756734.242                   124842484.396 5      3321.164          40.000  
                  23756741.363    97279859.881 7      2587.918          26.800  
                                                                
  23318916.164                   122541703.747 6     -1929.394          45.500  
                  23318922.266    95487037.784 7     -1503.428          30.800  
                                                                
  21870857.680                   114932137.119 7     -1545.193          49.500  
                  21870863.758    89557505.169 8     -1204.049          37.500  
                                                                
  23493460.625                   123458969.610 6      1900.489          44.800  
                  23493464.184    96201794.727 7      1480.911          29.300  
                                                                
  20074962.430                   105494652.220 6        95.936          46.500  
                  20074965.570    82203630.880 8        74.755          39.500  
                                                                
  21984935.672                   115531618.336 7      2290.016          48.000  
                  21984939.652    90024641.487 8      1784.424          35.800  
                                                                
  23513022.102                   123561750.823 5     -2249.796          40.000  
                  23513028.223    96281887.912 6     -1753.086          23.800  
                                                                
  23896370.961                   125576288.142 5      2735.151          40.800  
                  23896372.383    97851653.641 6      2131.277          24.500  
                                                                
  23767137.844                   124897126.053 5     -2950.466          41.300  
                  23767144.863    97322428.764 7     -2299.064          27.800  
                                                                
  22075991.531                   116010136.724 7      2692.680          50.500  
                  22075994.992    90397513.638 8      2098.188          36.500  
                                                                
  20901976.164                   109840635.790 7     -1638.796          50.300  
                  20901981.844    85590108.173 9     -1276.990          41.800  
                                                                
  21524326.320                   115059851.473 6     -1859.049          41.800  
                  21524328.879    89491011.152 7     -1445.931          26.800  
                                                                
  20420069.125                   108965404.717 5       419.769          39.500  
                                                                                
                                                                
  23072741.891                   123510206.363 6      2148.287          42.800  
                  23072745.012    96063502.302 8      1670.890          39.500  
                                                                
  22247585.813                   118884374.727 6      -279.646          41.500  
                  22247591.211    92465632.138 8      -217.509          35.500  
                                                                
  22060435.555                   117842920.185 5      3235.215          40.500  
                  22060438.996    91655610.166 8      2516.270          37.000  
                                                                
  21648931.578                   115766554.986 6     -3997.991          41.500  
                  21648937.000    90040649.819 9     -3109.549          44.000  
                                                                
  20204374.031                   108117681.059 8      -534.901          49.300  
                  20204376.992    84091522.000 9      -416.034          47.000  
                                                                
  22976952.930                   122652536.705 6      3274.419          42.000  
                  22976955.391    95396415.370 8      2546.768          40.300  
                                                                
 18 07 01  0  2  5.0000000  0 19G01G08G10G11G14G18G20G22G27G31G32R05 0.000000000
                                R06R07R15R16R20R21R22       
  23753574.844                   124825881.306 5      3320.223          41.000  
                  23753581.844    97266922.402 7      2587.181          26.800  
                                                                
  23320752.344                   122551356.194 6     -1931.249          45.300  
                  23320759.383    95494559.175 7     -1504.872          30.500  
                                                                
  21872328.453                   114939865.889 7     -1546.158          49.300  
                  21872334.492    89563527.576 8     -1204.794          38.000  
                                                                
  23491653.266                   123449473.388 6      1898.397          44.500  
                  23491656.707    96194395.077 7      1479.260          29.500  
                                                                
  20074873.070                   105494180.294 6        93.337          46.800  
                  20074875.891    82203263.140 8        72.732          39.500  
                                                                
  21982758.133                   115520174.012 7      2288.090          47.800  
                  21982761.711    90015723.838 8      1782.925          35.800  
                                                                
  23515162.961                   123573002.059 5     -2250.566          39.300  
                  23515168.941    96290655.117 6     -1753.667          24.300  
                                                                
  23893768.484                   125562612.470 5      2735.109          40.500  
                  23893769.684    97840997.266 7      2131.260          26.500  
                                                                
  23769944.664                   124911879.168 5     -2950.750          41.300  
                  23769951.883    97333924.688 7     -2299.277          27.000  
                                                                
  22073430.352                   115996678.357 7      2690.972          50.000  
                  22073433.633    90387026.599 8      2096.864          36.000  
                                                                
  20903536.539                   109848834.510 7     -1640.409          49.500  
                  20903542.238    85596496.788 9     -1278.243          42.000  
                                                                
  21526064.742                   115069147.350 5     -1859.292          41.000  
                  21526068.480    89498241.277 7     -1446.114          29.800  
                                                                
  20419674.922                   108963308.338 5       418.907          40.300  
                                                                                
                                                                
  23070736.352                   123499466.723 6      2147.677          42.500  
                  23070739.332    96055149.245 8      1670.419          40.800  
                                                                
  22247848.875                   118885785.276 6      -283.774          42.000  
                  22247855.535    92466729.236 8      -220.711          35.300  
                                                                
  22057409.336                   117826749.578 5      3233.334          39.800  
                  22057412.055    91643033.026 8      2514.812          37.000  
                                                                
  21652670.633                   115786550.516 6     -3999.868          41.800  
                  21652676.113    90056201.875 9     -3111.000          43.800  
                                                                
  20204878.031                   108120368.973 8      -539.412          50.500  
                  20204879.430    84093612.586 9      -419.538          47.300  
                                                                
  22973887.367                   122636172.962 6      3271.611          42.800  
                  22973889.828    95383688.030 8      2544.582          40.500  
                                                                
 18 07 01  0  2 10.0000000  0 19G01G08G10G11G14G18G20G22G27G31G32R05 0.000000000
                                R06R07R15R16R20R21R22       
  23750415.945                   124809282.927 5      3319.272          40.800  
                  23750422.625    97253988.598 7      2586.452          27.500  
                                                                
  23322591.688                   122561017.863 6     -1933.086          46.300  
                  23322597.848    95502087.738 7     -1506.307          30.500  
                                                                
  21873799.953                   114947599.478 7     -1547.138          48.300  
                  21873806.113    89569553.745 8     -1205.556          37.000  
                                                                
  23489847.844                   123439987.592 6      1896.285          44.300  
                  23489851.445    96187003.547 7      1477.622          28.800  
                                                                
  20074785.430                   105493721.322 6        90.728          46.800  
                  20074788.668    82202905.501 8        70.695          39.500  
                                                                
  21980581.734                   115508739.415 7      2286.119          47.800  
                  21980585.953    90006813.764 8      1781.389          36.300  
                                                                
  23517304.984                   123584257.373 5     -2251.428          40.500  
                  23517311.145    96299425.467 6     -1754.341          24.300  
                                                                
  23891166.219                   125548936.912 5      2735.059          41.500  
                  23891167.297    97830340.994 6      2131.221          25.800  
                                                                
  23772752.844                   124926633.563 5     -2951.012          41.000  
                  23772759.984    97345421.623 7     -2299.488          27.000  
                                                                
  22070870.992                   115983228.572 7      2689.233          49.800  
                  22070874.492    90376546.259 8      2095.502          36.000  
                                                                
  20905097.719                   109857041.291 7     -1642.023          49.500  
                  20905104.297    85602891.684 9     -1279.498          42.000  
                                                                
  21527804.156                   115078444.365 5     -1859.543          40.800  
                  21527807.395    89505472.280 7     -1446.320          29.300  
                                                                
  20419283.266                   108961216.351 5       418.003          39.500  
                                                                                
                                                                
  23068731.211                   123488730.118 6      2147.069          43.300  
                  23068733.891    96046798.558 8      1669.940          41.000  
                                                                
  22248117.430                   118887216.521 6      -287.942          41.300  
                  22248123.570    92467842.420 8      -223.945          35.500  
                                                                
  22054383.180                   117810587.938 5      3231.574          39.800  
                  22054386.340    91630462.859 8      2513.440          37.500  
                                                                
  21656412.219                   115806555.020 5     -4001.619          41.000  
                  21656417.238    90071760.929 9     -3112.373          44.000  
                                                                
  20205383.648                   108123079.619 8      -543.966          50.300  
                  20205385.227    84095720.878 9      -423.089          46.500  
                                                                
  22970823.945                   122619823.242 6      3268.792          43.300  
                  22970826.805    95370971.592 8      2542.396          40.500  
                                                                
 18 07 01  0  2 15.0000000  0 19G01G08G10G11G14G18G20G22G27G31G32R05 0.000000000
                                R06R07R15R16R20R21R22       
  23747258.203                   124792689.256 5      3318.353          40.000  
                  23747265.305    97241058.472 7      2585.723          26.500  
                                                                
  23324431.648                   122570688.825 6     -1934.928          46.000  
                  23324437.988    95509623.539 7     -1507.732          30.800  
                                                                
  21875272.695                   114955337.872 7     -1548.070          47.500  
                  21875278.914    89575583.669 8     -1206.293          37.500  
                                                                
  23488044.766                   123430512.253 6      1894.233          44.800  
                  23488048.125    96179620.175 7      1476.019          28.300  
                                                                
  20074700.727                   105493275.282 6        88.164          47.000  
                  20074703.527    82202557.940 8        68.693          38.500  
                                                                
  21978407.695                   115497314.547 6      2284.172          46.300  
                  21978411.414    89997911.270 8      1779.874          36.000  
                                                                
  23519447.523                   123595516.625 5     -2252.172          40.800  
                  23519453.723    96308198.937 6     -1754.943          24.500  
                                                                
  23888564.539                   125535261.526 5      2735.057          41.000  
                  23888565.680    97819684.861 6      2131.201          25.300  
                                                                
  23775560.961                   124941389.201 5     -2951.233          41.500  
                  23775567.660    97356919.510 6     -2299.662          25.500  
                                                                
  22068313.156                   115969787.334 7      2687.549          50.000  
                  22068316.195    90366072.578 8      2094.186          35.300  
                                                                
  20906661.266                   109865256.112 7     -1643.607          48.500  
                  20906667.426    85609292.848 9     -1280.739          41.500  
                                                                
  21529543.898                   115087742.514 6     -1859.706          41.300  
                  21529547.000    89512704.163 7     -1446.440          28.800  
                                                                
  20418891.086                   108959128.918 5       417.141          40.000  
                                                                                
                                                                
  23066725.805                   123477996.618 6      2146.424          43.500  
                  23066728.605    96038450.289 8      1669.437          41.000  
                                                                
  22248388.852                   118888668.714 6      -292.092          41.500  
                  22248394.953    92468971.909 8      -227.185          35.500  
                                                                
  22051360.117                   117794435.552 5      3229.758          39.300  
                  22051362.898    91617899.888 8      2512.042          37.000  
                                                                
  21660154.117                   115826568.584 6     -4003.467          41.500  
                  21660159.219    90087327.016 9     -3113.801          43.300  
                                                                
  20205894.648                   108125812.941 8      -548.477          49.800  
                  20205896.367    84097846.785 9      -426.593          47.000  
                                                                
  22967763.930                   122603487.398 6      3266.022          43.800  
                  22967766.871    95358265.946 8      2540.235          40.800  
                                                                
 18 07 01  0  2 20.0000000  0 19G01G08G10G11G14G18G20G22G27G31G32R05 0.000000000
                                R06R07R15R16R20R21R22       
  23744101.742                   124776100.405 5      3317.394          41.000  
                  23744108.961    97228132.102 6      2584.982          25.500  
                                                                
  23326273.703                   122580368.971 6     -1936.741          46.000  
                  23326280.203    95517166.499 7     -1509.149          29.800  
                                                                
  21876745.914                   114963081.130 6     -1549.029          46.500  
                  21876752.652    89581617.367 8     -1207.032          37.000  
                                                                
  23486243.688                   123421047.390 6      1892.157          43.800  
                  23486246.848    96172244.953 7      1474.412          29.300  
                                                                
  20074618.328                   105492842.215 6        85.576          46.800  
                  20074621.207    82202220.487 8        66.678          38.800  
                                                                
  21976235.773                   115485899.491 6      2282.243          46.800  
                  21976239.414    89989016.413 8      1778.378          36.000  
                                                                
  23521591.305                   123606779.924 5     -2252.949          40.000  
                  23521596.684    96316975.534 6     -1755.557          24.500  
                                                                
  23885962.039                   125521586.350 5      2735.020          41.500  
                  23885962.840    97809028.879 6      2131.190          26.000  
                                                                
  23778368.984                   124956146.115 5     -2951.472          40.800  
                  23778376.184    97368418.403 7     -2299.855          27.500  
                                                                
  22065757.477                   115956354.731 7      2685.841          50.500  
                  22065760.215    90355605.620 8      2092.865          36.000  
                                                                
  20908226.180                   109873479.008 7     -1645.204          48.500  
                  20908231.918    85615700.293 9     -1281.971          42.300  
                                                                
  21531283.977                   115097042.076 6     -1859.987          41.500  
                  21531286.375    89519937.142 7     -1446.661          28.000  
                                                                
  20418502.508                   108957045.815 5       416.290          39.500  
                                                                                
                                                                
  23064722.211                   123467266.115 6      2145.840          43.800  
                  23064723.949    96030104.340 9      1668.989          41.300  
                                                                
  22248665.234                   118890141.730 6      -296.273          43.000  
                  22248670.395    92470117.585 8      -230.429          35.500  
                                                                
  22048337.234                   117778292.183 5      3227.945          39.800  
                  22048341.074    91605343.957 8      2510.615          37.000  
                                                                
  21663899.094                   115846591.344 6     -4005.277          41.800  
                  21663903.313    90102900.265 9     -3115.209          43.500  
                                                                
  20206409.625                   108128569.008 8      -553.031          50.800  
                  20206411.387    84099990.376 9      -430.129          47.500  
                                                                
  22964706.188                   122587165.679 6      3263.228          43.300  
                  22964709.426    95345571.269 8      2538.070          40.500  
                                                                
 18 07 01  0  2 25.0000000  0 19G01G08G10G11G14G18G20G22G27G31G32R05 0.000000000
                                R06R07R15R16R20R21R22       
  23740945.961                   124759516.270 5      3316.440          40.500  
                  23740952.582    97215209.397 6      2584.235          26.000  
                                                                
  23328118.047                   122590058.334 6     -1938.609          46.000  
                  23328123.945    95524716.644 7     -1510.602          31.300  
                                                                
  21878220.313                   114970829.191 6     -1549.994          46.500  
                  21878226.934    89587654.815 8     -1207.785          37.300  
                                                                
  23484444.188                   123411592.990 6      1890.052          43.500  
                  23484447.727    96164877.882 7      1472.770          29.300  
                                                                
  20074538.211                   105492422.098 6        82.982          47.000  
                  20074541.172    82201893.121 8        64.661          39.500  
                                                                
  21974065.133                   115474494.259 7      2280.260          47.300  
                  21974068.512    89980129.223 8      1776.830          36.000  
                                                                
  23523734.766                   123618047.235 5     -2253.767          40.500  
                  23523740.984    96325755.250 6     -1756.188          25.500  
                                                                
  23883359.383                   125507911.300 6      2734.999          42.300  
                  23883360.504    97798373.009 6      2131.170          26.000  
                                                                
  23781177.305                   124970904.246 5     -2951.704          42.000  
                  23781183.844    97379918.231 6     -2300.031          25.500  
                                                                
  22063202.438                   115942930.766 7      2684.109          49.500  
                  22063206.059    90345145.396 8      2091.512          35.800  
                                                                
  20909792.320                   109881709.928 7     -1646.836          49.000  
                  20909797.898    85622113.995 9     -1283.243          41.800  
                                                                
  21533024.180                   115106342.665 6     -1860.206          42.300  
                  21533026.898    89527170.929 7     -1446.823          28.000  
                                                                
  20418112.227                   108954967.073 4       415.391          39.000  
                                                                                
                                                                
  23062717.945                   123456538.616 6      2145.273          43.300  
                  23062720.207    96021760.736 8      1668.548          41.000  
                                                                
  22248944.273                   118891635.582 6      -300.449          42.300  
                  22248950.434    92471279.466 8      -233.679          35.800  
                                                                
  22045318.992                   117762158.048 5      3226.110          39.500  
                  22045320.953    91592795.191 8      2509.190          36.800  
                                                                
  21667644.797                   115866623.047 6     -4007.058          41.500  
                  21667649.355    90118480.481 9     -3116.607          43.500  
                                                                
  20206928.672                   108131347.695 8      -557.558          50.000  
                  20206931.031    84102151.575 9      -433.650          47.500  
                                                                
  22961651.727                   122570857.900 6      3260.409          43.500  
                  22961654.285    95332887.448 8      2535.865          40.500  
                                                                
 18 07 01  0  2 30.0000000  0 19G01G08G10G11G14G18G20G22G27G31G32R05 0.000000000
                                R06R07R15R16R20R21R22       
  23737791.164                   124742936.901 5      3315.525          41.000  
                  23737797.703    97202290.417 7      2583.520          27.000  
                                                                
  23329963.367                   122599756.910 6     -1940.438          46.000  
                  23329969.688    95532273.984 7     -1512.037          30.800  
                                                                
  21879695.617                   114978582.069 7     -1550.924          47.500  
                  21879701.719    89593696.016 8     -1208.514          37.500  
                                                                
  23482647.641                   123402149.092 6      1887.964          43.800  
                  23482650.859    96157518.999 7      1471.144          28.800  
                                                                
  20074460.648                   105492014.941 7        80.420          47.300  
                  20074463.668    82201575.860 8        62.665          38.800  
                                                                
  21971896.656                   115463098.783 6      2278.350          46.500  
                  21971900.617    89971249.631 8      1775.337          35.800  
                                                                
  23525880.461                   123629318.529 5     -2254.555          39.500  
                  23525885.680    96334538.087 6     -1756.810          24.300  
                                                                
  23880757.539                   125494236.455 5      2734.996          42.000  
                  23880758.258    97787717.277 7      2131.164          26.800  
                                                                
  23783985.844                   124985663.581 5     -2951.914          40.500  
                  23783992.184    97391419.028 7     -2300.195          26.800  
                                                                
  22060650.031                   115929515.430 7      2682.409          49.800  
                  22060653.371    90334691.900 8      2090.185          36.500  
                                                                
  20911360.484                   109889948.862 7     -1648.397          49.300  
                  20911366.023    85628533.945 9     -1284.465          41.800  
                                                                
  21534763.859                   115115644.462 6     -1860.447          42.000  
                  21534767.078    89534405.660 7     -1447.014          28.500  
                                                                
  20417724.047                   108952892.847 5       414.534          39.300  
                                                                                
                                                                
  23060714.188                   123445814.238 6      2144.700          43.500  
                  23060716.688    96013419.573 8      1668.092          40.800  
                                                                
  22249228.055                   118893150.322 6      -304.580          42.300  
                  22249233.934    92472457.593 8      -236.889          36.000  
                                                                
  22042300.594                   117746033.009 5      3224.280          40.500  
                  22042301.934    91580253.503 8      2507.780          37.300  
                                                                
  21671392.734                   115886663.852 6     -4008.833          42.000  
                  21671396.953    90134067.759 9     -3117.979          43.500  
                                                                
  20207452.406                   108134149.073 8      -562.058          50.300  
                  20207454.965    84104330.435 9      -437.163          47.000  
                                                                
  22958599.672                   122554564.190 6      3257.655          43.300  
                  22958601.391    95320214.556 8      2533.733          40.800  
                                                                
 18 07 01  0  2 35.0000000  0 19G01G08G10G11G14G18G20G22G27G31G32R05 0.000000000
                                R06R07R15R16R20R21R22       
  23734636.344                   124726362.380 5      3314.553          41.000  
                  23734643.625    97189375.211 7      2582.767          27.300  
                                                                
  23331810.648                   122609464.699 6     -1942.243          45.500  
                  23331816.949    95539838.493 7     -1513.436          31.300  
                                                                
  21881171.680                   114986339.833 7     -1551.917          48.500  
                  21881178.461    89599741.015 8     -1209.278          37.300  
                                                                
  23480852.281                   123392715.697 6      1885.869          44.300  
                  23480855.820    96150168.309 7      1469.513          29.300  
                                                                
  20074386.148                   105491620.792 6        77.830          47.000  
                  20074388.949    82201268.729 8        60.649          39.500  
                                                                
  21969729.992                   115451713.217 6      2276.371          46.800  
                  21969734.051    89962377.764 8      1773.794          35.800  
                                                                
  23528026.266                   123640593.881 5     -2255.322          40.000  
                  23528031.105    96343324.067 6     -1757.384          24.300  
                                                                
  23878155.125                   125480561.783 5      2734.957          41.800  
                  23878156.266    97777061.705 7      2131.121          26.500  
                                                                
  23786794.641                   125000424.172 5     -2952.179          41.500  
                  23786800.879    97402920.785 7     -2300.412          26.500  
                                                                
  22058098.313                   115916108.776 7      2680.670          50.300  
                  22058101.973    90324245.164 8      2088.832          36.500  
                                                                
  20912929.844                   109898195.870 7     -1649.994          49.300  
                  20912935.402    85634960.183 9     -1285.708          41.300  
                                                                
  21536503.602                   115124947.411 6     -1860.650          41.500  
                  21536506.523    89541641.304 7     -1447.166          28.000  
                                                                
  20417334.844                   108950823.152 5       413.654          39.500  
                                                                                
                                                                
  23058710.531                   123435092.921 6      2144.036          43.000  
                  23058713.652    96005080.782 8      1667.575          40.500  
                                                                
  22249515.789                   118894685.991 6      -308.772          41.800  
                  22249521.809    92473652.000 8      -240.154          36.500  
                                                                
  22039283.156                   117729917.306 6      3222.435          41.500  
                  22039285.016    91567719.073 8      2506.336          38.000  
                                                                
  21675141.977                   115906713.627 6     -4010.638          42.000  
                  21675146.555    90149662.020 9     -3119.381          43.000  
                                                                
  20207979.289                   108136973.189 8      -566.575          49.800  
                  20207982.027    84106526.977 9      -440.667          47.000  
                                                                
  22955549.352                   122538284.580 6      3254.820          44.500  
                  22955551.813    95307552.635 8      2531.529          41.000  
                                                                
 18 07 01  0  2 40.0000000  0 19G01G08G10G11G14G18G20G22G27G31G32R05 0.000000000
                                R06R07R15R16R20R21R22       
  23731483.203                   124709792.675 5      3313.578          40.300  
                  23731490.684    97176463.739 7      2582.025          27.800  
                                                                
  23333659.742                   122619181.673 6     -1944.111          46.300  
                  23333665.941    95547410.157 7     -1514.890          31.000  
                                                                
  21882649.359                   114994102.480 7     -1552.931          49.000  
                  21882655.539    89605789.826 8     -1210.076          37.500  
                                                                
  23479059.305                   123383292.864 6      1883.720          44.000  
                  23479062.863    96142825.842 7      1467.838          29.500  
                                                                
  20074313.648                   105491239.637 6        75.173          46.800  
                  20074316.289    82200971.728 8        58.583          39.300  
                                                                
  21967565.172                   115440337.524 6      2274.358          47.000  
                  21967569.172    89953513.588 8      1772.233          35.500  
                                                                
  23530172.227                   123651873.336 5     -2256.231          40.000  
                  23530177.465    96352113.266 6     -1758.125          24.500  
                                                                
  23875553.523                   125466887.345 6      2734.878          42.300  
                  23875553.883    97766406.305 7      2131.063          27.000  
                                                                
  23789603.625                   125015186.034 5     -2952.479          41.300  
                  23789610.066    97414423.522 6     -2300.633          24.300  
                                                                
  22055548.977                   115902710.879 7      2678.865          51.000  
                  22055552.238    90313805.255 8      2087.417          36.500  
                                                                
  20914500.578                   109906450.937 7     -1651.666          49.500  
                  20914506.637    85641392.703 9     -1287.012          42.000  
                                                                
  21538245.039                   115134251.750 6     -1860.965          41.500  
                  21538247.039    89548878.007 7     -1447.401          28.000  
                                                                
  20416949.141                   108948757.808 5       412.717          39.500  
                                                                                
                                                                
  23056708.430                   123424374.661 6      2143.391          43.800  
                  23056711.730    95996744.358 8      1667.082          40.500  
                                                                
  22249807.211                   118896242.616 6      -312.988          42.500  
                  22249812.551    92474862.710 8      -243.433          37.000  
                                                                
  22036267.078                   117713810.787 6      3220.528          41.300  
                  22036270.238    91555191.787 8      2504.853          38.500  
                                                                
  21678894.180                   115926772.412 6     -4012.496          42.500  
                  21678897.480    90165263.289 9     -3120.832          43.500  
                                                                
  20208511.891                   108139820.065 8      -571.198          49.500  
                  20208514.430    84108741.207 9      -444.263          46.800  
                                                                
  22952501.969                   122522019.218 6      3251.930          44.300  
                  22952504.508    95294901.808 8      2529.281          41.000  
                                                                
 18 07 01  0  2 45.0000000  0 19G01G08G10G11G14G18G20G22G27G31G32R05 0.000000000
                                R06R07R15R16R20R21R22       
  23728331.563                   124693227.831 5      3312.604          40.500  
                  23728338.164    97163556.074 6      2581.256          26.000  
                                                                
  23335510.609                   122628907.842 6     -1945.971          46.000  
                  23335517.109    95554988.990 7     -1516.337          32.000  
                                                                
  21884127.594                   115001869.945 7     -1553.859          49.300  
                  21884133.773    89611842.390 8     -1210.795          37.800  
                                                                
  23477268.406                   123373880.572 6      1881.621          44.000  
                  23477271.906    96135491.599 7      1466.190          28.300  
                                                                
  20074243.070                   105490871.414 6        72.609          47.000  
                  20074246.148    82200684.806 8        56.576          39.000  
                                                                
  21965402.234                   115428971.584 6      2272.393          46.800  
                  21965406.215    89944657.015 8      1770.690          35.000  
                                                                
  23532318.406                   123663156.743 5     -2257.017          39.500  
                  23532324.766    96360905.519 6     -1758.718          24.500  
                                                                
  23872951.125                   125453213.112 5      2734.828          42.000  
                  23872951.605    97755751.050 7      2131.041          27.000  
                                                                
  23792412.680                   125029949.037 5     -2952.678          41.500  
                  23792419.660    97425927.144 6     -2300.780          24.800  
                                                                
  22053001.211                   115889321.651 7      2677.152          51.300  
                  22053004.531    90303372.088 8      2086.100          36.500  
                                                                
  20916072.984                   109914713.997 7     -1653.253          49.800  
                  20916078.543    85647831.455 9     -1288.243          41.800  
                                                                
  21539984.703                   115143557.228 6     -1861.184          41.300  
                  21539988.465    89556115.597 7     -1447.598          28.000  
                                                                
  20416562.406                   108946696.952 4       411.842          39.000  
                                                                                
                                                                
  23054705.727                   123413659.458 6      2142.802          43.500  
                  23054709.227    95988410.315 8      1666.622          40.800  
                                                                
  22250102.148                   118897819.915 6      -317.100          42.000  
                  22250108.527    92476089.492 8      -246.634          36.300  
                                                                
  22033253.180                   117697713.436 6      3218.751          41.500  
                  22033256.539    91542671.641 8      2503.467          38.000  
                                                                
  21682646.680                   115946840.096 6     -4014.274          43.000  
                  21682650.418    90180871.479 9     -3122.209          43.500  
                                                                
  20209048.547                   108142689.589 8      -575.706          50.300  
                  20209050.785    84110973.050 9      -447.767          47.300  
                                                                
  22949458.211                   122505767.881 6      3249.138          44.500  
                  22949459.871    95282261.873 8      2527.111          40.800  
                                                                
 18 07 01  0  2 50.0000000  0 19G01G08G10G11G14G18G20G22G27G31G32R05 0.000000000
                                R06R07R15R16R20R21R22       
  23725179.578                   124676667.911 5      3311.613          40.000  
                  23725186.598    97150652.243 6      2580.476          25.300  
                                                                
  23337363.148                   122638643.223 6     -1947.829          45.500  
                  23337369.609    95562575.003 7     -1517.793          30.500  
                                                                
  21885605.938                   115009642.358 7     -1554.847          49.500  
                  21885612.879    89617898.818 8     -1211.571          37.500  
                                                                
  23475479.383                   123364478.915 6      1879.482          44.500  
                  23475482.824    96128165.617 7      1464.535          29.000  
                                                                
  20074175.445                   105490516.205 6        70.010          47.000  
                  20074178.484    82200408.011 8        54.555          39.000  
                                                                
  21963241.172                   115417615.612 6      2270.391          47.000  
                  21963245.031    89935808.202 8      1769.136          34.500  
                                                                
  23534467.063                   123674444.257 5     -2257.808          39.300  
                  23534472.441    96369700.966 6     -1759.337          23.000  
                                                                
  23870348.602                   125439539.108 6      2734.781          42.800  
                  23870349.762    97745095.988 6      2131.002          26.000  
                                                                
  23795222.883                   125044713.322 5     -2952.949          41.500  
                  23795229.324    97437431.772 6     -2300.999          25.800  
                                                                
  22050455.031                   115875941.179 7      2675.396          51.000  
                  22050458.191    90292945.757 8      2084.729          36.500  
                                                                
  20917646.945                   109922985.152 7     -1654.855          49.800  
                  20917652.645    85654276.515 9     -1289.498          42.000  
                                                                
  21541725.000                   115152864.041 6     -1861.481          41.800  
                  21541729.141    89563354.221 7     -1447.806          27.500  
                                                                
  20416176.063                   108944640.563 4       410.895          39.000  
                                                                                
                                                                
  23052705.109                   123402947.333 6      2142.160          43.300  
                  23052708.469    95980078.668 8      1666.116          40.000  
                                                                
  22250401.313                   118899418.078 6      -321.311          42.300  
                  22250407.191    92477332.501 8      -249.907          36.300  
                                                                
  22030242.195                   117681625.480 6      3216.860          41.300  
                  22030245.555    91530158.787 8      2502.005          37.500  
                                                                
  21686400.453                   115966916.859 6     -4016.039          43.300  
                  21686404.293    90196486.750 9     -3123.590          43.300  
                                                                
  20209588.047                   108145581.873 8      -580.258          50.300  
                  20209591.086    84113222.609 9      -451.314          47.000  
                                                                
  22946415.945                   122489530.789 6      3246.282          44.000  
                  22946419.227    95269633.028 9      2524.890          41.300  
                                                                
 18 07 01  0  2 55.0000000  0 19G01G08G10G11G14G18G20G22G27G31G32R05 0.000000000
                                R06R07R15R16R20R21R22       
  23722029.383                   124660112.644 5      3310.644          40.800  
                  23722035.883    97137752.033 6      2579.734          24.500  
                                                                
  23339216.484                   122648387.654 6     -1949.644          45.300  
                  23339223.824    95570168.052 7     -1519.197          31.000  
                                                                
  21887086.836                   115017419.508 7     -1555.837          49.000  
                  21887092.496    89623958.927 8     -1212.339          37.800  
                                                                
  23473692.203                   123355087.662 6      1877.419          44.500  
                  23473695.965    96120847.768 7      1462.924          29.500  
                                                                
  20074110.789                   105490173.816 7        67.440          47.300  
                  20074113.469    82200141.216 8        52.553          39.300  
                                                                
  21961082.258                   115406269.392 6      2268.428          46.500  
                  21961086.238    89926966.987 8      1767.606          35.300  
                                                                
  23536615.922                   123685735.663 5     -2258.593          39.500  
                  23536620.883    96378499.457 6     -1759.949          24.500  
                                                                
  23867746.305                   125425865.154 5      2734.768          41.300  
                  23867748.184    97734440.969 6      2130.994          25.300  
                                                                
  23798032.625                   125059478.629 6     -2953.167          42.800  
                  23798039.047    97448937.191 6     -2301.165          25.800  
                                                                
  22047910.477                   115862569.298 7      2673.670          51.300  
                  22047913.676    90282526.117 8      2083.373          36.500  
                                                                
  20919222.461                   109931264.179 7     -1656.466          50.000  
                  20919227.961    85660727.699 9     -1290.747          41.800  
                                                                
  21543468.320                   115162171.946 6     -1861.681          41.500  
                  21543470.262    89570593.690 7     -1447.972          28.800  
                                                                
  20415792.227                   108942588.461 5       410.057          40.000  
                                                                                
                                                                
  23050705.008                   123392238.168 6      2141.630          43.300  
                  23050707.949    95971749.320 8      1665.712          40.000  
                                                                
  22250703.289                   118901036.975 6      -325.463          42.000  
                  22250709.629    92478591.639 8      -253.140          36.000  
                                                                
  22027231.594                   117665546.699 5      3215.017          41.000  
                  22027235.035    91517653.075 8      2500.567          37.800  
                                                                
  21690158.336                   115987002.440 6     -4017.825          42.300  
                  21690160.695    90212108.865 9     -3124.971          43.000  
                                                                
  20210133.969                   108148496.686 8      -584.801          50.000  
                  20210135.750    84115489.679 9      -454.847          46.800  
                                                                
  22943375.711                   122473307.712 6      3243.469          43.800  
                  22943379.109    95257015.079 8      2522.698          41.000  
                                                                
 18 07 01  0  3  0.0000000  0 19G01G08G10G11G14G18G20G22G27G31G32R05 0.000000000
                                R06R07R15R16R20R21R22       
  23718880.422                   124643562.341 5      3309.648          40.500  
                  23718886.684    97124855.709 6      2578.934          24.000  
                                                                
  23341073.484                   122658141.271 6     -1951.473          46.000  
                  23341080.043    95577768.269 7     -1520.626          31.800  
                                                                
  21888567.391                   115025201.556 7     -1556.817          49.500  
                  21888573.469    89630022.867 8     -1213.107          37.500  
                                                                
  23471907.422                   123345707.055 6      1875.265          45.000  
                  23471911.000    96113538.215 7      1461.243          28.800  
                                                                
  20074048.008                   105489844.448 7        64.826          47.300  
                  20074050.586    82199884.573 8        50.510          39.500  
                                                                
  21958924.914                   115394933.150 6      2266.447          47.000  
                  21958929.152    89918133.556 8      1766.060          35.500  
                                                                
  23538765.641                   123697031.170 5     -2259.460          39.800  
                  23538770.301    96387301.141 6     -1760.623          25.500  
                                                                
  23865144.039                   125412191.536 5      2734.681          41.500  
                  23865146.320    97723786.214 7      2130.935          26.300  
                                                                
  23800841.945                   125074245.142 6     -2953.427          42.500  
                  23800849.465    97460443.551 7     -2301.368          26.500  
                                                                
  22045367.055                   115849206.179 7      2671.907          50.800  
                  22045371.254    90272113.303 8      2082.001          36.500  
                                                                
  20920799.703                   109939551.268 7     -1658.079          50.300  
                  20920804.922    85667185.175 9     -1292.010          42.000  
                                                                
  21545208.523                   115171481.058 6     -1861.925          41.500  
                  21545211.203    89577834.125 7     -1448.182          29.500  
                                                                
  20415407.984                   108940540.969 5       409.136          39.800  
                                                                                
                                                                
  23048705.109                   123381532.126 6      2140.966          43.000  
                  23048707.551    95963422.403 8      1665.196          40.000  
                                                                
  22251011.711                   118902676.787 6      -329.634          42.500  
                  22251016.711    92479867.038 8      -256.376          36.000  
                                                                
  22024223.734                   117649477.315 5      3213.054          40.500  
                  22024226.793    91505154.677 8      2499.038          38.000  
                                                                
  21693916.039                   116007096.960 6     -4019.632          43.000  
                  21693918.918    90227737.944 9     -3126.372          43.500  
                                                                
  20210682.406                   108151434.298 8      -589.368          50.000  
                  20210684.445    84117774.488 9      -458.402          46.500  
                                                                
  22940340.906                   122457098.855 6      3240.610          44.500  
                  22940342.867    95244408.199 8      2520.477          41.000  
                                                                
 18 07 01  0  3  5.0000000  0 19G01G08G10G11G14G18G20G22G27G31G32R05 0.000000000
                                R06R07R15R16R20R21R22       
  23715732.023                   124627016.996 5      3308.636          40.800  
                  23715737.965    97111963.218 6      2578.166          25.000  
                                                                
  23342931.305                   122667904.170 6     -1953.354          46.000  
                  23342937.945    95585375.725 7     -1522.096          31.800  
                                                                
  21890049.133                   115032988.526 7     -1557.829          49.300  
                  21890055.094    89636090.623 8     -1213.889          37.800  
                                                                
  23470123.805                   123336337.051 6      1873.110          44.500  
                  23470127.645    96106236.905 7      1459.573          29.000  
                                                                
  20073987.352                   105489528.058 6        62.214          46.300  
                  20073990.070    82199638.033 8        48.477          39.800  
                                                                
  21956769.555                   115383606.807 6      2264.442          46.500  
                  21956773.816    89909307.828 8      1764.502          35.300  
                                                                
  23540916.008                   123708330.744 5     -2260.275          39.500  
                  23540920.348    96396106.004 6     -1761.261          24.000  
                                                                
  23862543.039                   125398518.120 5      2734.615          41.300  
                  23862544.500    97713131.619 7      2130.871          27.000  
                                                                
  23803652.898                   125089012.856 6     -2953.687          42.800  
                  23803659.137    97471950.860 6     -2301.564          26.000  
                                                                
  22042825.773                   115835851.841 7      2670.125          50.300  
                  22042829.852    90261707.340 8      2080.617          36.800  
                                                                
  20922377.961                   109947846.383 7     -1659.700          50.000  
                  20922383.180    85673648.893 9     -1293.267          41.300  
                                                                
  21546950.797                   115180791.550 6     -1862.224          41.300  
                  21546953.016    89585075.602 7     -1448.374          27.300  
                                                                
  20415026.203                   108938498.022 4       408.216          39.000  
                                                                                
                                                                
  23046704.789                   123370829.254 6      2140.302          42.300  
                  23046708.270    95955097.959 8      1664.676          40.000  
                                                                
  22251321.969                   118904337.448 6      -333.837          42.500  
                  22251327.230    92481158.674 8      -259.653          35.800  
                                                                
  22021217.375                   117633417.265 5      3211.214          40.000  
                  22021220.496    91492663.517 8      2497.617          37.500  
                                                                
  21697673.773                   116027200.501 6     -4021.469          43.000  
                  21697678.434    90243374.046 9     -3127.807          44.000  
                                                                
  20211236.125                   108154394.650 8      -593.927          50.800  
                  20211237.406    84120076.984 9      -461.948          46.800  
                                                                
  22937306.070                   122440904.340 6      3237.733          44.300  
                  22937309.711    95231812.475 9      2518.235          41.500  
                                                                
 18 07 01  0  3 10.0000000  0 19G01G08G10G11G14G18G20G22G27G31G32R05 0.000000000
                                R06R07R15R16R20R21R22       
  23712584.102                   124610476.383 5      3307.727          40.500  
                  23712590.582    97099074.441 6      2577.435          25.500  
                                                                
  23344790.430                   122677676.024 6     -1955.107          46.500  
                  23344797.590    95592990.156 7     -1523.470          31.300  
                                                                
  21891531.258                   115040780.251 7     -1558.754          49.000  
                  21891537.680    89642162.099 8     -1214.609          37.800  
                                                                
  23468343.664                   123326977.502 6      1871.053          44.500  
                  23468347.004    96098943.740 7      1457.971          29.800  
                                                                
  20073929.945                   105489224.504 6        59.666          46.300  
                  20073933.285    82199401.499 8        46.489          39.300  
                                                                
  21954616.172                   115372290.306 7      2262.485          47.500  
                  21954620.211    89900489.775 8      1762.977          35.500  
                                                                
  23543065.766                   123719634.238 4     -2261.052          39.000  
                  23543071.086    96404913.922 6     -1761.849          23.800  
                                                                
  23859941.320                   125384844.786 5      2734.639          40.500  
                  23859942.660    97702477.087 7      2130.890          26.500  
                                                                
  23806463.039                   125103781.597 6     -2953.866          43.000  
                  23806469.340    97483458.970 7     -2301.720          26.500  
                                                                
  22040286.336                   115822506.174 7      2668.426          49.000  
                  22040290.477    90251308.141 8      2079.284          36.500  
                                                                
  20923958.242                   109956149.355 7     -1661.243          50.500  
                  20923963.184    85680118.745 9     -1294.479          42.000  
                                                                
  21548692.023                   115190103.081 6     -1862.416          41.800  
                  21548695.262    89592317.915 7     -1448.540          27.500  
                                                                
  20414643.141                   108936459.138 4       407.402          38.500  
                                                                                
                                                                
  23044706.305                   123360129.266 6      2139.719          42.500  
                  23044709.906    95946775.734 8      1664.226          40.300  
                                                                
  22251636.211                   118906018.823 6      -337.970          42.500  
                  22251641.832    92482466.410 8      -262.868          35.500  
                                                                
  22018212.758                   117617366.542 5      3209.400          40.500  
                  22018215.797    91480179.636 8      2496.198          37.800  
                                                                
  21701434.539                   116047312.830 6     -4023.180          41.800  
                  21701440.117    90259016.962 9     -3129.148          43.800  
                                                                
  20211792.852                   108157377.477 8      -598.420          50.300  
                  20211795.191    84122396.963 9      -465.442          46.500  
                                                                
  22934274.750                   122424723.866 6      3234.936          44.500  
                  22934277.910    95219227.668 9      2516.059          42.000  
                                                                
 18 07 01  0  3 15.0000000  0 19G01G08G10G11G14G18G20G22G27G31G32R05 0.000000000
                                R06R07R15R16R20R21R22       
  23709437.820                   124593940.701 5      3306.786          40.500  
                  23709444.059    97086189.480 7      2576.717          26.300  
                                                                
  23346651.703                   122687456.980 6     -1956.936          46.300  
                  23346659.125    95600611.668 7     -1524.881          32.000  
                                                                
  21893015.297                   115048576.818 7     -1559.695          50.000  
                  21893021.078    89648237.338 8     -1215.348          37.300  
                                                                
  23466564.063                   123317628.518 6      1868.967          44.300  
                  23466567.301    96091658.829 7      1456.329          28.300  
                                                                
  20073874.852                   105488933.840 6        57.106          46.500  
                  20073877.453    82199175.014 8        44.496          39.000  
                                                                
  21952464.797                   115360983.764 6      2260.522          47.000  
                  21952469.277    89891679.484 8      1761.446          35.500  
                                                                
  23545217.320                   123730941.753 4     -2261.849          38.500  
                  23545223.242    96413724.964 6     -1762.484          24.000  
                                                                
  23857339.000                   125371171.722 5      2734.597          40.500  
                  23857340.461    97691822.743 7      2130.863          27.800  
                                                                
  23809273.820                   125118551.413 6     -2954.055          42.500  
                  23809280.340    97494967.909 7     -2301.853          26.300  
                                                                
  22037748.617                   115809169.262 7      2666.668          49.300  
                  22037752.539    90240915.750 8      2077.925          37.000  
                                                                
  20925539.219                   109964460.301 7     -1662.806          50.300  
                  20925544.820    85686594.809 9     -1295.691          42.000  
                                                                
  21550433.180                   115199415.887 5     -1862.638          41.000  
                  21550437.078    89599561.211 7     -1448.717          28.300  
                                                                
  20414262.344                   108934424.717 5       406.522          39.300  
                                                                                
                                                                
  23042708.367                   123349432.296 6      2139.130          42.000  
                  23042712.047    95938455.868 8      1663.772          41.000  
                                                                
  22251954.672                   118907721.136 6      -342.136          42.500  
                  22251960.172    92483790.431 8      -266.110          36.000  
                                                                
  22015209.359                   117601325.164 5      3207.478          41.000  
                  22015212.059    91467703.001 8      2494.709          37.300  
                                                                
  21705196.992                   116067433.903 6     -4024.884          41.500  
                  21705202.730    90274666.660 9     -3130.461          44.000  
                                                                
  20212354.867                   108160382.977 8      -602.931          50.500  
                  20212357.066    84124734.564 9      -468.940          47.000  
                                                                
  22931247.125                   122408557.634 6      3232.120          44.500  
                  22931250.164    95206653.932 9      2513.867          42.000  
                                                                
 18 07 01  0  3 20.0000000  0 19G01G08G10G11G14G18G20G22G27G31G32R05 0.000000000
                                R06R07R15R16R20R21R22       
  23706291.820                   124577410.002 5      3305.759          41.000  
                  23706298.141    97073308.414 6      2575.926          25.000  
                                                                
  23348514.469                   122697247.027 6     -1958.691          45.500  
                  23348521.867    95608240.276 7     -1526.259          31.800  
                                                                
  21894500.258                   115056378.328 7     -1560.667          49.300  
                  21894506.297    89654316.433 8     -1216.104          37.500  
                                                                
  23464787.125                   123308290.197 6      1866.849          44.800  
                  23464790.547    96084382.201 7      1454.700          29.300  
                                                                
  20073821.727                   105488656.177 6        54.521          46.800  
                  20073824.426    82198958.651 8        42.480          39.000  
                                                                
  21950315.031                   115349687.137 6      2258.567          47.000  
                  21950319.031    89882876.925 8      1759.918          35.300  
                                                                
  23547370.266                   123742253.338 4     -2262.592          38.000  
                  23547375.707    96422539.153 6     -1763.053          24.300  
                                                                
  23854737.078                   125357498.932 5      2734.563          40.500  
                  23854737.859    97681168.637 7      2130.816          28.300  
                                                                
  23812085.219                   125133322.408 6     -2954.255          42.800  
                  23812091.398    97506477.756 7     -2301.992          27.000  
                                                                
  22035212.438                   115795841.183 7      2664.936          49.500  
                  22035215.797    90230530.255 8      2076.563          37.000  
                                                                
  20927122.461                   109972779.264 7     -1664.393          50.500  
                  20927128.160    85693077.114 9     -1296.932          41.500  
                                                                
  21552177.844                   115208729.714 5     -1862.833          41.000  
                  21552179.863    89606805.296 7     -1448.877          27.500  
                                                                
  20413880.641                   108932394.785 5       405.633          39.300  
                                                                                
                                                                
  23040711.227                   123338738.379 6      2138.560          41.500  
                  23040714.066    95930138.381 8      1663.333          40.000  
                                                                
  22252277.891                   118909444.440 6      -346.325          43.000  
                  22252283.031    92485130.773 8      -269.366          35.800  
                                                                
  22012207.094                   117585293.194 5      3205.669          40.800  
                  22012211.313    91455233.701 8      2493.294          37.500  
                                                                
  21708961.438                   116087563.892 6     -4026.677          42.000  
                  21708967.758    90290323.306 9     -3131.860          45.000  
                                                                
  20212920.289                   108163411.193 8      -607.436          50.000  
                  20212922.129    84127089.836 9      -472.453          46.500  
                                                                
  22928221.227                   122392405.687 6      3229.293          44.500  
                  22928223.906    95194091.315 9      2511.673          41.500  
                                                                
 18 07 01  0  3 25.0000000  0 19G01G08G10G11G14G18G20G22G27G31G32R05 0.000000000
                                R06R07R15R16R20R21R22       
  23703147.563                   124560884.116 5      3304.842          42.000  
                  23703153.543    97060431.108 6      2575.210          24.800  
                                                                
  23350379.445                   122707045.968 6     -1960.459          45.000  
                  23350386.926    95615875.805 7     -1527.625          31.000  
                                                                
  21895985.352                   115064184.610 7     -1561.594          48.800  
                  21895991.211    89660399.248 8     -1216.829          37.300  
                                                                
  23463012.227                   123298962.348 6      1864.786          44.800  
                  23463015.328    96077113.762 7      1453.074          28.500  
                                                                
  20073771.211                   105488391.331 6        52.006          46.800  
                  20073774.133    82198752.278 8        40.529          39.500  
                                                                
  21948167.016                   115338400.414 7      2256.607          47.500  
                  21948171.094    89874082.071 8      1758.389          34.800  
                                                                
  23549523.406                   123753568.951 4     -2263.402          38.800  
                  23549528.746    96431356.514 6     -1763.679          23.800  
                                                                
  23852135.578                   125343826.262 5      2734.576          41.000  
                  23852136.418    97670514.605 7      2130.824          27.000  
                                                                
  23814895.680                   125148094.363 6     -2954.418          42.800  
                  23814902.578    97517988.386 7     -2302.154          27.500  
                                                                
  22032677.414                   115782521.812 7      2663.228          49.800  
                  22032681.555    90220151.531 8      2075.241          37.000  
                                                                
  20928706.719                   109981106.081 7     -1665.946          50.800  
                  20928712.680    85699565.546 9     -1298.142          41.500  
                                                                
  21553920.398                   115218044.907 6     -1863.095          42.000  
                  21553921.559    89614050.434 7     -1449.060          27.300  
                                                                
  20413501.906                   108930369.372 5       404.803          39.500  
                                                                                
                                                                
  23038713.805                   123328047.364 6      2138.003          42.800  
                  23038717.023    95921823.158 8      1662.887          40.500  
                                                                
  22252604.109                   118911188.580 6      -350.442          41.800  
                  22252609.348    92486487.326 8      -272.568          35.300  
                                                                
  22009208.813                   117569270.668 5      3203.821          40.500  
                  22009211.453    91442771.744 8      2491.850          37.000  
                                                                
  21712727.797                   116107702.574 6     -4028.381          41.500  
                  21712733.516    90305986.709 9     -3133.185          44.500  
                                                                
  20213490.328                   108166461.998 8      -611.905          50.300  
                  20213491.969    84129462.687 9      -475.932          46.500  
                                                                
  22925197.969                   122376267.861 7      3226.494          45.300  
                  22925201.270    95181539.681 9      2509.495          41.300  
                                                                
 18 07 01  0  3 30.0000000  0 19G01G08G10G11G14G18G20G22G27G31G32R05 0.000000000
                                R06R07R15R16R20R21R22       
  23700003.023                   124544363.312 5      3303.778          42.000  
                  23700009.543    97047557.756 6      2574.366          26.000  
                                                                
  23352246.242                   122716854.140 6     -1962.372          45.800  
                  23352252.781    95623518.534 7     -1529.121          31.300  
                                                                
  21897472.133                   115071995.876 7     -1562.635          49.000  
                  21897477.434    89666485.944 8     -1217.642          37.300  
                                                                
  23461238.820                   123289645.210 6      1862.576          44.500  
                  23461242.840    96069853.654 7      1451.358          29.000  
                                                                
  20073723.727                   105488139.549 6        49.332          47.000  
                  20073726.586    82198556.082 8        38.444          39.500  
                                                                
  21946021.031                   115327123.723 6      2254.581          47.000  
                  21946025.852    89865295.037 8      1756.810          35.300  
                                                                
  23551677.984                   123764888.638 5     -2264.237          40.300  
                  23551682.363    96440177.052 6     -1764.343          22.500  
                                                                
  23849533.625                   125330153.968 5      2734.455          42.000  
                  23849534.246    97659860.864 7      2130.742          27.500  
                                                                
  23817706.742                   125162867.542 6     -2954.704          42.800  
                  23817714.102    97529499.948 7     -2302.373          26.500  
                                                                
  22030144.836                   115769211.351 7      2661.397          50.000  
                  22030148.336    90209779.761 8      2073.806          36.800  
                                                                
  20930292.898                   109989440.964 7     -1667.615          50.500  
                  20930298.758    85706060.256 9     -1299.442          42.000  
                                                                
  21555661.883                   115227361.306 6     -1863.365          42.300  
                  21555665.363    89621296.507 7     -1449.274          28.800  
                                                                
  20413123.344                   108928348.340 4       403.854          38.500  
                                                                                
                                                                
  23036718.367                   123317359.638 6      2137.323          43.300  
                  23036720.668    95913510.473 8      1662.367          40.800  
                                                                
  22252934.148                   118912953.520 6      -354.648          42.300  
                  22252939.570    92487860.051 8      -275.837          35.800  
                                                                
  22006210.438                   117553257.671 5      3201.853          40.800  
                  22006214.016    91430317.197 8      2490.323          37.300  
                                                                
  21716496.656                   116127850.231 6     -4030.215          41.500  
                  21716500.637    90321657.088 9     -3134.599          44.000  
                                                                
  20214064.750                   108169535.566 8      -616.493          49.800  
                  20214066.691    84131853.240 9      -479.495          46.800  
                                                                
  22922177.430                   122360144.531 6      3223.504          44.500  
                  22922180.730    95168999.316 8      2507.170          41.000  
                                                                
 18 07 01  0  3 35.0000000  0 19G01G08G10G11G14G18G20G22G27G31G32R05 0.000000000
                                R06R07R15R16R20R21R22       
  23696860.266                   124527847.445 5      3302.740          41.500  
                  23696867.066    97034688.245 6      2573.555          25.500  
                                                                
  23354114.445                   122726671.384 6     -1964.232          45.500  
                  23354121.285    95631168.334 7     -1530.571          31.500  
                                                                
  21898958.953                   115079812.016 7     -1563.667          48.500  
                  21898964.832    89672576.441 8     -1218.448          36.800  
                                                                
  23459467.586                   123280338.684 6      1860.396          44.000  
                  23459471.586    96062601.805 7      1449.665          30.000  
                                                                
  20073678.070                   105487900.666 6        46.699          47.000  
                  20073680.832    82198369.933 8        36.393          39.000  
                                                                
  21943877.258                   115315856.964 6      2252.521          46.800  
                  21943881.438    89856515.746 8      1755.209          35.500  
                                                                
  23553833.484                   123776212.412 5     -2265.130          39.300  
                  23553836.543    96449000.755 6     -1765.035          22.500  
                                                                
  23846932.320                   125316481.893 6      2734.379          42.500  
                  23846933.121    97649207.306 7      2130.683          27.500  
                                                                
  23820518.680                   125177641.759 6     -2954.967          42.500  
                  23820525.539    97541012.300 7     -2302.576          27.000  
                                                                
  22027613.531                   115755909.719 7      2659.581          50.000  
                  22027617.070    90199414.863 8      2072.397          36.500  
                                                                
  20931880.602                   109997783.766 7     -1669.236          50.000  
                  20931886.441    85712561.141 9     -1300.703          41.500  
                                                                
  21557405.258                   115236678.985 6     -1863.662          42.300  
                  21557408.457    89628543.607 7     -1449.515          27.500  
                                                                
  20412746.203                   108926331.814 4       402.904          39.000  
                                                                                
                                                                
  23034721.625                   123306674.859 6      2136.633          43.800  
                  23034724.664    95905200.090 9      1661.819          41.500  
                                                                
  22253268.328                   118914739.403 6      -358.899          42.800  
                  22253273.008    92489249.070 8      -279.139          35.300  
                                                                
  22003215.734                   117537254.122 5      3199.935          41.000  
                  22003217.754    91417869.999 8      2488.834          37.500  
                                                                
  21720264.414                   116148006.613 5     -4032.036          41.000  
                  21720270.273    90337334.268 9     -3136.017          43.500  
                                                                
  20214643.148                   108172631.691 8      -621.060          49.500  
                  20214645.867    84134261.335 9      -483.047          46.800  
                                                                
  22919160.125                   122344035.481 6      3220.622          45.000  
                  22919162.465    95156470.056 8      2504.924          41.000  
                                                                
 18 07 01  0  3 40.0000000  0 19G01G08G10G11G14G18G20G22G27G31G32R05 0.000000000
                                R06R07R15R16R20R21R22       
  23693718.344                   124511336.260 5      3301.804          41.300  
                  23693725.145    97021822.389 6      2572.839          25.000  
                                                                
  23355983.930                   122736497.454 6     -1965.980          46.000  
                  23355990.930    95638825.019 7     -1531.940          31.500  
                                                                
  21900447.211                   115087632.757 7     -1564.595          49.000  
                  21900453.531    89678670.515 8     -1219.157          37.000  
                                                                
  23457699.063                   123271042.505 6      1858.301          45.000  
                  23457702.563    96055358.040 7      1448.025          29.000  
                                                                
  20073635.109                   105487674.437 7        44.153          47.500  
                  20073637.770    82198193.646 8        34.409          39.300  
                                                                
  21941734.813                   115304599.921 7      2250.553          47.500  
                  21941739.152    89847744.023 8      1753.676          35.300  
                                                                
  23555988.688                   123787539.970 5     -2265.906          39.500  
                  23555991.988    96457827.403 6     -1765.637          24.500  
                                                                
  23844330.125                   125302809.785 6      2734.353          43.300  
                  23844331.805    97638553.704 7      2130.677          28.000  
                                                                
  23823329.578                   125192416.751 5     -2955.146          42.000  
                  23823336.816    97552525.281 7     -2302.721          26.500  
                                                                
  22025084.172                   115742616.670 7      2657.839          50.000  
                  22025087.352    90189056.646 8      2071.042          36.800  
                                                                
  20933469.719                   110006134.217 7     -1670.775          49.800  
                  20933475.059    85719067.986 9     -1301.903          42.000  
                                                                
  21559148.219                   115245997.543 5     -1863.860          41.000  
                  21559151.098    89635791.366 7     -1449.665          28.000  
                                                                
  20412369.125                   108924319.328 5       402.087          39.300  
                                                                                
                                                                
  23032726.445                   123295992.850 6      2136.119          44.000  
                  23032728.824    95896891.857 9      1661.428          41.500  
                                                                
  22253606.352                   118916545.997 6      -363.043          42.000  
                  22253612.352    92490654.212 8      -282.367          36.000  
                                                                
  22000220.156                   117521259.790 6      3198.054          41.300  
                  22000223.996    91405429.971 8      2487.374          37.500  
                                                                
  21724035.398                   116168171.526 6     -4033.739          41.500  
                  21724041.180    90353018.085 9     -3137.350          43.300  
                                                                
  20215225.906                   108175750.248 7      -625.585          49.000  
                  20215229.168    84136686.871 9      -486.564          47.000  
                                                                
  22916144.930                   122327940.486 7      3217.790          45.300  
                  22916146.730    95143951.724 8      2502.732          40.500  
                                                                
 18 07 01  0  3 45.0000000  0 19G01G08G10G11G14G18G20G22G27G31G32R05 0.000000000
                                R06R07R15R16R20R21R22       
  23690577.625                   124494830.294 6      3300.803          42.300  
                  23690584.184    97008960.597 6      2572.042          26.000  
                                                                
  23357855.586                   122746332.747 6     -1967.764          45.800  
                  23357862.285    95646488.861 7     -1533.323          31.500  
                                                                
  21901936.273                   115095458.553 7     -1565.528          49.000  
                  21901942.414    89684768.542 8     -1219.892          37.000  
                                                                
  23455931.641                   123261757.141 6      1856.218          44.300  
                  23455935.480    96048122.687 7      1446.406          28.800  
                                                                
  20073594.352                   105487461.321 7        41.591          47.800  
                  20073597.391    82198027.585 8        32.407          39.000  
                                                                
  21939594.555                   115293353.105 7      2248.574          47.300  
                  21939599.094    89838980.274 8      1752.138          35.300  
                                                                
  23558144.727                   123798871.757 5     -2266.665          39.300  
                  23558147.848    96466657.390 6     -1766.251          23.000  
                                                                
  23841728.922                   125289138.098 6      2734.305          43.000  
                  23841729.902    97627900.458 7      2130.617          28.300  
                                                                
  23826141.602                   125207192.944 5     -2955.287          42.000  
                  23826149.422    97564039.171 7     -2302.809          26.800  
                                                                
  22022556.156                   115729332.661 7      2656.097          50.500  
                  22022559.375    90178705.477 8      2069.680          36.500  
                                                                
  20935060.445                   110014492.784 7     -1672.326          50.800  
                  20935066.004    85725581.154 9     -1303.115          42.000  
                                                                
  21560892.617                   115255317.533 5     -1864.103          40.500  
                  21560894.957    89643040.240 7     -1449.862          29.000  
                                                                
  20411992.227                   108922311.437 4       401.239          39.000  
                                                                                
                                                                
  23030731.406                   123285313.924 6      2135.538          43.000  
                  23030734.465    95888586.042 8      1660.970          40.800  
                                                                
  22253948.516                   118918373.555 6      -367.168          42.800  
                  22253954.574    92492075.644 8      -285.567          36.000  
                                                                
  21997229.977                   117505275.201 5      3196.169          41.000  
                  21997231.836    91392997.517 8      2485.903          37.500  
                                                                
  21727808.938                   116188345.279 6     -4035.455          41.300  
                  21727812.336    90368708.782 9     -3138.689          43.300  
                                                                
  20215813.625                   108178891.637 8      -630.077          49.500  
                  20215815.645    84139130.159 9      -490.054          46.800  
                                                                
  22913132.852                   122311860.012 7      3214.966          45.300  
                  22913134.551    95131444.688 8      2500.529          40.500  
                                                                
 18 07 01  0  3 50.0000000  0 19G01G08G10G11G14G18G20G22G27G31G32R05 0.000000000
                                R06R07R15R16R20R21R22       
  23687437.281                   124478329.314 6      3299.836          42.500  
                  23687443.820    96996102.675 6      2571.307          24.500  
                                                                
  23359728.906                   122756177.087 6     -1969.579          45.500  
                  23359735.387    95654159.781 7     -1534.737          31.000  
                                                                
  21903426.438                   115103289.268 7     -1566.518          48.500  
                  21903432.359    89690870.389 8     -1220.659          36.800  
                                                                
  23454166.922                   123252482.395 6      1854.116          44.000  
                  23454170.441    96040895.623 7      1444.763          28.500  
                                                                
  20073556.250                   105487261.144 6        39.016          47.000  
                  20073559.051    82197871.602 8        30.402          39.800  
                                                                
  21937456.633                   115282116.299 6      2246.564          46.500  
                  21937460.234    89830224.328 8      1750.568          35.000  
                                                                
  23560302.484                   123810207.610 5     -2267.493          39.800  
                  23560305.164    96475490.479 6     -1766.857          22.000  
                                                                
  23839126.984                   125275466.624 6      2734.305          42.500  
                  23839128.344    97617247.365 7      2130.632          28.800  
                                                                
  23828953.281                   125221970.198 5     -2955.503          42.000  
                  23828961.461    97575553.908 7     -2302.991          26.800  
                                                                
  22020030.156                   115716057.524 7      2654.329          50.800  
                  22020033.156    90168361.221 8      2068.302          36.000  
                                                                
  20936651.945                   110022859.279 7     -1673.915          49.800  
                  20936657.785    85732100.496 9     -1304.346          41.500  
                                                                
  21562637.617                   115264638.713 6     -1864.314          41.800  
                  21562638.219    89650290.042 7     -1450.014          27.500  
                                                                
  20411616.563                   108920308.110 4       400.326          38.800  
                                                                                
                                                                
  23028736.906                   123274638.176 6      2134.925          43.800  
                  23028740.367    95880282.695 9      1660.489          41.500  
                                                                
  22254295.211                   118920222.094 6      -371.366          43.000  
                  22254300.289    92493513.399 8      -288.844          35.300  
                                                                
  21994237.758                   117489300.033 6      3194.299          41.500  
                  21994241.336    91380572.401 8      2484.451          38.000  
                                                                
  21731582.578                   116208527.746 6     -4037.188          41.800  
                  21731587.316    90384406.245 9     -3140.037          43.300  
                                                                
  20216404.547                   108182055.685 8      -634.586          50.300  
                  20216406.887    84141591.085 9      -493.571          47.000  
                                                                
  22910121.805                   122295793.941 7      3212.086          45.500  
                  22910124.684    95118948.852 8      2498.289          40.500  
                                                                
 18 07 01  0  3 55.0000000  0 19G01G08G10G11G14G18G20G22G27G31G32R05 0.000000000
                                R06R07R15R16R20R21R22       
  23684298.320                   124461833.345 5      3298.833          42.000  
                  23684305.000    96983248.681 6      2570.513          26.000  
                                                                
  23361604.023                   122766030.312 6     -1971.343          45.300  
                  23361610.125    95661837.611 7     -1536.109          31.300  
                                                                
  21904917.297                   115111124.823 7     -1567.459          48.500  
                  21904923.559    89696976.012 8     -1221.388          36.800  
                                                                
  23452403.766                   123243218.301 6      1851.998          43.800  
                  23452407.266    96033676.850 7      1443.117          28.500  
                                                                
  20073520.484                   105487073.839 7        36.470          47.800  
                  20073523.543    82197725.648 8        28.414          39.300  
                                                                
  21935320.172                   115270889.488 6      2244.575          46.500  
                  21935324.230    89821476.164 8      1749.016          35.000  
                                                                
  23562460.281                   123821547.464 5     -2268.268          40.000  
                  23562462.641    96484326.708 6     -1767.455          24.300  
                                                                
  23836525.664                   125261795.437 6      2734.253          43.300  
                  23836526.363    97606594.492 7      2130.593          27.800  
                                                                
  23831765.820                   125236748.414 5     -2955.666          42.000  
                  23831773.242    97587069.389 7     -2303.096          26.800  
                                                                
  22017505.438                   115702791.276 7      2652.571          50.500  
                  22017508.859    90158023.890 8      2066.938          36.500  
                                                                
  20938245.781                   110031233.664 7     -1675.487          49.800  
                  20938251.223    85738625.993 9     -1305.576          41.500  
                                                                
  21564379.320                   115273961.134 6     -1864.539          41.500  
                  21564382.820    89657540.816 7     -1450.195          27.500  
                                                                
  20411242.023                   108918309.034 4       399.489          39.000  
                                                                                
                                                                
  23026742.672                   123263965.398 6      2134.363          43.300  
                  23026746.871    95871981.635 9      1660.063          41.300  
                                                                
  22254644.648                   118922091.547 6      -375.526          43.300  
                  22254650.508    92494967.403 8      -292.071          35.500  
                                                                
  21991250.555                   117473334.445 6      3192.371          42.000  
                  21991252.395    91368154.728 8      2482.953          37.500  
                                                                
  21735359.273                   116228718.920 6     -4038.896          41.500  
                  21735362.875    90400110.501 9     -3141.368          43.000  
                                                                
  20217000.328                   108185242.342 8      -639.118          50.300  
                  20217002.270    84144069.592 9      -497.086          46.800  
                                                                
  22907115.148                   122279742.248 7      3209.244          45.300  
                  22907117.688    95106464.206 8      2496.072          40.800  
                                                                
 18 07 01  0  4  0.0000000  0 19G01G08G10G11G14G18G20G22G27G31G32R05 0.000000000
                                R06R07R15R16R20R21R22       
  23681160.188                   124445342.321 5      3297.832          41.300  
                  23681166.766    96970398.535 6      2569.741          25.500  
                                                                
  23363480.406                   122775892.511 6     -1973.150          45.500  
                  23363486.828    95669522.449 7     -1537.530          29.800  
                                                                
  21906409.297                   115118965.228 7     -1568.468          47.500  
                  21906415.398    89703085.427 8     -1222.191          37.300  
                                                                
  23450642.945                   123233964.830 6      1849.846          44.300  
                  23450646.465    96026466.353 7      1441.436          29.300  
                                                                
  20073487.430                   105486899.369 7        33.887          47.500  
                  20073490.449    82197589.699 8        26.404          39.300  
                                                                
  21933185.234                   115259672.647 7      2242.568          47.300  
                  21933189.133    89812735.771 8      1747.451          34.800  
                                                                
  23564619.445                   123832891.304 5     -2269.074          40.500  
                  23564621.426    96493166.089 6     -1768.114          22.800  
                                                                
  23833923.641                   125248124.415 6      2734.190          42.800  
                  23833924.801    97595941.751 7      2130.537          28.000  
                                                                
  23834578.164                   125251527.602 5     -2955.921          42.000  
                  23834585.723    97598585.631 6     -2303.307          26.000  
                                                                
  22014982.695                   115689533.828 7      2650.784          50.800  
                  22014986.035    90147693.427 8      2065.538          36.800  
                                                                
  20939840.680                   110039615.848 7     -1677.055          49.300  
                  20939846.719    85745157.567 9     -1306.792          42.000  
                                                                
  21566123.500                   115283284.687 6     -1864.822          41.500  
                  21566126.660    89664792.474 7     -1450.417          27.500  
                                                                
  20410868.461                   108916314.168 4       398.565          39.000  
                                                                                
                                                                
  23024749.828                   123253295.528 6      2133.726          44.000  
                  23024752.906    95863682.874 8      1659.567          40.500  
                                                                
  22254997.852                   118923981.810 6      -379.736          43.000  
                  22255003.430    92496437.607 8      -295.357          36.000  
                                                                
  21988263.258                   117457378.361 6      3190.469          41.300  
                  21988265.039    91355744.438 8      2481.478          37.300  
                                                                
  21739136.156                   116248918.598 6     -4040.616          41.800  
                  21739139.918    90415821.359 9     -3142.707          42.500  
                                                                
  20217600.211                   108188451.535 8      -643.661          50.000  
                  20217602.012    84146565.635 9      -500.623          47.000  
                                                                
  22904111.305                   122263704.925 6      3206.300          44.500  
                  22904112.664    95093990.737 8      2493.789          40.000  
                                                                
 18 07 01  0  4  5.0000000  0 19G01G08G10G11G14G18G20G22G27G31G32R05 0.000000000
                                R06R07R15R16R20R21R22       
  23678023.547                   124428856.411 5      3296.786          42.000  
                  23678029.828    96957552.370 6      2568.926          26.000  
                                                                
  23365358.742                   122785763.704 6     -1974.958          45.500  
                  23365365.043    95677214.279 7     -1538.930          31.500  
                                                                
  21907902.594                   115126810.597 6     -1569.458          46.000  
                  21907908.555    89709198.695 8     -1222.955          37.500  
                                                                
  23448884.266                   123224722.087 6      1847.689          45.000  
                  23448887.984    96019264.216 7      1439.764          28.300  
                                                                
  20073457.031                   105486737.879 7        31.275          48.300  
                  20073459.652    82197463.861 8        24.370          39.300  
                                                                
  21931052.711                   115248465.913 7      2240.555          47.300  
                  21931056.813    89804003.252 8      1745.889          35.300  
                                                                
  23566778.664                   123844239.325 5     -2269.910          41.000  
                  23566781.402    96502008.681 6     -1768.761          22.500  
                                                                
  23831322.203                   125234453.674 6      2734.127          43.000  
                  23831323.363    97585289.240 7      2130.484          27.500  
                                                                
  23837390.578                   125266307.820 5     -2956.125          41.500  
                  23837397.898    97610102.687 6     -2303.479          24.500  
                                                                
  22012461.117                   115676285.385 7      2648.969          50.300  
                  22012464.918    90137369.964 8      2064.136          36.800  
                                                                
  20941437.164                   110048006.027 7     -1678.668          48.500  
                  20941442.863    85751695.371 9     -1308.062          41.300  
                                                                
  21567867.539                   115292609.566 5     -1865.068          40.300  
                  21567871.180    89672045.146 7     -1450.606          28.500  
                                                                
  20410493.703                   108914323.993 4       397.680          39.000  
                                                                                
                                                                
  23022757.352                   123242628.711 6      2133.097          44.500  
                  23022760.133    95855386.463 8      1659.076          40.500  
                                                                
  22255355.813                   118925893.149 6      -383.945          43.000  
                  22255361.531    92497924.206 8      -298.622          36.000  
                                                                
  21985277.453                   117441431.979 6      3188.517          41.500  
                  21985279.773    91343341.705 8      2479.959          37.000  
                                                                
  21742915.156                   116269127.007 6     -4042.391          41.800  
                  21742919.137    90431539.017 9     -3144.084          42.500  
                                                                
  20218204.391                   108191683.447 8      -648.199          50.000  
                  20218206.449    84149079.342 9      -504.151          47.000  
                                                                
  22901109.047                   122247682.141 7      3203.415          45.500  
                  22901111.508    95081528.567 8      2491.549          40.800  
                                                                
 18 07 01  0  4 10.0000000  0 19G01G08G10G11G14G18G20G22G27G31G32R05 0.000000000
                                R06R07R15R16R20R21R22       
  23674886.805                   124412375.495 5      3295.790          42.000  
                  23674893.383    96944710.100 6      2568.148          24.500  
                                                                
  23367239.008                   122795643.817 6     -1976.745          45.500  
                  23367245.148    95684913.060 7     -1540.308          30.000  
                                                                
  21909396.414                   115134660.781 7     -1570.410          47.500  
                  21909402.695    89715315.722 8     -1223.698          37.300  
                                                                
  23447127.523                   123215489.909 6      1845.595          44.500  
                  23447131.023    96012070.315 7      1438.126          28.000  
                                                                
  20073428.289                   105486589.188 7        28.737          47.800  
                  20073431.090    82197347.990 8        22.395          39.300  
                                                                
  21928922.313                   115237269.143 6      2238.540          46.500  
                  21928926.734    89795278.506 8      1744.317          35.000  
                                                                
  23568938.906                   123855591.257 5     -2270.685          41.000  
                  23568941.828    96510854.327 6     -1769.359          25.300  
                                                                
  23828721.281                   125220783.085 6      2734.116          43.800  
                  23828722.281    97574636.846 7      2130.476          28.500  
                                                                
  23840203.523                   125281088.903 5     -2956.265          41.300  
                  23840210.984    97621620.387 6     -2303.567          25.000  
                                                                
  22009942.094                   115663045.748 7      2647.242          49.800  
                  22009945.953    90127053.391 8      2062.782          36.500  
                                                                
  20943035.445                   110056403.997 7     -1680.208          48.500  
                  20943041.387    85758239.237 9     -1309.253          41.300  
                                                                
  21569613.438                   115301935.544 5     -1865.287          40.300  
                  21569615.859    89679298.688 7     -1450.781          27.800  
                                                                
  20410123.906                   108912337.996 5       396.895          39.300  
                                                                                
                                                                
  23020763.508                   123231965.020 6      2132.562          43.800  
                  23020767.648    95847092.483 8      1658.659          40.500  
                                                                
  22255717.594                   118927825.120 6      -388.014          43.500  
                  22255723.055    92499426.859 8      -301.801          36.000  
                                                                
  21982293.695                   117425495.128 6      3186.620          41.500  
                  21982297.254    91330946.389 8      2478.482          37.500  
                                                                
  21746695.078                   116289344.064 6     -4044.092          41.500  
                  21746700.359    90447263.375 9     -3145.405          43.000  
                                                                
  20218812.789                   108194937.858 8      -652.678          49.800  
                  20218814.469    84151610.553 9      -507.645          46.800  
                                                                
  22898111.531                   122231673.577 7      3200.575          45.500  
                  22898112.371    95069077.460 8      2489.336          40.300  
                                                                
 18 07 01  0  4 15.0000000  0 19G01G08G10G11G14G18G20G22G27G31G32R05 0.000000000
                                R06R07R15R16R20R21R22       
  23671751.484                   124395899.627 6      3294.797          42.500  
                  23671758.105    96931871.757 6      2567.366          25.500  
                                                                
  23369120.484                   122805532.855 6     -1978.476          45.500  
                  23369127.305    95692618.801 7     -1541.670          30.800  
                                                                
  21910891.094                   115142515.856 6     -1571.397          47.000  
                  21910897.375    89721436.560 8     -1224.461          37.000  
                                                                
  23445372.367                   123206268.402 6      1843.501          45.000  
                  23445376.105    96004884.723 7      1436.494          28.300  
                                                                
  20073402.469                   105486453.371 7        26.160          47.500  
                  20073405.629    82197242.165 8        20.382          39.500  
                                                                
  21926793.773                   115226082.410 6      2236.596          46.800  
                  21926798.113    89786561.563 8      1742.800          35.000  
                                                                
  23571099.008                   123866947.242 5     -2271.494          41.000  
                  23571102.449    96519703.152 6     -1769.990          23.500  
                                                                
  23826119.898                   125207112.781 6      2734.074          44.000  
                  23826121.258    97563984.658 7      2130.445          29.000  
                                                                
  23843016.359                   125295870.931 5     -2956.436          41.300  
                  23843024.078    97633138.842 6     -2303.714          24.500  
                                                                
  22007424.313                   115649815.046 7      2645.477          50.500  
                  22007427.953    90116743.761 8      2061.411          37.300  
                                                                
  20944635.078                   110064809.807 7     -1681.753          48.800  
                  20944640.738    85764789.215 9     -1310.453          41.500  
                                                                
  21571358.883                   115311262.708 5     -1865.498          40.800  
                  21571360.344    89686553.149 7     -1450.935          28.500  
                                                                
  20409751.664                   108910356.316 5       396.052          39.500  
                                                                                
                                                                
  23018773.266                   123221304.193 6      2131.944          43.300  
                  23018775.984    95838800.736 8      1658.174          40.500  
                                                                
  22256083.328                   118929777.773 6      -392.158          43.300  
                  22256088.547    92500945.575 8      -305.012          36.000  
                                                                
  21979312.594                   117409567.988 5      3184.705          40.800  
                  21979314.813    91318558.615 8      2476.997          37.500  
                                                                
  21750477.953                   116309569.620 6     -4045.725          42.300  
                  21750483.055    90462994.349 9     -3146.673          43.000  
                                                                
  20219423.586                   108198214.873 8      -657.165          50.300  
                  20219426.926    84154159.346 9      -511.128          46.800  
                                                                
  22895113.484                   122215679.604 6      3197.689          44.000  
                  22895116.285    95056637.710 8      2487.094          40.800  
                                                                
 18 07 01  0  4 20.0000000  0 19G01G08G10G11G14G18G20G22G27G31G32R05 0.000000000
                                R06R07R15R16R20R21R22       
  23668617.063                   124379428.821 6      3293.759          42.300  
                  23668623.844    96919037.358 7      2566.570          27.000  
                                                                
  23371004.508                   122815430.843 6     -1980.292          45.300  
                  23371010.387    95700331.517 7     -1543.093          31.300  
                                                                
  21912386.875                   115150375.815 6     -1572.378          45.800  
                  21912392.977    89727561.203 8     -1225.233          36.800  
                                                                
  23443619.625                   123197057.555 6      1841.346          44.500  
                  23443623.066    95997707.443 7      1434.809          29.000  
                                                                
  20073379.352                   105486330.398 6        23.571          47.000  
                  20073382.250    82197146.344 8        18.365          39.800  
                                                                
  21924667.117                   115214905.793 6      2234.515          47.000  
                  21924670.879    89777852.517 8      1741.172          35.300  
                                                                
  23573261.688                   123878307.268 5     -2272.306          39.800  
                  23573264.406    96528555.126 6     -1770.636          23.800  
                                                                
  23823518.680                   125193442.736 6      2733.998          44.000  
                  23823519.738    97553332.678 7      2130.386          29.300  
                                                                
  23845829.344                   125310653.924 6     -2956.683          42.300  
                  23845837.145    97644658.049 7     -2303.905          26.500  
                                                                
  22004908.297                   115636593.340 7      2643.637          51.000  
                  22004911.918    90106441.143 8      2059.983          36.500  
                                                                
  20946236.281                   110073223.518 7     -1683.361          48.500  
                  20946241.941    85771345.354 9     -1311.712          41.500  
                                                                
  21573102.477                   115320591.156 6     -1865.773          41.300  
                  21573106.035    89693808.611 7     -1451.161          28.500  
                                                                
  20409381.508                   108908379.225 4       395.086          39.000  
                                                                                
                                                                
  23016780.969                   123210646.391 6      2131.307          43.000  
                  23016784.750    95830511.340 8      1657.675          40.500  
                                                                
  22256452.609                   118931751.337 6      -396.401          43.500  
                  22256458.250    92502480.577 8      -308.318          35.800  
                                                                
  21976332.117                   117393650.551 6      3182.721          41.300  
                  21976335.617    91306178.393 8      2475.447          37.800  
                                                                
  21754262.195                   116329803.797 5     -4047.514          41.000  
                  21754266.734    90478732.031 9     -3148.062          43.000  
                                                                
  20220040.984                   108201514.512 8      -661.746          50.500  
                  20220043.063    84156725.733 9      -514.689          46.500  
                                                                
  22892120.789                   122199700.087 6      3194.754          44.000  
                  22892123.508    95044209.213 8      2484.806          40.000  
                                                                
 18 07 01  0  4 25.0000000  0 19G01G08G10G11G14G18G20G22G27G31G32R05 0.000000000
                                R06R07R15R16R20R21R22       
  23665483.781                   124362963.080 5      3292.716          41.800  
                  23665491.063    96906206.934 6      2565.736          26.000  
                                                                
  23372890.086                   122825337.668 6     -1982.100          45.300  
                  23372896.145    95708051.116 7     -1544.491          31.500  
                                                                
  21913883.391                   115158240.641 6     -1573.355          46.500  
                  21913889.969    89733689.636 8     -1225.995          36.800  
                                                                
  23441869.063                   123187857.430 6      1839.176          43.800  
                  23441872.563    95990538.511 7      1433.126          29.500  
                                                                
  20073358.008                   105486220.324 7        20.983          47.300  
                  20073361.547    82197060.571 8        16.349          39.800  
                                                                
  21922541.875                   115203739.240 7      2232.536          47.300  
                  21922545.754    89769151.306 8      1739.636          36.000  
                                                                
  23575423.602                   123889671.361 5     -2273.136          39.500  
                  23575426.543    96537410.270 6     -1771.273          24.300  
                                                                
  23820917.039                   125179772.944 6      2733.927          43.500  
                  23820918.820    97542680.896 7      2130.337          28.500  
                                                                
  23848642.883                   125325437.800 5     -2956.859          42.000  
                  23848650.441    97656177.955 6     -2304.050          25.000  
                                                                
  22002393.797                   115623380.528 7      2641.848          50.500  
                  22002397.535    90096145.454 8      2058.585          37.000  
                                                                
  20947838.922                   110081645.030 7     -1684.943          48.800  
                  20947844.500    85777907.575 9     -1312.949          41.300  
                                                                
  21574848.141                   115329920.656 5     -1865.993          40.800  
                  21574851.281    89701064.880 7     -1451.319          27.000  
                                                                
  20409011.547                   108906406.336 4       394.211          38.500  
                                                                                
                                                                
  23014790.172                   123199991.528 6      2130.731          43.000  
                  23014793.953    95822224.237 8      1657.225          40.500  
                                                                
  22256825.570                   118933745.829 6      -400.580          43.500  
                  22256831.270    92504031.853 8      -311.566          35.300  
                                                                
  21973355.258                   117377742.733 6      3180.758          41.300  
                  21973357.918    91293805.643 8      2473.927          36.800  
                                                                
  21758048.313                   116350046.545 5     -4049.193          41.000  
                  21758052.293    90494476.372 9     -3149.372          43.000  
                                                                
  20220661.766                   108204836.677 8      -666.233          50.800  
                  20220664.207    84159309.643 9      -518.187          46.800  
                                                                
  22889130.008                   122183734.999 6      3191.866          44.500  
                  22889132.328    95031791.916 8      2482.564          40.500  
                                                                
 18 07 01  0  4 30.0000000  0 19G01G08G10G11G14G18G20G22G27G31G32R05 0.000000000
                                R06R07R15R16R20R21R22       
  23662352.086                   124346502.443 5      3291.754          41.800  
                  23662358.867    96893380.443 6      2565.011          26.000  
                                                                
  23374776.984                   122835253.365 6     -1983.828          46.300  
                  23374782.906    95715777.640 7     -1545.840          31.500  
                                                                
  21915381.055                   115166110.406 7     -1574.332          47.300  
                  21915387.516    89739821.915 8     -1226.753          37.300  
                                                                
  23440120.266                   123178667.986 6      1837.063          43.500  
                  23440124.188    95983377.908 7      1431.484          29.800  
                                                                
  20073339.586                   105486123.092 6        18.448          47.000  
                  20073343.324    82196984.807 8        14.375          39.500  
                                                                
  21920419.094                   115192582.839 7      2230.497          47.500  
                  21920423.434    89760458.003 8      1738.054          35.800  
                                                                
  23577586.008                   123901039.497 5     -2273.909          39.500  
                  23577589.688    96546268.540 6     -1771.863          24.500  
                                                                
  23818315.898                   125166103.456 6      2733.896          43.500  
                  23818317.438    97532029.353 7      2130.302          28.000  
                                                                
  23851456.359                   125340222.558 6     -2957.011          43.000  
                  23851463.898    97667698.529 6     -2304.154          26.000  
                                                                
  21999881.516                   115610176.697 7      2640.072          50.500  
                  21999885.234    90085856.771 8      2057.197          37.300  
                                                                
  20949442.961                   110090074.404 7     -1686.488          49.500  
                  20949448.461    85784475.916 9     -1314.149          41.800  
                                                                
  21576593.461                   115339251.397 5     -1866.228          41.000  
                  21576597.301    89708322.125 7     -1451.508          27.000  
                                                                
  20408642.563                   108904437.956 4       393.296          39.000  
                                                                                
                                                                
  23012800.125                   123189339.692 6      2130.175          42.300  
                  23012804.566    95813939.481 8      1656.802          40.800  
                                                                
  22257202.672                   118935761.289 6      -404.745          43.800  
                  22257208.434    92505599.429 8      -314.804          35.500  
                                                                
  21970378.016                   117361844.628 6      3178.859          41.300  
                  21970381.438    91281440.451 8      2472.444          37.500  
                                                                
  21761834.180                   116370297.764 5     -4050.872          40.500  
                  21761839.301    90510227.322 9     -3150.682          43.000  
                                                                
  20221287.031                   108208181.419 8      -670.733          50.800  
                  20221289.332    84161911.105 9      -521.685          47.000  
                                                                
  22886142.172                   122167784.460 7      3188.959          45.500  
                  22886144.273    95019385.937 8      2480.302          40.300  
                                                                
 18 07 01  0  4 35.0000000  0 19G01G08G10G11G14G18G20G22G27G31G32R05 0.000000000
                                R06R07R15R16R20R21R22       
  23659220.547                   124330046.927 5      3290.740          42.000  
                  23659226.727    96880557.970 7      2564.217          26.500  
                                                                
  23376664.664                   122845177.983 6     -1985.618          45.300  
                  23376671.465    95723511.100 7     -1547.229          30.800  
                                                                
  21916879.555                   115173985.029 7     -1575.294          48.800  
                  21916885.855    89745957.977 8     -1227.504          36.500  
                                                                
  23438373.805                   123169489.226 6      1834.930          44.500  
                  23438376.945    95976225.633 7      1429.811          28.300  
                                                                
  20073324.188                   105486038.717 7        15.878          47.500  
                  20073326.508    82196919.064 8        12.368          39.500  
                                                                
  21918297.711                   115181436.467 7      2228.471          47.500  
                  21918301.711    89751772.521 8      1736.473          35.300  
                                                                
  23579750.844                   123912411.678 4     -2274.713          39.000  
                  23579753.742    96555129.988 6     -1772.502          23.300  
                                                                
  23815714.641                   125152434.192 6      2733.859          44.300  
                  23815716.441    97521377.988 7      2130.261          29.000  
                                                                
  23854269.461                   125355008.223 5     -2957.198          42.000  
                  23854277.480    97679219.808 6     -2304.302          25.300  
                                                                
  21997370.031                   115596981.815 7      2638.296          50.800  
                  21997374.172    90075575.055 8      2055.811          37.500  
                                                                
  20951048.641                   110098511.571 7     -1688.017          49.800  
                  20951054.219    85791050.334 9     -1315.338          41.500  
                                                                
  21578339.680                   115348583.348 5     -1866.434          40.800  
                  21578342.578    89715580.297 7     -1451.666          28.000  
                                                                
  20408275.461                   108902473.958 5       392.501          39.300  
                                                                                
                                                                
  23010811.750                   123178690.899 6      2129.551          42.000  
                  23010815.070    95805657.101 8      1656.322          40.500  
                                                                
  22257583.828                   118937797.697 6      -408.905          43.800  
                  22257588.828    92507183.298 8      -318.041          36.000  
                                                                
  21967402.898                   117345956.168 5      3176.954          40.800  
                  21967407.617    91269082.768 8      2470.962          38.000  
                                                                
  21765622.992                   116390557.533 5     -4052.631          40.500  
                  21765628.133    90525984.898 9     -3152.044          42.500  
                                                                
  20221916.109                   108211548.760 8      -675.255          50.500  
                  20221918.910    84164530.141 9      -525.198          47.300  
                                                                
  22883156.250                   122151848.403 7      3186.074          45.300  
                  22883158.090    95006991.226 8      2478.057          40.300  
                                                                
 18 07 01  0  4 40.0000000  0 19G01G08G10G11G14G18G20G22G27G31G32R05 0.000000000
                                R06R07R15R16R20R21R22       
  23656089.922                   124313596.504 5      3289.663          41.800  
                  23656096.402    96867739.476 7      2563.357          28.300  
                                                                
  23378555.563                   122855111.487 6     -1987.433          45.300  
                  23378561.824    95731251.497 7     -1548.658          29.800  
                                                                
  21918378.875                   115181864.550 7     -1576.300          48.500  
                  21918385.355    89752097.863 8     -1228.290          37.000  
                                                                
  23436629.586                   123160321.168 6      1832.762          44.500  
                  23436632.926    95969081.697 7      1428.124          28.500  
                                                                
  20073310.070                   105485967.210 7        13.279          47.500  
                  20073312.852    82196863.338 8        10.350          39.500  
                                                                
  21916178.953                   115170300.167 7      2226.425          48.000  
                  21916183.152    89743094.884 8      1734.880          35.800  
                                                                
  23581916.125                   123923787.907 5     -2275.599          39.500  
                  23581918.566    96563994.559 6     -1773.175          22.500  
                                                                
  23813113.320                   125138765.174 6      2733.790          42.800  
                  23813115.242    97510726.788 7      2130.236          28.500  
                                                                
  23857083.820                   125369794.734 5     -2957.389          41.000  
                  23857090.980    97690741.791 6     -2304.478          24.500  
                                                                
  21994861.516                   115583795.922 7      2636.451          50.800  
                  21994865.254    90065300.345 8      2054.374          37.000  
                                                                
  20952655.445                   110106956.587 7     -1689.638          50.000  
                  20952660.984    85797630.866 9     -1316.601          41.500  
                                                                
  21580085.141                   115357916.649 5     -1866.768          41.000  
                  21580089.082    89722839.540 7     -1451.939          27.800  
                                                                
  20407908.344                   108900514.247 5       391.615          39.500  
                                                                                
                                                                
  23008823.930                   123168045.117 6      2128.954          43.000  
                  23008826.629    95797377.055 8      1655.845          40.500  
                                                                
  22257969.594                   118939854.935 6      -413.145          43.500  
                  22257974.672    92508783.374 8      -321.335          35.500  
                                                                
  21964430.719                   117330077.580 5      3174.980          40.500  
                  21964434.438    91256732.765 8      2469.423          37.500  
                                                                
  21769413.992                   116410825.821 5     -4054.369          40.500  
                  21769418.453    90541749.109 9     -3153.398          42.800  
                                                                
  20222549.328                   108214938.709 8      -679.825          50.000  
                  20222552.027    84167166.766 9      -528.748          47.500  
                                                                
  22880173.484                   122135926.937 6      3183.101          44.500  
                  22880175.926    94994607.870 8      2475.739          40.000  
                                                                
 18 07 01  0  4 45.0000000  0 19G01G08G10G11G14G18G20G22G27G31G32R05 0.000000000
                                R06R07R15R16R20R21R22       
  23652961.047                   124297151.199 5      3288.654          42.000  
                  23652967.285    96854924.933 7      2562.583          26.800  
                                                                
  23380447.047                   122865053.923 6     -1989.218          44.300  
                  23380454.227    95738998.849 7     -1550.031          28.800  
                                                                
  21919879.656                   115189748.964 7     -1577.270          48.300  
                  21919885.797    89758241.556 8     -1229.042          37.000  
                                                                
  23434887.203                   123151163.824 6      1830.607          43.800  
                  23434890.203    95961946.103 7      1426.445          29.300  
                                                                
  20073298.969                   105485908.511 6        10.702          46.800  
                  20073301.949    82196817.594 8         8.343          39.300  
                                                                
  21914061.914                   115159174.056 7      2224.401          47.800  
                  21914065.652    89734425.193 8      1733.296          34.800  
                                                                
  23584081.508                   123935168.152 5     -2276.358          39.500  
                  23584084.086    96572862.301 6     -1773.771          22.800  
                                                                
  23810512.703                   125125096.486 5      2733.727          41.800  
                  23810514.402    97500075.865 7      2130.179          27.500  
                                                                
  23859898.281                   125384582.086 5     -2957.523          42.000  
                  23859904.781    97702264.379 6     -2304.553          24.500  
                                                                
  21992353.617                   115570619.010 7      2634.659          49.500  
                  21992357.777    90055032.632 8      2052.975          36.800  
                                                                
  20954263.859                   110115409.353 7     -1691.181          49.500  
                  20954269.418    85804217.437 9     -1317.799          41.500  
                                                                
  21581831.703                   115367251.028 5     -1866.974          40.800  
                  21581833.902    89730099.603 7     -1452.080          27.500  
                                                                
  20407541.805                   108898558.863 5       390.721          39.500  
                                                                                
                                                                
  23006836.172                   123157402.311 6      2128.346          43.500  
                  23006838.852    95789099.311 9      1655.385          41.300  
                                                                
  22258357.891                   118941932.949 6      -417.263          43.300  
                  22258362.609    92510399.609 8      -324.535          36.000  
                                                                
  21961460.539                   117314208.717 5      3173.009          40.500  
                  21961463.461    91244390.320 8      2467.896          38.000  
                                                                
  21773205.094                   116431102.498 6     -4056.000          41.300  
                  21773209.535    90557519.842 9     -3154.665          42.500  
                                                                
  20223187.625                   108218351.202 8      -684.309          50.500  
                  20223189.926    84169820.924 9      -532.238          46.500  
                                                                
  22877193.445                   122120019.983 6      3180.213          44.500  
                  22877195.344    94982235.795 8      2473.503          40.500  
                                                                
 18 07 01  0  4 50.0000000  0 19G01G08G10G11G14G18G20G22G27G31G32R05 0.000000000
                                R06R07R15R16R20R21R22       
  23649832.383                   124280710.973 5      3287.684          42.000  
                  23649839.023    96842114.377 7      2561.830          27.800  
                                                                
  23382341.008                   122875005.092 6     -1990.912          44.500  
                  23382347.828    95746753.011 7     -1551.364          29.500  
                                                                
  21921380.375                   115197638.227 7     -1578.216          47.800  
                  21921387.273    89764389.034 8     -1229.779          37.300  
                                                                
  23433145.664                   123142017.159 6      1828.500          43.500  
                  23433149.605    95954818.823 7      1424.809          28.500  
                                                                
  20073290.008                   105485862.600 6         8.195          46.500  
                  20073293.008    82196781.824 8         6.390          39.500  
                                                                
  21911946.555                   115148057.987 7      2222.436          47.500  
                  21911950.156    89725763.314 8      1731.774          36.000  
                                                                
  23586247.563                   123946552.416 5     -2277.149          39.300  
                  23586250.324    96581733.130 6     -1774.379          22.500  
                                                                
  23807911.320                   125111428.004 5      2733.719          41.300  
                  23807913.820    97489425.099 7      2130.163          28.500  
                                                                
  23862711.242                   125399370.261 5     -2957.647          41.300  
                  23862718.684    97713787.627 6     -2304.660          23.000  
                                                                
  21989847.813                   115557451.039 7      2632.917          49.800  
                  21989851.852    90044771.880 8      2051.620          36.800  
                                                                
  20955874.125                   110123869.879 7     -1692.702          50.300  
                  20955879.445    85810810.052 9     -1318.991          41.300  
                                                                
  21583578.359                   115376586.550 5     -1867.171          40.800  
                  21583580.480    89737360.563 7     -1452.253          26.300  
                                                                
  20407175.703                   108896607.701 5       389.913          39.300  
                                                                                
                                                                
  23004848.148                   123146762.345 6      2127.763          43.500  
                  23004850.887    95780823.782 9      1654.925          41.300  
                                                                
  22258750.992                   118944031.782 6      -421.396          43.800  
                  22258755.332    92512032.026 8      -327.752          35.500  
                                                                
  21958491.992                   117298349.544 5      3171.076          40.300  
                  21958494.754    91232055.414 8      2466.390          38.000  
                                                                
  21776999.219                   116451387.564 6     -4057.639          41.300  
                  21777002.398    90573297.119 9     -3155.938          43.000  
                                                                
  20223829.305                   108221786.219 8      -688.801          50.300  
                  20223831.727    84172492.603 9      -535.732          46.800  
                                                                
  22874217.070                   122104127.562 6      3177.362          45.000  
                  22874219.191    94969875.031 8      2471.278          41.000  
                                                                
 18 07 01  0  4 55.0000000  0 19G01G08G10G11G14G18G20G22G27G31G32R05 0.000000000
                                R06R07R15R16R20R21R22       
  23646704.727                   124264275.973 5      3286.575          42.000  
                  23646711.887    96829307.879 7      2560.962          26.500  
                                                                
  23384236.422                   122884965.136 6     -1992.730          45.500  
                  23384242.922    95754514.087 7     -1552.779          29.500  
                                                                
  21922882.555                   115205532.400 7     -1579.222          47.800  
                  21922889.273    89770540.331 8     -1230.565          37.300  
                                                                
  23431407.203                   123132881.233 6      1826.338          43.500  
                  23431411.043    95947699.934 7      1423.120          28.800  
                                                                
  20073283.805                   105485829.554 6         5.583          46.500  
                  20073286.746    82196756.073 8         4.351          39.800  
                                                                
  21909832.938                   115136952.106 7      2220.344          48.000  
                  21909836.996    89717109.380 8      1730.139          36.000  
                                                                
  23588415.086                   123957940.709 5     -2277.987          40.500  
                  23588417.305    96590607.122 6     -1775.047          22.800  
                                                                
  23805310.445                   125097759.831 5      2733.606          42.000  
                  23805312.707    97478774.570 7      2130.089          28.300  
                                                                
  23865525.539                   125414159.278 5     -2957.894          41.000  
                  23865533.461    97725311.515 6     -2304.850          23.000  
                                                                
  21987343.695                   115544292.155 7      2631.060          50.000  
                  21987347.273    90034518.205 8      2050.178          37.500  
                                                                
  20957485.578                   110132338.232 7     -1694.300          50.000  
                  20957490.898    85817408.769 9     -1320.234          41.500  
                                                                
  21585324.219                   115385923.382 5     -1867.452          41.000  
                  21585326.980    89744622.539 7     -1452.473          27.300  
                                                                
  20406812.266                   108894660.970 5       389.011          40.300  
                                                                                
                                                                
  23002861.391                   123136125.455 6      2127.110          43.500  
                  23002864.191    95772550.641 9      1654.419          41.500  
                                                                
  22259148.289                   118946151.611 6      -425.641          43.500  
                  22259151.969    92513680.786 8      -331.061          35.800  
                                                                
  21955524.992                   117282500.237 5      3169.096          40.800  
                  21955527.711    91219728.169 8      2464.851          37.800  
                                                                
  21780794.336                   116471681.148 6     -4059.425          41.800  
                  21780797.676    90589081.001 9     -3157.327          43.300  
                                                                
  20224475.125                   108225243.797 8      -693.334          49.800  
                  20224477.504    84175181.834 9      -539.262          47.000  
                                                                
  22871242.266                   122088249.746 6      3174.381          44.300  
                  22871243.906    94957525.608 8      2468.967          41.000  
                                                                
 18 07 01  0  5  0.0000000  0 19G01G08G10G11G14G18G20G22G27G31G32R05 0.000000000
                                R06R07R15R16R20R21R22       
  23643578.367                   124247846.125 6      3285.585          42.800  
                  23643584.945    96816505.407 7      2560.200          26.500  
                                                                
  23386133.266                   122894933.952 6     -1994.425          45.000  
                  23386140.164    95762281.983 7     -1554.083          30.300  
                                                                
  21924385.891                   115213431.519 7     -1580.181          48.800  
                  21924392.270    89776695.481 8     -1231.304          36.800  
                                                                
  23429671.547                   123123756.068 6      1824.207          43.800  
                  23429674.969    95940589.423 7      1421.454          28.500  
                                                                
  20073279.945                   105485809.385 6         3.030          46.800  
                  20073282.984    82196740.357 8         2.363          39.000  
                                                                
  21907721.336                   115125856.372 6      2218.353          47.000  
                  21907725.195    89708463.353 8      1728.593          35.500  
                                                                
  23590583.367                   123969333.087 5     -2278.765          40.800  
                  23590585.926    96599484.306 6     -1775.648          22.800  
                                                                
  23802709.859                   125084091.967 6      2733.577          43.000  
                  23802711.418    97468124.302 7      2130.064          28.500  
                                                                
  23868340.461                   125428949.126 5     -2957.994          41.000  
                  23868347.063    97736836.086 6     -2304.926          23.500  
                                                                
  21984841.477                   115531142.298 7      2629.291          50.300  
                  21984845.258    90024271.576 8      2048.798          37.300  
                                                                
  20959098.383                   110140814.383 7     -1695.824          49.800  
                  20959104.043    85824013.562 9     -1321.419          42.000  
                                                                
  21587072.375                   115395261.347 5     -1867.674          41.000  
                  21587074.336    89751885.405 7     -1452.627          27.800  
                                                                
  20406446.141                   108892718.711 5       388.139          39.300  
                                                                                
                                                                
  23000874.352                   123125491.530 6      2126.591          43.300  
                  23000878.211    95764279.842 8      1654.009          41.000  
                                                                
  22259547.414                   118948292.250 6      -429.764          43.500  
                  22259552.492    92515345.728 8      -334.259          35.800  
                                                                
  21952560.453                   117266660.791 6      3167.147          41.500  
                  21952563.031    91207408.608 8      2463.334          37.800  
                                                                
  21784590.875                   116491983.068 6     -4061.046          42.500  
                  21784594.996    90604871.392 9     -3158.593          43.500  
                                                                
  20225125.391                   108228723.908 8      -697.783          49.500  
                  20225128.410    84177888.584 9      -542.716          46.800  
                                                                
  22868270.648                   122072386.612 6      3171.498          44.500  
                  22868272.770    94945187.605 8      2466.723          40.800  
                                                                
 18 07 01  0  5  5.0000000  0 19G01G08G10G11G14G18G20G22G27G31G32R05 0.000000000
                                R06R07R15R16R20R21R22       
  23640452.164                   124231421.446 5      3284.468          42.000  
                  23640459.664    96803706.946 7      2559.338          27.000  
                                                                
  23388031.844                   122904911.538 6     -1996.254          45.000  
                  23388039.223    95770056.733 7     -1555.523          30.000  
                                                                
  21925889.836                   115221335.492 7     -1581.232          48.500  
                  21925896.355    89782854.419 8     -1232.133          36.500  
                                                                
  23427937.281                   123114641.643 6      1821.973          44.300  
                  23427940.262    95933487.261 7      1419.703          29.300  
                                                                
  20073278.766                   105485802.015 6         0.405          47.000  
                  20073281.605    82196734.612 8         0.315          38.500  
                                                                
  21905611.813                   115114770.830 6      2216.227          46.500  
                  21905615.754    89699825.262 8      1726.936          35.500  
                                                                
  23592752.164                   123980729.441 5     -2279.621          40.500  
                  23592753.902    96608364.579 6     -1776.332          22.800  
                                                                
  23800108.563                   125070424.329 5      2733.449          41.500  
                  23800110.863    97457474.193 7      2129.968          28.300  
                                                                
  23871154.859                   125443739.723 5     -2958.246          40.800  
                  23871162.078    97748361.245 6     -2305.135          23.000  
                                                                
  21982340.938                   115518001.457 7      2627.410          50.000  
                  21982344.359    90014031.976 8      2047.326          37.000  
                                                                
  20960712.719                   110149298.249 7     -1697.439          50.500  
                  20960718.559    85830624.371 9     -1322.680          41.500  
                                                                
  21588819.813                   115404600.480 5     -1867.944          40.800  
                  21588821.613    89759149.173 7     -1452.847          28.800  
                                                                
  20406083.320                   108890780.681 4       387.202          39.000  
                                                                                
                                                                
  22998888.852                   123114860.499 6      2125.964          43.800  
                  22998891.652    95756011.270 8      1653.532          40.500  
                                                                
  22259952.172                   118950453.853 6      -434.042          43.500  
                  22259957.133    92517026.974 8      -337.584          36.000  
                                                                
  21949596.617                   117250831.077 6      3165.104          41.800  
                  21949599.758    91195096.617 8      2461.745          37.300  
                                                                
  21788389.133                   116512293.400 6     -4062.783          42.800  
                  21788393.074    90620668.309 9     -3159.937          43.500  
                                                                
  20225780.328                   108232226.518 8      -702.369          49.300  
                  20225782.547    84180612.832 9      -546.281          47.300  
                                                                
  22865301.930                   122056537.980 6      3168.525          43.800  
                  22865303.871    94932860.897 8      2464.410          40.500  
                                                                
 18 07 01  0  5 10.0000000  0 19G01G08G10G11G14G18G20G22G27G31G32R05 0.000000000
                                R06R07R15R16R20R21R22       
  23637327.305                   124215001.883 5      3283.493          41.500  
                  23637335.066    96790912.497 7      2558.564          26.800  
                                                                
  23389932.367                   122914897.958 6     -1997.978          44.500  
                  23389939.527    95777838.355 7     -1556.872          30.000  
                                                                
  21927395.070                   115229244.344 7     -1582.149          48.800  
                  21927401.270    89789017.157 8     -1232.848          36.500  
                                                                
  23426204.344                   123105537.919 6      1819.879          44.500  
                  23426208.105    95926393.446 7      1418.086          28.500  
                                                                
  20073279.672                   105485807.501 6        -2.128          47.000  
                  20073282.633    82196738.881 8        -1.654          39.500  
                                                                
  21903504.391                   115103695.451 7      2214.257          47.500  
                  21903507.871    89691195.091 8      1725.405          35.000  
                                                                
  23594921.445                   123992129.857 5     -2280.407          40.800  
                  23594923.484    96617248.020 6     -1776.934          21.500  
                                                                
  23797508.164                   125056756.935 5      2733.443          41.500  
                  23797510.203    97446824.268 7      2129.958          28.500  
                                                                
  23873969.523                   125458531.082 5     -2958.359          40.800  
                  23873976.844    97759886.971 6     -2305.213          23.500  
                                                                
  21979842.438                   115504869.667 7      2625.623          50.000  
                  21979845.898    90003799.418 8      2045.936          37.500  
                                                                
  20962329.000                   110157789.898 7     -1698.966          50.500  
                  20962334.379    85837241.240 9     -1323.872          41.300  
                                                                
  21590565.555                   115413940.837 6     -1868.203          41.300  
                  21590568.336    89766413.883 7     -1453.045          28.500  
                                                                
  20405721.805                   108888846.963 4       386.399          39.000  
                                                                                
                                                                
  22996903.531                   123104232.508 6      2125.367          44.500  
                  22996906.172    95747745.051 8      1653.064          40.300  
                                                                
  22260361.211                   118952636.417 6      -438.204          43.800  
                  22260365.590    92518724.511 8      -340.822          35.000  
                                                                
  21946635.156                   117235011.231 6      3163.202          42.500  
                  21946637.918    91182792.311 8      2460.266          38.000  
                                                                
  21792188.695                   116532611.946 6     -4064.382          41.500  
                  21792193.297    90636471.610 9     -3161.176          43.300  
                                                                
  20226439.891                   108235751.690 8      -706.824          50.300  
                  20226440.992    84183354.628 9      -549.756          47.300  
                                                                
  22862335.766                   122040704.050 6      3165.605          44.000  
                  22862337.586    94920545.614 8      2462.137          40.800  
                                                                
 18 07 01  0  5 15.0000000  0 19G01G08G10G11G14G18G20G22G27G31G32R05 0.000000000
                                R06R07R15R16R20R21R22       
  23634203.984                   124198587.620 5      3282.479          42.000  
                  23634211.543    96778122.168 7      2557.772          26.800  
                                                                
  23391834.547                   122924893.195 6     -1999.759          45.000  
                  23391841.828    95785626.842 7     -1558.248          29.800  
                                                                
  21928900.672                   115237158.162 7     -1583.116          48.000  
                  21928907.250    89795183.766 8     -1233.591          36.500  
                                                                
  23424473.922                   123096444.998 6      1817.733          45.000  
                  23424477.902    95919308.054 7      1416.411          29.300  
                                                                
  20073283.289                   105485825.810 6        -4.666          47.000  
                  20073285.910    82196753.148 8        -3.634          39.500  
                                                                
  21901398.758                   115092630.206 7      2212.257          47.500  
                  21901402.520    89682572.831 8      1723.837          35.300  
                                                                
  23597091.305                   124003534.363 5     -2281.192          39.800  
                  23597093.703    96626134.624 6     -1777.544          23.500  
                                                                
  23794907.484                   125043089.905 6      2733.399          42.300  
                  23794909.586    97436174.631 7      2129.919          28.500  
                                                                
  23876783.805                   125473323.266 5     -2958.440          40.500  
                  23876791.863    97771413.329 6     -2305.262          23.500  
                                                                
  21977345.117                   115491746.947 7      2623.839          50.800  
                  21977348.656    89993573.929 8      2044.546          37.000  
                                                                
  20963946.398                   110166289.324 7     -1700.466          50.300  
                  20963951.758    85843864.167 9     -1325.045          41.500  
                                                                
  21592313.836                   115423282.341 6     -1868.382          42.000  
                  21592316.395    89773679.504 7     -1453.196          28.500  
                                                                
  20405359.820                   108886917.767 4       385.521          38.800  
                                                                                
                                                                
  22994918.148                   123093607.514 6      2124.757          43.800  
                  22994921.188    95739481.175 8      1652.587          41.000  
                                                                
  22260774.250                   118954839.877 6      -442.349          44.000  
                  22260777.391    92520438.316 8      -344.051          35.500  
                                                                
  21943675.313                   117219201.384 6      3161.167          42.500  
                  21943677.891    91170495.773 8      2458.681          37.800  
                                                                
  21795988.797                   116552938.983 5     -4066.035          41.000  
                  21795994.535    90652281.530 9     -3162.476          43.000  
                                                                
  20227101.367                   108239299.397 8      -711.311          49.300  
                  20227103.426    84186113.958 9      -553.238          46.500  
                                                                
  22859371.766                   122024884.820 6      3162.680          43.500  
                  22859374.066    94908241.776 9      2459.866          41.500  
                                                                
 18 07 01  0  5 20.0000000  0 19G01G08G10G11G14G18G20G22G27G31G32R05 0.000000000
                                R06R07R15R16R20R21R22       
  23631081.961                   124182178.527 5      3281.402          41.500  
                  23631088.801    96765335.858 7      2556.934          27.000  
                                                                
  23393738.281                   122934897.154 6     -2001.493          45.300  
                  23393745.441    95793422.126 7     -1559.607          30.500  
                                                                
  21930407.711                   115245076.880 7     -1584.157          48.800  
                  21930413.910    89801354.188 8     -1234.410          37.500  
                                                                
  23422745.688                   123087362.814 6      1815.557          44.800  
                  23422749.426    95912231.031 7      1414.716          28.500  
                                                                
  20073288.711                   105485856.896 7        -7.249          47.300  
                  20073291.813    82196777.367 8        -5.647          39.000  
                                                                
  21899295.117                   115081575.191 6      2210.187          46.800  
                  21899298.656    89673958.533 8      1722.219          35.300  
                                                                
  23599262.320                   124014942.869 5     -2282.020          41.000  
                  23599264.621    96635024.367 6     -1778.191          22.500  
                                                                
  23792306.805                   125029423.139 6      2733.323          43.800  
                  23792308.746    97425525.206 7      2129.864          29.500  
                                                                
  23879600.125                   125488116.188 5     -2958.651          40.300  
                  23879607.227    97782940.290 6     -2305.454          24.500  
                                                                
  21974849.297                   115478633.329 7      2621.992          51.000  
                  21974853.516    89983355.527 8      2043.115          36.800  
                                                                
  20965564.742                   110174796.470 7     -1702.038          50.500  
                  20965570.383    85850493.110 9     -1326.261          41.300  
                                                                
  21594061.078                   115432624.976 6     -1868.641          41.300  
                  21594064.137    89780945.987 7     -1453.400          27.000  
                                                                
  20404998.484                   108884992.823 4       384.673          38.800  
                                                                                
                                                                
  22992933.828                   123082985.417 6      2124.155          43.500  
                  22992937.387    95731219.557 8      1652.114          40.800  
                                                                
  22261189.695                   118957064.239 6      -446.525          43.000  
                  22261194.055    92522168.369 8      -347.301          35.800  
                                                                
  21940717.695                   117203401.334 6      3159.228          42.500  
                  21940720.234    91158206.850 8      2457.181          37.800  
                                                                
  21799792.313                   116573274.350 6     -4067.759          41.500  
                  21799797.113    90668097.911 9     -3163.813          43.500  
                                                                
  20227768.531                   108242869.596 8      -715.857          50.500  
                  20227771.109    84188890.788 9      -556.780          46.800  
                                                                
  22856411.852                   122009080.271 6      3159.739          43.500  
                  22856413.531    94895949.350 8      2457.572          41.000  
                                                                
 18 07 01  0  5 25.0000000  0 19G01G08G10G11G14G18G20G22G27G31G32R05 0.000000000
                                R06R07R15R16R20R21R22       
  23627960.141                   124165774.655 5      3280.322          42.000  
                  23627967.199    96752553.633 7      2556.083          26.300  
                                                                
  23395643.164                   122944909.823 6     -2003.240          44.800  
                  23395650.684    95801224.205 7     -1560.969          29.500  
                                                                
  21931915.633                   115253000.428 7     -1585.129          47.500  
                  21931921.734    89807528.377 8     -1235.167          37.000  
                                                                
  23421019.063                   123078291.343 6      1813.405          44.500  
                  23421022.961    95905162.346 7      1413.047          29.300  
                                                                
  20073297.305                   105485900.744 7        -9.790          47.500  
                  20073300.086    82196811.536 8        -7.623          39.000  
                                                                
  21897193.336                   115070530.331 6      2208.163          46.800  
                  21897196.777    89665352.153 8      1720.641          35.800  
                                                                
  23601434.102                   124026355.395 5     -2282.851          40.000  
                  23601436.582    96643917.253 6     -1778.847          22.800  
                                                                
  23789705.344                   125015756.600 6      2733.262          43.500  
                  23789708.004    97414875.958 7      2129.825          28.000  
                                                                
  23882415.000                   125502909.822 5     -2958.824          41.000  
                  23882422.680    97794467.793 6     -2305.581          23.800  
                                                                
  21972356.117                   115465528.750 7      2620.174          50.300  
                  21972359.918    89973144.183 8      2041.684          37.000  
                                                                
  20967185.203                   110183311.303 7     -1703.598          50.800  
                  20967190.863    85857128.045 9     -1327.481          42.000  
                                                                
  21595811.156                   115441968.864 6     -1868.871          41.300  
                  21595812.277    89788213.445 7     -1453.562          28.000  
                                                                
  20404638.984                   108883072.008 4       383.803          39.000  
                                                                                
                                                                
  22990948.867                   123072366.195 6      2123.622          42.800  
                  22990953.086    95722960.174 8      1651.704          40.500  
                                                                
  22261608.133                   118959309.241 6      -450.658          42.500  
                  22261614.074    92523914.477 8      -350.510          36.000  
                                                                
  21937760.813                   117187611.275 6      3157.203          42.500  
                  21937763.953    91145925.706 8      2455.602          37.000  
                                                                
  21803596.375                   116593617.991 5     -4069.404          40.500  
                  21803602.074    90683920.731 9     -3165.088          43.300  
                                                                
  20228440.547                   108246462.294 8      -720.368          50.000  
                  20228442.566    84191685.098 9      -560.282          46.000  
                                                                
  22853453.945                   121993290.400 6      3156.762          44.500  
                  22853455.727    94883668.335 9      2455.264          41.800  
                                                                
