     2.11           OBSERVATION DATA    M (MIXED)           RINEX VERSION / TYPE
TPP                 Reference Data Shop 04-JUL-18 01:00     PGM / RUN BY / DATE 
NEWE                                                        MARKER NAME         
Newcastle East                                              MARKER NUMBER       
CORSnet-NSW         NSW                                     OBSERVER / AGENCY   
                    LEICA GR30                              REC # / TYPE / VERS 
725070              LEIAR25.R4      LEIT                    ANT # / TYPE        
 -4722484.6480  2533368.6920 -3446900.9220                  APPROX POSITION XYZ 
        0.0000        0.0000        0.0000                  ANTENNA: DELTA H/E/N
     1     1     0                                          WAVELENGTH FACT L1/2
    14    C1    P1    L1    D1    S1    C2    P2    L2    D2# / TYPES OF OBSERV 
          S2    C5    L5    D5    S5                        # / TYPES OF OBSERV 
     5.000                                                  INTERVAL            
     0                                                      RCV CLOCK OFFS APPL 
    18                                                      LEAP SECONDS        
  2018    07    01    00    00   00.0000000     GPS         TIME OF FIRST OBS   
                                                            END OF HEADER       
 18 07 01  0  0  0.0000000  0 19G01G08G10G11G14G18G20G22G27G31G32R05 0.000000000
                                R06R07R15R16R20R21R22       
  23831416.766                   125234945.74217                        47.800  
                  23831418.906    97585683.86419                        42.000  
                                                                
  23299642.086                   122440422.14017                        50.300  
                  23299644.324    95408121.13819                        43.000  
                                                                
  21816398.359                   114645942.36218                        53.000  
                  21816399.918    89334506.54919                        47.000  
                                                                
  23542575.781                   123717063.73317                        49.500  
                  23542573.820    96402904.87618                        40.800  
                                                                
  20080371.766                   105523075.71417                        50.300  
                  20080369.824    82225763.69719                        49.500  
                                                                
  22039904.711                   115820486.86317                        51.500  
                  22039904.449    90249733.89119                        45.500  
                                                                
  23443875.961                   123198379.75617                        48.500  
                  23443874.699    95998737.78918                        39.500  
                                                                
  23968180.805                   125953640.96217                        48.300  
                  23968177.344    98145686.24719                        42.000  
                                                                
  23727968.625                   124691295.50416                        46.500  
                  23727971.203    97162043.53719                        42.500  
                                                                
  22146184.852                   116378990.14418                        54.500  
                  22146183.113    90684942.22819                        45.500  
                                                                
  20851918.102                   109577572.34018                        54.300  
                  20851919.262    85385118.00019                        49.800  
                                                                
  21457794.438                   114704208.68817                        47.500  
                  21457796.199    89214397.17217                        31.800  
                                                                
  20426543.688                   108999960.70616                        44.000  
                                                                                
                                                                
  23138956.867                   123864733.64317                        48.800  
                  23138958.168    96339180.61019                        42.500  
                                                                
  22215977.250                   118715467.59717                        47.800  
                  22215980.371    92334270.94818                        37.500  
                                                                
  22129696.414                   118212887.46716                        44.800  
                  22129699.695    91943376.91618                        39.800  
                                                                
  21581844.398                   115407801.38917                        47.000  
                  21581847.379    89761615.24019                        45.500  
                                                                
  20205769.469                   108125155.49018                        52.000  
                  20205771.008    84097354.96019                        48.500  
                                                                
  23044301.445                   123012046.07217                        49.000  
                  23044304.625    95676047.97319                        43.000  
                                                                
 18 07 01  0  0  5.0000000  0 19G01G08G10G11G14G18G20G22G27G31G32R05 0.000000000
                                R06R07R15R16R20R21R22       
  23828238.922                   125218245.836 7      3339.478          47.800  
                  23828241.082    97572670.950 9      2602.188          41.500  
                                                                
  23301447.445                   122449909.245 7     -1898.334          50.300  
                  23301449.645    95415513.681 9     -1479.217          42.800  
                                                                
  21817848.773                   114653564.323 8     -1524.906          53.000  
                  21817850.313    89340445.737 9     -1188.245          47.500  
                                                                
  23540733.047                   123707380.205 7      1935.758          49.000  
                  23540731.105    96395359.276 8      1508.385          41.000  
                                                                
  20080200.805                   105522177.365 7       178.506          50.300  
                  20080198.863    82225063.686 9       139.095          48.800  
                                                                
  22037690.734                   115808852.209 7      2326.042          51.500  
                  22037690.496    90240667.929 9      1812.498          45.000  
                                                                
  23446007.063                   123209578.630 7     -2240.232          48.000  
                  23446005.824    96007464.179 8     -1745.631          38.500  
                                                                
  23965565.023                   125939894.924 7      2749.064          48.300  
                  23965561.523    98134975.059 8      2142.132          40.800  
                                                                
  23730771.344                   124706024.063 6     -2945.965          46.000  
                  23730773.965    97173520.334 9     -2295.555          43.500  
                                                                
  22143572.773                   116365263.568 8      2744.534          54.500  
                  22143571.012    90674246.200 9      2138.600          45.300  
                                                                
  20853422.766                   109585479.267 8     -1582.170          54.300  
                  20853423.906    85391279.235 9     -1232.858          49.500  
                                                                
  21459520.617                   114713436.128 7     -1845.725          46.800  
                  21459522.316    89221574.066 7     -1435.564          32.000  
                                                                
  20426108.188                   108997636.712 6       464.318          43.500  
                                                                                
                                                                
  23136919.406                   123853826.732 7      2180.999          48.800  
                  23136920.707    96330697.464 9      1696.329          42.800  
                                                                
  22216142.453                   118716350.036 7      -178.284          47.300  
                  22216145.574    92334957.277 8      -138.664          37.800  
                                                                
  22126615.555                   118196430.045 7      3290.663          45.300  
                  22126618.875    91930576.707 8      2559.400          39.300  
                                                                
  21585550.273                   115427618.130 7     -3964.262          46.500  
                  21585553.215    89777028.261 9     -3083.313          45.500  
                                                                
  20206190.508                   108127408.862 8      -452.605          52.000  
                  20206192.109    84099107.585 9      -352.028          49.000  
                                                                
  23041187.227                   122995421.817 8      3323.644          49.300  
                  23041190.328    95663117.990 9      2585.061          43.000  
                                                                
 18 07 01  0  0 10.0000000  0 19G01G08G10G11G14G18G20G22G27G31G32R05 0.000000000
                                R06R07R15R16R20R21R22       
  23825061.945                   125201550.323 7      3338.779          47.300  
                  23825064.086    97559661.459 9      2601.650          42.800  
                                                                
  23303254.547                   122459405.735 7     -1900.019          49.800  
                  23303256.766    95422913.533 9     -1480.534          43.800  
                                                                
  21819300.133                   114661191.048 8     -1525.697          53.000  
                  21819301.633    89346388.644 9     -1188.853          47.800  
                                                                
  23538892.227                   123697706.862 7      1933.871          48.500  
                  23538890.285    96387821.610 9      1506.915          42.000  
                                                                
  20080032.305                   105521291.976 7       176.065          50.300  
                  20080030.363    82224373.772 9       137.193          49.500  
                                                                
  22035478.594                   115797227.049 7      2324.305          51.300  
                  22035478.332    90231609.366 9      1811.149          45.500  
                                                                
  23448138.867                   123220781.444 7     -2240.857          48.300  
                  23448137.668    96016193.634 8     -1746.127          40.000  
                                                                
  23962949.281                   125926148.905 7      2749.227          48.500  
                  23962945.680    98124263.873 8      2142.257          40.800  
                                                                
  23733574.359                   124720754.077 6     -2946.078          46.500  
                  23733576.961    97184998.261 9     -2295.649          43.000  
                                                                
  22140962.234                   116351545.096 8      2743.068          54.300  
                  22140960.453    90663556.491 9      2137.454          45.500  
                                                                
  20854928.984                   109593394.411 8     -1583.665          54.500  
                  20854930.125    85397446.880 9     -1234.025          49.800  
                                                                
  21461247.000                   114722664.771 7     -1845.810          46.500  
                  21461248.699    89228751.895 7     -1435.630          31.300  
                                                                
  20425673.523                   108995317.238 6       463.526          43.500  
                                                                                
                                                                
  23134882.445                   123842922.881 7      2180.552          48.500  
                  23134883.844    96322216.695 9      1695.987          43.300  
                                                                
  22216311.516                   118717253.148 7      -182.247          47.800  
                  22216314.715    92335659.699 8      -141.747          38.300  
                                                                
  22123536.313                   118179981.308 7      3289.119          45.300  
                  22123539.613    91917783.261 8      2558.204          39.500  
                                                                
  21589257.875                   115447444.267 7     -3965.949          46.800  
                  21589260.816    89792448.577 9     -3084.621          46.000  
                                                                
  20206615.789                   108129685.004 8      -456.993          51.800  
                  20206617.449    84100877.916 9      -355.437          48.800  
                                                                
  23038075.547                   122978811.157 7      3321.068          48.800  
                  23038078.566    95650198.583 9      2583.055          43.500  
                                                                
 18 07 01  0  0 15.0000000  0 19G01G08G10G11G14G18G20G22G27G31G32R05 0.000000000
                                R06R07R15R16R20R21R22       
  23821885.945                   125184859.960 7      3337.507          47.300  
                  23821888.105    97546655.985 9      2600.659          43.300  
                                                                
  23305063.609                   122468912.359 7     -1902.291          49.500  
                  23305065.809    95430321.297 9     -1482.305          43.300  
                                                                
  21820752.539                   114668823.262 8     -1527.034          53.300  
                  21820753.980    89352335.818 9     -1189.895          47.300  
                                                                
  23537053.523                   123688044.504 7      1931.446          49.500  
                  23537051.625    96380292.509 8      1505.023          40.300  
                                                                
  20079866.406                   105520420.284 7       173.090          50.500  
                  20079864.465    82223694.529 9       134.876          49.000  
                                                                
  22033268.352                   115785612.067 8      2322.035          52.300  
                  22033268.090    90222558.725 9      1809.382          45.500  
                                                                
  23450271.547                   123231988.892 7     -2242.029          48.300  
                  23450270.387    96024926.727 8     -1747.038          40.000  
                                                                
  23960333.664                   125912403.590 7      2748.846          47.800  
                  23960330.043    98113553.231 9      2141.956          42.500  
                                                                
  23736377.781                   124735486.309 6     -2946.766          46.500  
                  23736380.480    97196477.916 9     -2296.177          42.300  
                                                                
  22138353.391                   116337835.544 8      2741.045          54.000  
                  22138351.609    90652873.727 9      2135.877          45.500  
                                                                
  20856436.898                   109601318.522 8     -1585.683          54.500  
                  20856438.039    85403621.511 9     -1235.595          49.800  
                                                                
  21462973.758                   114731895.330 7     -1846.406          47.300  
                  21462975.438    89235931.206 7     -1436.096          32.000  
                                                                
  20425239.867                   108993003.097 6       462.277          43.500  
                                                                                
                                                                
  23132846.211                   123832022.727 7      2179.600          48.500  
                  23132847.750    96313738.789 9      1695.244          43.500  
                                                                
  22216484.609                   118718177.637 7      -186.754          48.500  
                  22216487.848    92336378.736 8      -145.253          38.300  
                                                                
  22120458.734                   118163541.645 7      3286.996          45.300  
                  22120462.016    91904996.859 8      2556.554          39.500  
                                                                
  21592967.438                   115467280.518 7     -3968.203          46.500  
                  21592970.316    89807876.764 9     -3086.376          45.800  
                                                                
  20207045.484                   108131984.560 8      -461.948          52.300  
                  20207047.184    84102666.447 9      -359.293          49.000  
                                                                
  23034966.531                   122962214.810 7      3317.983          48.300  
                  23034969.551    95637290.317 9      2580.653          44.000  
                                                                
 18 07 01  0  0 20.0000000  0 19G01G08G10G11G14G18G20G22G27G31G32R05 0.000000000
                                R06R07R15R16R20R21R22       
  23818710.602                   125168173.430 6      3337.029          46.800  
                  23818712.801    97533653.509 9      2600.280          42.300  
                                                                
  23306874.344                   122478427.802 7     -1903.773          49.500  
                  23306876.523    95437735.935 9     -1483.464          42.800  
                                                                
  21822205.734                   114676459.638 8     -1527.576          53.800  
                  21822207.133    89358286.240 9     -1190.315          47.000  
                                                                
  23535216.688                   123678391.743 7      1929.828          50.000  
                  23535214.746    96372770.868 8      1503.764          40.300  
                                                                
  20079702.867                   105519560.933 7       170.920          50.000  
                  20079700.945    82223024.913 9       133.182          49.000  
                                                                
  22031059.836                   115774006.011 7      2320.526          52.000  
                  22031059.555    90213515.047 9      1808.202          45.300  
                                                                
  23452404.867                   123243199.664 7     -2242.387          48.500  
                  23452403.727    96033662.371 8     -1747.314          39.500  
                                                                
  23957717.883                   125898657.681 7      2749.264          47.500  
                  23957714.305    98102842.146 9      2142.279          41.500  
                                                                
  23739181.383                   124750219.318 6     -2946.635          46.800  
                  23739184.102    97207958.181 9     -2296.081          41.800  
                                                                
  22135745.992                   116324133.551 8      2739.823          54.000  
                  22135744.191    90642196.852 9      2134.927          45.500  
                                                                
  20857946.266                   109609250.230 8     -1586.902          54.800  
                  20857947.406    85409802.062 9     -1236.547          49.500  
                                                                
  21464700.617                   114741126.434 7     -1846.235          46.800  
                  21464702.297    89243110.960 7     -1435.961          31.300  
                                                                
  20424806.883                   108990692.622 6       461.818          43.500  
                                                                                
                                                                
  23130810.391                   123821124.890 7      2179.415          48.000  
                  23130812.070    96305262.689 9      1695.105          43.500  
                                                                
  22216661.430                   118719122.165 7      -190.463          48.300  
                  22216664.711    92337113.360 8      -148.136          38.300  
                                                                
  22117382.734                   118147109.938 7      3285.749          45.500  
                  22117385.953    91892216.648 8      2555.578          39.500  
                                                                
  21596678.594                   115487125.483 7     -3969.666          46.300  
                  21596681.434    89823311.732 9     -3087.518          46.300  
                                                                
  20207479.266                   108134306.147 8      -466.047          52.300  
                  20207481.047    84104472.132 9      -362.481          49.000  
                                                                
  23031859.867                   122945631.339 7      3315.669          48.300  
                  23031862.945    95624392.095 9      2578.847          43.800  
                                                                
 18 07 01  0  0 25.0000000  0 19G01G08G10G11G14G18G20G22G27G31G32R05 0.000000000
                                R06R07R15R16R20R21R22       
  23815536.023                   125151490.989 6      3336.054          46.500  
                  23815538.285    97520654.218 9      2599.519          42.800  
                                                                
  23308686.789                   122487952.283 7     -1905.728          49.800  
                  23308688.969    95445157.597 9     -1484.981          42.800  
                                                                
  21823659.773                   114684100.417 8     -1528.608          53.800  
                  21823661.133    89364240.088 9     -1191.123          47.000  
                                                                
  23533381.742                   123668748.892 7      1927.684          50.500  
                  23533379.781    96365256.971 8      1502.089          40.800  
                                                                
  20079541.727                   105518714.205 7       168.237          50.300  
                  20079539.785    82222365.125 9       131.092          49.000  
                                                                
  22028853.055                   115762409.089 7      2318.548          51.800  
                  22028852.754    90204478.480 9      1806.661          45.500  
                                                                
  23454538.883                   123254414.041 7     -2243.256          48.500  
                  23454537.723    96042400.848 8     -1747.992          38.500  
                                                                
  23955102.039                   125884911.459 7      2749.174          47.800  
                  23955098.520    98092130.823 8      2142.208          41.000  
                                                                
  23741985.180                   124764953.395 7     -2947.006          47.500  
                  23741987.918    97219439.280 9     -2296.370          42.000  
                                                                
  22133140.055                   116310439.388 8      2738.113          54.300  
                  22133138.273    90631526.080 9      2133.594          45.800  
                                                                
  20859457.141                   109617189.795 8     -1588.642          54.500  
                  20859458.262    85415988.740 9     -1237.903          49.500  
                                                                
  21466427.680                   114750358.576 7     -1846.612          47.000  
                  21466429.379    89250291.511 7     -1436.250          32.000  
                                                                
  20424374.727                   108988386.250 6       460.860          43.500  
                                                                                
                                                                
  23128775.070                   123810229.684 7      2178.756          48.300  
                  23128776.871    96296788.638 9      1694.586          43.500  
                                                                
  22216842.094                   118720087.055 7      -194.722          48.800  
                  22216845.414    92337863.824 8      -151.448          38.300  
                                                                
  22114308.258                   118130686.452 7      3283.962          46.000  
                  22114311.457    91879442.830 8      2554.190          39.500  
                                                                
  21600391.414                   115506979.493 7     -3971.599          46.300  
                  21600394.254    89838753.755 9     -3089.028          46.000  
                                                                
  20207917.266                   108136650.104 8      -470.673          52.800  
                  20207919.086    84106295.208 9      -366.079          49.000  
                                                                
  23028755.789                   122929061.148 7      3312.866          48.800  
                  23028758.828    95611504.169 9      2576.676          43.300  
                                                                
 18 07 01  0  0 30.0000000  0 19G01G08G10G11G14G18G20G22G27G31G32R05 0.000000000
                                R06R07R15R16R20R21R22       
  23812362.680                   125134814.959 6      3334.935          46.300  
                  23812364.918    97507659.905 9      2598.648          42.300  
                                                                
  23310501.367                   122497488.034 7     -1907.809          49.800  
                  23310503.527    95452588.050 9     -1486.607          43.000  
                                                                
  21825115.094                   114691747.926 8     -1529.783          53.500  
                  21825116.414    89370199.188 9     -1192.041          47.300  
                                                                
  23531549.141                   123659118.275 7      1925.392          50.500  
                  23531547.121    96357752.587 8      1500.306          41.000  
                                                                
  20079383.445                   105517882.412 7       165.408          50.000  
                  20079381.504    82221716.973 9       128.889          49.500  
                                                                
  22026648.453                   115750823.559 7      2316.430          52.000  
                  22026648.133    90195450.793 9      1805.013          45.000  
                                                                
  23456674.047                   123265634.317 7     -2244.284          48.800  
                  23456672.848    96051143.908 8     -1748.799          39.300  
                                                                
  23952486.539                   125871167.208 7      2748.938          47.800  
                  23952483.059    98081421.015 8      2142.028          40.000  
                                                                
  23744789.664                   124779690.863 7     -2947.510          48.300  
                  23744792.383    97230923.005 9     -2296.757          41.300  
                                                                
  22130536.070                   116296755.378 8      2736.258          54.300  
                  22130534.270    90620863.217 9      2132.151          45.500  
                                                                
  20860969.945                   109625139.516 8     -1590.500          54.500  
                  20860971.023    85422183.325 9     -1239.348          49.800  
                                                                
  21468155.320                   114759593.804 7     -1847.037          46.800  
                  21468157.000    89257474.460 7     -1436.584          31.500  
                                                                
  20423943.742                   108986086.389 6       459.684          43.300  
                                                                                
                                                                
  23126740.727                   123799339.507 7      2177.921          48.800  
                  23126742.566    96288318.494 9      1693.941          43.300  
                                                                
  22217026.969                   118721074.687 7      -199.085          48.300  
                  22217030.367    92338631.987 8      -154.842          38.000  
                                                                
  22111235.734                   118114273.473 7      3281.974          45.800  
                  22111238.934    91866677.197 8      2552.643          39.300  
                                                                
  21604106.313                   115526844.807 7     -3973.711          46.300  
                  21604109.191    89854204.545 9     -3090.660          46.300  
                                                                
  20208359.906                   108139018.752 8      -475.441          52.300  
                  20208361.746    84108137.485 9      -369.787          49.000  
                                                                
  23025654.625                   122912506.625 7      3309.917          48.500  
                  23025657.645    95598628.421 9      2574.380          43.500  
                                                                
 18 07 01  0  0 35.0000000  0 19G01G08G10G11G14G18G20G22G27G31G32R05 0.000000000
                                R06R07R15R16R20R21R22       
  23809190.063                   125118142.831 6      3334.254          46.000  
                  23809192.363    97494668.633 9      2598.124          42.800  
                                                                
  23312317.625                   122507032.642 7     -1909.470          49.800  
                  23312319.805    95460025.396 9     -1487.896          43.300  
                                                                
  21826571.219                   114699399.657 8     -1530.532          53.500  
                  21826572.520    89376161.574 9     -1192.622          47.500  
                                                                
  23529718.383                   123649497.322 7      1923.553          50.800  
                  23529716.324    96350255.741 8      1498.871          41.000  
                                                                
  20079227.508                   105517062.970 7       163.043          50.000  
                  20079225.566    82221078.449 9       127.044          49.500  
                                                                
  22024445.555                   115739247.008 7      2314.743          51.800  
                  22024445.215    90186430.105 9      1803.698          45.300  
                                                                
  23458809.867                   123276857.982 7     -2244.856          48.800  
                  23458808.586    96059889.619 8     -1749.241          38.500  
                                                                
  23949870.961                   125857422.437 7      2749.130          47.300  
                  23949867.480    98070710.805 9      2142.181          41.500  
                                                                
  23747594.266                   124794429.133 7     -2947.581          47.800  
                  23747597.004    97242407.373 9     -2296.810          41.500  
                                                                
  22127933.531                   116283079.009 8      2734.810          54.300  
                  22127931.750    90610206.317 9      2131.019          45.500  
                                                                
  20862484.180                   109633096.848 8     -1591.926          54.300  
                  20862485.238    85428383.844 9     -1240.460          49.800  
                                                                
  21469883.117                   114768829.819 7     -1847.091          47.500  
                  21469884.816    89264658.023 7     -1436.622          32.500  
                                                                
  20423513.523                   108983790.423 6       459.049          42.800  
                                                                                
                                                                
  23124706.766                   123788451.541 7      2177.514          48.300  
                  23124708.625    96279850.089 9      1693.622          42.800  
                                                                
  22217215.609                   118722082.557 7      -203.068          47.500  
                  22217219.051    92339415.892 8      -157.946          38.000  
                                                                
  22108164.758                   118097868.633 7      3280.479          46.300  
                  22108167.898    91853917.881 8      2551.486          39.300  
                                                                
  21607822.859                   115546718.830 7     -3975.342          46.800  
                  21607825.758    89869662.118 9     -3091.931          46.000  
                                                                
  20208806.688                   108141409.466 8      -479.770          52.800  
                  20208808.508    84109996.925 9      -373.152          49.000  
                                                                
  23022555.906                   122895965.079 7      3307.411          47.800  
                  23022558.887    95585762.780 9      2572.431          43.300  
                                                                
 18 07 01  0  0 40.0000000  0 19G01G08G10G11G14G18G20G22G27G31G32R05 0.000000000
                                R06R07R15R16R20R21R22       
  23806017.742                   125101472.321 6      3333.666          46.500  
                  23806020.082    97481678.629 9      2597.666          42.800  
                                                                
  23314135.086                   122516583.679 7     -1911.046          49.000  
                  23314137.305    95467467.765 9     -1489.125          43.500  
                                                                
  21828027.695                   114707053.296 8     -1531.218          52.800  
                  21828028.977    89382125.442 9     -1193.159          47.800  
                                                                
  23527889.063                   123639883.781 7      1921.782          50.500  
                  23527886.922    96342764.664 8      1497.493          40.500  
                                                                
  20079073.484                   105516253.605 7       160.744          50.300  
                  20079071.523    82220447.777 9       125.255          49.300  
                                                                
  22022243.891                   115727677.122 7      2313.125          52.000  
                  22022243.551    90177414.612 9      1802.431          45.000  
                                                                
  23460945.867                   123288082.717 7     -2245.364          48.500  
                  23460944.566    96068636.162 8     -1749.634          39.300  
                                                                
  23947254.844                   125843674.820 7      2749.419          47.300  
                  23947251.363    98059998.385 8      2142.400          40.500  
                                                                
  23750398.602                   124809165.908 7     -2947.568          47.500  
                  23750401.383    97253890.568 8     -2296.808          41.000  
                                                                
  22125332.016                   116269408.006 8      2733.444          54.000  
                  22125330.234    90599553.597 9      2129.954          45.300  
                                                                
  20863999.422                   109641059.501 8     -1593.272          54.500  
                  20864000.480    85434588.506 9     -1241.508          49.500  
                                                                
  21471610.602                   114778064.069 7     -1847.045          47.000  
                  21471612.281    89271840.217 7     -1436.591          32.300  
                                                                
  20423083.563                   108981495.936 6       458.419          43.000  
                                                                                
                                                                
  23122672.828                   123777563.648 7      2177.255          48.500  
                  23122674.648    96271381.729 9      1693.416          42.800  
                                                                
  22217407.648                   118723108.488 7      -206.948          48.000  
                  22217411.047    92340213.836 8      -160.960          37.500  
                                                                
  22105094.797                   118081469.383 7      3279.087          46.000  
                  22105097.875    91841162.904 8      2550.401          38.800  
                                                                
  21611540.594                   115566599.225 7     -3976.946          46.000  
                  21611543.492    89885124.653 9     -3093.176          46.300  
                                                                
  20209257.148                   108143819.960 8      -484.014          52.000  
                  20209258.969    84111871.752 9      -376.453          48.800  
                                                                
  23019459.188                   122879434.308 7      3304.955          48.000  
                  23019462.168    95572905.526 9      2570.519          43.500  
                                                                
 18 07 01  0  0 45.0000000  0 19G01G08G10G11G14G18G20G22G27G31G32R05 0.000000000
                                R06R07R15R16R20R21R22       
  23802846.625                   125084808.110 6      3332.281          46.500  
                  23802849.023    97468693.540 9      2596.583          41.800  
                                                                
  23315954.688                   122526145.807 7     -1913.395          49.300  
                  23315956.906    95474918.784 9     -1490.963          42.800  
                                                                
  21829485.375                   114714713.529 8     -1532.644          53.000  
                  21829486.695    89388094.449 9     -1194.268          47.800  
                                                                
  23526062.008                   123630282.334 7      1919.236          50.000  
                  23526059.789    96335283.005 8      1495.513          40.800  
                                                                
  20078922.289                   105515459.052 7       157.646          50.300  
                  20078920.328    82219828.644 9       122.841          49.300  
                                                                
  22020044.438                   115716118.614 8      2310.702          52.500  
                  22020044.039    90168407.980 9      1800.545          45.000  
                                                                
  23463082.984                   123299313.206 7     -2246.638          49.000  
                  23463081.625    96077387.182 8     -1750.625          38.500  
                                                                
  23944639.023                   125829929.016 7      2748.941          47.300  
                  23944635.602    98049287.365 9      2142.032          41.500  
                                                                
  23753203.539                   124823905.867 7     -2948.324          48.500  
                  23753206.277    97265376.234 8     -2297.394          41.000  
                                                                
  22122732.391                   116255747.105 8      2731.307          54.300  
                  22122730.629    90588908.745 9      2128.292          45.300  
                                                                
  20865516.578                   109649032.149 8     -1595.395          54.800  
                  20865517.617    85440800.955 9     -1243.163          49.800  
                                                                
  21473338.578                   114787301.420 7     -1847.791          45.800  
                  21473340.359    89279024.815 7     -1437.171          32.300  
                                                                
  20422654.766                   108979207.852 6       457.061          43.500  
                                                                                
                                                                
  23120639.789                   123766680.607 7      2176.176          48.300  
                  23120641.570    96262917.148 9      1692.582          42.500  
                                                                
  22217603.891                   118724156.913 7      -211.552          48.000  
                  22217607.211    92341029.280 8      -164.540          38.000  
                                                                
  22102026.797                   118065080.643 7      3276.825          46.000  
                  22102029.836    91828416.106 8      2548.642          38.500  
                                                                
  21615260.375                   115586490.745 7     -3979.238          46.300  
                  21615263.316    89900595.817 9     -3094.963          46.300  
                                                                
  20209712.188                   108146254.990 8      -489.044          52.000  
                  20209714.008    84113765.662 9      -380.367          49.000  
                                                                
  23016365.367                   122862919.068 7      3301.726          48.300  
                  23016368.328    95560060.341 9      2568.011          43.300  
                                                                
 18 07 01  0  0 50.0000000  0 19G01G08G10G11G14G18G20G22G27G31G32R05 0.000000000
                                R06R07R15R16R20R21R22       
  23799676.641                   125068149.873 6      3331.135          46.800  
                  23799679.063    97455713.102 9      2595.688          42.500  
                                                                
  23317776.328                   122535718.740 7     -1915.476          49.500  
                  23317778.590    95482378.212 9     -1492.577          42.800  
                                                                
  21830944.273                   114722379.998 8     -1533.840          53.300  
                  21830945.574    89394068.325 9     -1195.204          47.500  
                                                                
  23524237.141                   123620692.591 7      1916.971          50.500  
                  23524234.879    96327810.482 8      1493.738          40.500  
                                                                
  20078773.805                   105514678.876 7       154.842          49.800  
                  20078771.863    82219220.711 9       120.658          49.500  
                                                                
  22017847.055                   115704571.136 7      2308.561          51.500  
                  22017846.613    90159409.939 9      1798.880          45.000  
                                                                
  23465221.125                   123310549.089 7     -2247.652          48.500  
                  23465219.766    96086142.420 8     -1751.417          39.500  
                                                                
  23942023.523                   125816184.708 7      2748.715          47.300  
                  23942020.125    98038577.518 8      2141.858          41.000  
                                                                
  23756009.039                   124838648.630 7     -2948.821          47.800  
                  23756011.758    97276864.116 9     -2297.785          42.000  
                                                                
  22120134.633                   116242095.897 8      2729.426          54.300  
                  22120132.895    90578271.446 9      2126.825          45.300  
                                                                
  20867035.578                   109657014.404 8     -1597.268          55.000  
                  20867036.598    85447020.898 9     -1244.626          49.500  
                                                                
  21475067.078                   114796541.438 7     -1848.261          45.800  
                  21475068.879    89286211.500 7     -1437.537          32.300  
                                                                
  20422227.063                   108976925.533 6       455.943          43.500  
                                                                                
                                                                
  23118607.625                   123755802.078 7      2175.288          48.800  
                  23118609.305    96254456.068 9      1691.892          42.500  
                                                                
  22217804.234                   118725227.469 7      -215.920          47.500  
                  22217807.496    92341861.937 8      -167.940          37.800  
                                                                
  22098960.695                   118048701.961 7      3274.886          46.000  
                  22098963.695    91815677.138 8      2547.129          39.000  
                                                                
  21618982.219                   115606392.997 7     -3981.366          47.000  
                  21618985.141    89916075.346 9     -3096.616          46.300  
                                                                
  20210171.727                   108148714.130 8      -493.812          52.800  
                  20210173.527    84115678.328 9      -384.078          49.000  
                                                                
  23013274.406                   122846418.977 7      3298.766          47.800  
                  23013277.285    95547226.925 9      2565.709          43.300  
                                                                
 18 07 01  0  0 55.0000000  0 19G01G08G10G11G14G18G20G22G27G31G32R05 0.000000000
                                R06R07R15R16R20R21R22       
  23796507.461                   125051495.583 6      3330.825          46.800  
                  23796509.840    97442735.735 9      2595.450          42.000  
                                                                
  23319599.648                   122545300.351 7     -1916.735          49.800  
                  23319601.887    95489844.395 9     -1493.555          43.500  
                                                                
  21832403.953                   114730050.652 8     -1534.176          52.800  
                  21832405.293    89400045.456 9     -1195.462          47.800  
                                                                
  23522414.141                   123611112.575 7      1915.534          50.000  
                  23522411.820    96320345.532 8      1492.626          41.000  
                                                                
  20078627.688                   105513911.047 7       152.869          50.000  
                  20078625.746    82218622.403 9       119.119          49.000  
                                                                
  22015651.375                   115693032.526 7      2307.263          52.000  
                  22015650.855    90150418.814 9      1797.865          45.000  
                                                                
  23467359.906                   123321788.362 7     -2247.841          48.300  
                  23467358.547    96094900.283 8     -1751.561          39.300  
                                                                
  23939407.898                   125802439.842 7      2749.301          47.500  
                  23939404.598    98027867.237 9      2142.314          41.500  
                                                                
  23758814.641                   124853392.129 7     -2948.485          47.500  
                  23758817.320    97288352.540 9     -2297.519          41.800  
                                                                
  22117538.313                   116228452.356 8      2728.383          54.000  
                  22117536.594    90567640.122 9      2126.013          45.500  
                                                                
  20868556.023                   109665004.220 8     -1598.280          55.000  
                  20868557.023    85453246.729 9     -1245.415          49.800  
                                                                
  21476795.656                   114805782.175 7     -1847.917          45.300  
                  21476797.516    89293398.747 7     -1437.271          32.500  
                                                                
  20421800.141                   108974647.281 6       455.636          43.300  
                                                                                
                                                                
  23116575.828                   123744925.758 7      2175.365          49.000  
                  23116577.430    96245996.725 9      1691.947          42.300  
                                                                
  22218008.328                   118726318.235 7      -219.482          47.500  
                  22218011.590    92342710.323 8      -170.710          37.800  
                                                                
  22095896.094                   118032331.429 7      3273.729          45.800  
                  22095899.094    91802944.504 8      2546.236          39.000  
                                                                
  21622705.617                   115626303.882 7     -3982.574          46.000  
                  21622708.598    89931561.586 9     -3097.556          46.000  
                                                                
  20210635.406                   108151195.340 8      -497.731          52.500  
                  20210637.188    84117608.152 9      -387.126          49.000  
                                                                
  23010185.828                   122829931.986 7      3296.641          47.000  
                  23010188.727    95534403.706 9      2564.052          43.800  
                                                                
 18 07 01  0  1  0.0000000  0 19G01G08G10G11G14G18G20G22G27G31G32R05 0.000000000
                                R06R07R15R16R20R21R22       
  23793339.141                   125034845.645 7      3329.538          47.300  
                  23793341.461    97429761.757 9      2594.445          41.300  
                                                                
  23321424.703                   122554891.159 7     -1919.016          49.800  
                  23321426.941    95497317.747 9     -1495.343          42.800  
                                                                
  21833864.492                   114737725.950 8     -1535.542          52.800  
                  21833865.852    89406026.195 9     -1196.525          47.500  
                                                                
  23520593.086                   123601542.763 7      1913.038          50.300  
                  23520590.766    96312888.547 8      1490.677          40.500  
                                                                
  20078483.984                   105513156.017 7       149.866          50.000  
                  20078482.043    82218034.068 9       116.783          49.300  
                                                                
  22013457.477                   115681503.406 8      2304.958          52.500  
                  22013456.918    90141435.089 9      1796.069          44.800  
                                                                
  23469499.422                   123333031.395 7     -2249.029          48.300  
                  23469498.000    96103661.083 8     -1752.488          40.300  
                                                                
  23936792.305                   125788694.866 7      2748.893          47.300  
                  23936789.086    98017156.858 9      2141.997          41.800  
                                                                
  23761620.500                   124868136.799 7     -2949.131          48.500  
                  23761623.141    97299841.887 9     -2298.026          41.500  
                                                                
  22114943.570                   116214816.997 8      2726.310          54.300  
                  22114941.852    90557015.181 9      2124.393          45.300  
                                                                
  20870077.984                   109673002.040 8     -1600.305          55.000  
                  20870078.965    85459478.796 9     -1246.991          49.500  
                                                                
  21478524.438                   114815023.920 7     -1848.531          46.000  
                  21478526.359    89300586.747 7     -1437.745          31.800  
                                                                
  20421374.008                   108972373.159 6       454.385          43.500  
                                                                                
                                                                
  23114544.547                   123734052.291 7      2174.372          48.800  
                  23114546.008    96237539.592 9      1691.178          42.300  
                                                                
  22218216.289                   118727429.577 7      -224.032          47.800  
                  22218219.590    92343574.700 8      -174.245          38.300  
                                                                
  22092833.094                   118015969.516 7      3271.579          46.300  
                  22092836.113    91790218.584 8      2544.560          39.000  
                                                                
  21626430.734                   115646223.824 7     -3984.804          46.300  
                  21626433.734    89947054.858 9     -3099.288          46.500  
                                                                
  20211103.328                   108153699.114 8      -502.673          52.500  
                  20211105.047    84119555.522 9      -390.966          49.000  
                                                                
  23007099.789                   122813458.615 7      3293.486          47.000  
                  23007102.750    95521591.088 9      2561.596          43.800  
                                                                
 18 07 01  0  1  5.0000000  0 19G01G08G10G11G14G18G20G22G27G31G32R05 0.000000000
                                R06R07R15R16R20R21R22       
  23790171.805                   125018200.816 7      3328.652          47.800  
                  23790174.086    97416791.767 9      2593.755          41.500  
                                                                
  23323251.648                   122564491.783 7     -1920.826          49.800  
                  23323253.848    95504798.751 9     -1496.750          42.500  
                                                                
  21835326.055                   114745406.557 8     -1536.465          52.800  
                  21835327.434    89412011.084 9     -1197.245          47.500  
                                                                
  23518774.047                   123591983.746 7      1911.023          50.000  
                  23518771.766    96305439.954 8      1489.109          40.800  
                                                                
  20078342.828                   105512414.455 7       147.317          50.000  
                  20078340.949    82217456.231 9       114.788          49.300  
                                                                
  22011265.516                   115669984.403 7      2303.090          52.000  
                  22011264.895    90132459.234 9      1794.620          45.300  
                                                                
  23471639.742                   123344278.910 7     -2249.781          48.800  
                  23471638.344    96112425.393 8     -1753.072          39.300  
                                                                
  23934176.766                   125774950.402 7      2748.933          48.300  
                  23934173.664    98006446.906 8      2142.023          40.500  
                                                                
  23764426.680                   124882883.314 7     -2949.370          47.500  
                  23764429.340    97311332.674 9     -2298.208          42.300  
                                                                
  22112350.477                   116201190.443 8      2724.683          54.000  
                  22112348.797    90546397.089 9      2123.130          45.300  
                                                                
  20871601.602                   109681008.520 8     -1601.903          54.800  
                  20871602.543    85465717.612 9     -1248.236          49.500  
                                                                
  21480253.578                   114824267.498 7     -1848.774          46.300  
                  21480255.539    89307776.204 7     -1437.936          32.000  
                                                                
  20420948.781                   108970104.151 6       453.459          43.300  
                                                                                
                                                                
  23112513.930                   123723182.287 7      2173.789          48.800  
                  23112515.309    96229085.149 9      1690.727          42.300  
                                                                
  22218428.250                   118728562.219 7      -228.163          48.000  
                  22218431.609    92344455.640 8      -177.464          38.000  
                                                                
  22089771.859                   117999616.723 7      3269.902          45.800  
                  22089774.801    91777499.741 8      2543.261          38.800  
                                                                
  21630157.680                   115666153.420 7     -3986.615          46.300  
                  21630160.719    89962555.649 9     -3100.700          46.300  
                                                                
  20211575.609                   108156226.051 8      -507.192          52.500  
                  20211577.250    84121520.910 9      -394.483          48.800  
                                                                
  23004016.406                   122796999.500 7      3290.756          48.000  
                  23004019.406    95508789.578 9      2559.475          43.500  
                                                                
 18 07 01  0  1 10.0000000  0 19G01G08G10G11G14G18G20G22G27G31G32R05 0.000000000
                                R06R07R15R16R20R21R22       
  23787005.266                   125001560.276 6      3327.770          46.500  
                  23787007.484    97403825.098 9      2593.069          41.500  
                                                                
  23325080.266                   122574101.353 7     -1922.639          49.000  
                  23325082.465    95512286.722 9     -1498.158          43.300  
                                                                
  21836788.453                   114753091.713 8     -1537.395          53.000  
                  21836789.895    89417999.517 9     -1197.970          47.300  
                                                                
  23516956.945                   123582434.853 7      1908.968          50.000  
                  23516954.684    96297999.261 8      1487.505          40.500  
                                                                
  20078204.070                   105511685.571 7       144.763          49.800  
                  20078202.230    82216888.270 9       112.804          49.500  
                                                                
  22009075.336                   115658474.748 8      2301.175          52.300  
                  22009074.695    90123490.668 9      1793.125          45.300  
                                                                
  23473780.805                   123355530.144 7     -2250.545          48.300  
                  23473779.383    96121192.584 8     -1753.674          40.500  
                                                                
  23931561.242                   125761205.786 7      2748.943          48.800  
                  23931558.184    97995736.814 9      2142.034          41.500  
                                                                
  23767233.063                   124897630.859 7     -2949.588          47.800  
                  23767235.723    97322824.268 8     -2298.381          41.000  
                                                                
  22109758.938                   116187571.945 8      2723.060          54.300  
                  22109757.277    90535785.279 9      2121.865          45.300  
                                                                
  20873126.703                   109689022.888 8     -1603.500          54.500  
                  20873127.645    85471962.572 9     -1249.483          49.800  
                                                                
  21481982.883                   114833511.975 7     -1848.972          46.500  
                  21481984.883    89314966.358 7     -1438.090          31.500  
                                                                
  20420524.344                   108967839.338 6       452.666          42.800  
                                                                                
                                                                
  23110483.867                   123712314.974 7      2173.253          49.000  
                  23110485.129    96220632.798 9      1690.308          42.500  
                                                                
  22218644.055                   118729715.442 7      -232.293          47.300  
                  22218647.496    92345352.591 8      -180.672          38.300  
                                                                
  22086712.180                   117983272.497 7      3268.185          46.000  
                  22086715.141    91764787.557 8      2541.919          39.300  
                                                                
  21633886.313                   115686092.097 7     -3988.443          46.300  
                  21633889.391    89978063.506 9     -3102.120          46.500  
                                                                
  20212052.047                   108158775.379 8      -511.671          52.800  
                  20212053.625    84123503.720 9      -397.964          48.800  
                                                                
  23000935.570                   122780553.897 7      3288.047          47.500  
                  23000938.570    95495998.560 9      2557.368          43.800  
                                                                
 18 07 01  0  1 15.0000000  0 19G01G08G10G11G14G18G20G22G27G31G32R05 0.000000000
                                R06R07R15R16R20R21R22       
  23783839.523                   124984924.237 6      3326.797          46.500  
                  23783841.785    97390861.971 9      2592.302          41.800  
                                                                
  23326910.648                   122583720.176 7     -1924.557          48.800  
                  23326912.887    95519781.902 9     -1499.655          43.800  
                                                                
  21838251.773                   114760781.582 8     -1538.393          53.000  
                  21838253.234    89423991.617 9     -1198.748          47.300  
                                                                
  23515141.820                   123572896.209 7      1906.845          49.800  
                  23515139.539    96290566.548 8      1485.853          40.500  
                                                                
  20078067.766                   105510969.510 7       142.125          49.300  
                  20078065.965    82216330.298 9       110.747          49.300  
                                                                
  22006886.938                   115646974.620 7      2299.209          51.800  
                  22006886.297    90114529.533 9      1791.594          45.300  
                                                                
  23475922.547                   123366785.218 7     -2251.370          48.300  
                  23475921.188    96129962.760 8     -1754.310          39.800  
                                                                
  23928945.742                   125747461.080 7      2748.914          48.500  
                  23928942.703    97985026.648 8      2142.011          40.800  
                                                                
  23770039.703                   124912379.615 7     -2949.914          47.500  
                  23770042.305    97334316.793 9     -2298.632          42.300  
                                                                
  22107168.953                   116173961.714 8      2721.325          54.000  
                  22107167.313    90525179.916 9      2120.511          45.800  
                                                                
  20874653.320                   109697045.304 8     -1605.169          54.000  
                  20874654.242    85478213.803 9     -1250.779          49.800  
                                                                
  21483712.438                   114842757.667 7     -1849.293          46.300  
                  21483714.457    89322157.442 7     -1438.333          31.800  
                                                                
  20420100.664                   108965578.746 6       451.730          43.000  
                                                                                
                                                                
  23108454.391                   123701450.548 8      2172.619          49.300  
                  23108455.590    96212182.693 9      1689.815          42.800  
                                                                
  22218863.711                   118730889.223 7      -236.461          46.800  
                  22218867.191    92346265.517 8      -183.910          37.500  
                                                                
  22083654.094                   117966936.790 7      3266.368          45.800  
                  22083657.094    91752082.017 8      2540.505          38.800  
                                                                
  21637616.617                   115706039.708 7     -3990.288          45.500  
                  21637619.738    89993578.317 9     -3103.557          46.300  
                                                                
  20212532.750                   108161347.285 8      -516.247          52.800  
                  20212534.230    84125504.084 9      -401.523          48.800  
                                                                
  22997857.352                   122764122.000 7      3285.199          47.000  
                  22997860.313    95483218.194 9      2555.153          43.800  
                                                                
 18 07 01  0  1 20.0000000  0 19G01G08G10G11G14G18G20G22G27G31G32R05 0.000000000
                                R06R07R15R16R20R21R22       
  23780674.422                   124968291.845 6      3326.193          46.500  
                  23780676.762    97377901.667 9      2591.843          41.500  
                                                                
  23328742.563                   122593347.246 7     -1926.049          48.300  
                  23328744.863    95527283.519 9     -1500.818          44.000  
                                                                
  21839715.836                   114768475.304 8     -1539.024          52.800  
                  21839717.316    89429986.712 9     -1199.237          47.300  
                                                                
  23513328.445                   123563366.943 7      1905.124          49.800  
                  23513326.184    96283141.148 8      1484.514          41.000  
                                                                
  20077933.750                   105510265.445 7       139.881          49.500  
                  20077931.969    82215781.676 9       108.994          49.300  
                                                                
  22004700.195                   115635483.158 7      2297.638          51.500  
                  22004699.535    90105575.143 9      1790.369          45.500  
                                                                
  23478064.883                   123378043.280 7     -2251.812          48.300  
                  23478063.563    96138735.273 8     -1754.656          39.500  
                                                                
  23926330.039                   125733715.413 7      2749.211          48.300  
                  23926327.039    97974315.742 8      2142.236          40.800  
                                                                
  23772846.398                   124927128.669 7     -2949.814          47.300  
                  23772848.957    97345809.553 9     -2298.559          41.800  
                                                                
  22104580.414                   116160358.854 8      2720.004          53.800  
                  22104578.754    90514580.289 9      2119.481          45.500  
                                                                
  20876181.305                   109705074.880 8     -1606.462          54.300  
                  20876182.203    85484470.613 9     -1251.786          50.300  
                                                                
  21485442.063                   114852003.582 7     -1849.181          46.500  
                  21485444.023    89329348.709 7     -1438.250          32.000  
                                                                
  20419677.641                   108963321.513 6       451.210          42.800  
                                                                                
                                                                
  23106425.250                   123690588.095 8      2172.367          49.500  
                  23106426.469    96203734.129 9      1689.615          43.000  
                                                                
  22219087.070                   118732082.946 7      -240.327          47.300  
                  22219090.570    92347193.970 8      -186.917          37.800  
                                                                
  22080597.555                   117950609.121 7      3264.945          46.000  
                  22080600.535    91739382.725 8      2539.404          38.500  
                                                                
  21641348.398                   115725995.440 7     -3991.772          45.300  
                  21641351.578    90009099.430 9     -3104.708          46.500  
                                                                
  20213017.484                   108163940.833 8      -520.412          52.500  
                  20213018.906    84127521.284 9      -404.763          48.800  
                                                                
  22994781.445                   122747702.848 7      3282.829          46.500  
                  22994784.445    95470447.765 9      2553.303          43.800  
                                                                
 18 07 01  0  1 25.0000000  0 19G01G08G10G11G14G18G20G22G27G31G32R05 0.000000000
                                R06R07R15R16R20R21R22       
  23777510.422                   124951665.299 6      3324.743          47.000  
                  23777512.820    97364945.917 9      2590.707          41.800  
                                                                
  23330576.508                   122602984.781 7     -1928.459          48.300  
                  23330578.887    95534793.297 9     -1502.699          44.500  
                                                                
  21841181.055                   114776175.089 8     -1540.553          52.800  
                  21841182.535    89435986.543 9     -1200.427          47.500  
                                                                
  23511517.266                   123553849.310 7      1902.494          49.500  
                  23511515.004    96275724.802 8      1482.465          39.800  
                                                                
  20077802.430                   105509575.559 7       136.741          49.800  
                  20077800.691    82215244.102 9       106.550          49.300  
                                                                
  22002515.555                   115624002.656 7      2295.116          52.000  
                  22002514.895    90096629.301 9      1788.404          45.800  
                                                                
  23480208.227                   123389306.598 7     -2253.204          48.300  
                  23480206.906    96147511.882 8     -1755.744          39.300  
                                                                
  23923714.578                   125719971.091 7      2748.652          49.000  
                  23923711.637    97963605.887 9      2141.804          41.800  
                                                                
  23775653.563                   124941880.234 7     -2950.603          47.500  
                  23775656.121    97357304.275 9     -2299.169          42.300  
                                                                
  22101993.672                   116146765.589 8      2717.781          53.800  
                  22101992.012    90503988.140 9      2117.751          45.500  
                                                                
  20877711.063                   109713113.836 8     -1608.643          54.500  
                  20877711.961    85490734.729 9     -1253.486          50.000  
                                                                
  21487172.180                   114861252.022 7     -1850.012          46.800  
                  21487174.059    89336541.936 7     -1438.898          31.500  
                                                                
  20419255.727                   108961070.131 6       449.702          43.000  
                                                                                
                                                                
  23104396.891                   123679729.905 8      2171.182          49.300  
                  23104398.109    96195288.869 9      1688.699          42.800  
                                                                
  22219314.516                   118733298.680 7      -245.014          47.000  
                  22219318.055    92348139.541 8      -190.573          38.000  
                                                                
  22077542.898                   117934291.445 7      3262.626          46.300  
                  22077545.797    91726691.198 8      2537.596          38.500  
                                                                
  21645082.117                   115745961.635 7     -3994.202          45.500  
                  21645085.398    90024628.683 9     -3106.596          46.300  
                                                                
  20213506.648                   108166558.309 8      -525.493          52.300  
                  20213508.070    84129557.103 9      -408.715          48.800  
                                                                
  22991708.430                   122731298.901 7      3279.463          47.500  
                  22991711.430    95457689.165 9      2550.688          43.300  
                                                                
 18 07 01  0  1 30.0000000  0 19G01G08G10G11G14G18G20G22G27G31G32R05 0.000000000
                                R06R07R15R16R20R21R22       
  23774347.398                   124935043.803 6      3323.715          46.800  
                  23774349.820    97351994.106 9      2589.904          42.500  
                                                                
  23332412.266                   122612632.038 7     -1930.401          48.800  
                  23332414.727    95542310.630 9     -1504.202          43.300  
                                                                
  21842647.258                   114783880.083 8     -1541.594          52.800  
                  21842648.738    89441990.438 9     -1201.240          47.500  
                                                                
  23509708.125                   123544342.449 7      1900.323          48.800  
                  23509705.906    96268316.860 8      1480.767          40.500  
                                                                
  20077673.648                   105508899.005 7       134.066          50.000  
                  20077671.949    82214716.911 9       104.465          49.000  
                                                                
  22000332.813                   115612532.235 8      2293.108          52.300  
                  22000332.172    90087691.315 9      1786.838          45.300  
                                                                
  23482352.383                   123400574.274 7     -2254.069          48.300  
                  23482351.043    96156291.871 8     -1756.413          39.000  
                                                                
  23921099.242                   125706227.203 7      2748.539          49.300  
                  23921096.301    97952896.364 9      2141.718          41.500  
                                                                
  23778461.039                   124956633.480 6     -2950.957          47.000  
                  23778463.598    97368800.316 9     -2299.445          42.300  
                                                                
  22099408.617                   116133181.114 8      2716.021          54.000  
                  22099406.977    90493402.846 9      2116.380          45.000  
                                                                
  20879242.445                   109721161.308 8     -1610.353          54.800  
                  20879243.344    85497005.491 9     -1254.818          49.500  
                                                                
  21488902.641                   114870502.098 7     -1850.309          46.800  
                  21488904.441    89343736.429 7     -1439.129          31.800  
                                                                
  20418834.703                   108958823.573 6       448.755          43.000  
                                                                                
                                                                
  23102369.086                   123668875.043 7      2170.534          49.000  
                  23102370.348    96186846.200 9      1688.189          43.000  
                                                                
  22219545.953                   118734535.585 7      -249.262          47.000  
                  22219549.531    92349101.578 8      -193.875          37.800  
                                                                
  22074489.914                   117917982.945 7      3260.768          46.000  
                  22074492.813    91714006.815 8      2536.148          38.500  
                                                                
  21648817.617                   115765937.278 7     -3996.042          45.300  
                  21648820.957    90040165.289 9     -3108.035          46.500  
                                                                
  20214000.125                   108169198.857 8      -530.106          52.800  
                  20214001.523    84131610.865 9      -412.303          48.800  
                                                                
  22988638.070                   122714909.199 7      3276.626          47.500  
                  22988640.969    95444941.623 9      2548.489          42.800  
                                                                
 18 07 01  0  1 35.0000000  0 19G01G08G10G11G14G18G20G22G27G31G32R05 0.000000000
                                R06R07R15R16R20R21R22       
  23771185.578                   124918428.448 7      3322.740          47.500  
                  23771188.000    97339047.090 9      2589.146          42.300  
                                                                
  23334250.125                   122622290.107 7     -1932.316          48.800  
                  23334252.625    95549836.396 9     -1505.697          44.000  
                                                                
  21844114.680                   114791591.432 8     -1542.605          52.800  
                  21844116.141    89447999.274 9     -1202.028          47.500  
                                                                
  23507901.242                   123534847.467 7      1898.208          49.000  
                  23507899.043    96260918.181 8      1479.125          40.500  
                                                                
  20077547.625                   105508236.923 7       131.428          50.300  
                  20077545.965    82214201.011 9       102.414          49.300  
                                                                
  21998152.211                   115601073.007 7      2291.125          52.000  
                  21998151.570    90078762.039 9      1785.294          45.500  
                                                                
  23484497.625                   123411847.450 7     -2254.912          47.800  
                  23484496.266    96165076.170 8     -1757.080          40.000  
                                                                
  23918484.242                   125692484.943 7      2748.494          49.300  
                  23918481.320    97942188.101 9      2141.684          41.500  
                                                                
  23781269.039                   124971389.473 7     -2951.246          47.300  
                  23781271.578    97380298.481 9     -2299.677          41.800  
                                                                
  22096825.438                   116119606.554 8      2714.289          54.300  
                  22096823.816    90482825.270 9      2115.028          45.300  
                                                                
  20880775.680                   109729218.384 8     -1612.008          54.500  
                  20880776.539    85503283.735 9     -1256.115          49.800  
                                                                
  21490633.656                   114879754.962 7     -1850.619          46.800  
                  21490635.355    89350933.090 7     -1439.366          31.500  
                                                                
  20418414.781                   108956582.959 6       447.813          43.000  
                                                                                
                                                                
  23100342.125                   123658024.709 7      2169.860          48.800  
                  23100343.426    96178407.041 9      1687.671          42.800  
                                                                
  22219781.609                   118735794.862 7      -253.494          47.500  
                  22219785.168    92350081.008 8      -197.160          37.800  
                                                                
  22071438.938                   117901685.029 7      3258.908          46.000  
                  22071441.758    91701330.662 8      2534.709          38.500  
                                                                
  21652555.133                   115785923.573 7     -3997.946          45.500  
                  21652558.531    90055710.177 9     -3109.511          46.300  
                                                                
  20214498.148                   108171863.617 8      -534.689          53.000  
                  20214499.488    84133683.458 9      -415.865          48.800  
                                                                
  22985570.586                   122698534.932 7      3273.784          47.800  
                  22985573.406    95432206.080 9      2546.272          42.500  
                                                                
 18 07 01  0  1 40.0000000  0 19G01G08G10G11G14G18G20G22G27G31G32R05 0.000000000
                                R06R07R15R16R20R21R22       
  23768024.539                   124901817.178 7      3321.918          47.800  
                  23768027.039    97326103.240 9      2588.506          42.300  
                                                                
  23336089.586                   122631956.724 7     -1934.016          49.000  
                  23336092.164    95557368.819 9     -1507.021          43.500  
                                                                
  21845582.898                   114799307.007 8     -1543.462          52.800  
                  21845584.320    89454011.403 9     -1202.698          47.500  
                                                                
  23506096.227                   123525362.283 7      1896.248          48.800  
                  23506094.027    96253527.125 8      1477.594          40.800  
                                                                
  20077423.969                   105507587.174 7       128.948          50.000  
                  20077422.328    82213694.710 9       100.479          49.300  
                                                                
  21995973.336                   115589622.834 8      2289.293          52.300  
                  21995972.695    90069839.828 9      1783.865          45.500  
                                                                
  23486643.484                   123423124.002 7     -2255.587          48.300  
                  23486642.086    96173863.092 8     -1757.599          39.300  
                                                                
  23915869.125                   125678742.198 7      2748.570          49.300  
                  23915866.246    97931479.489 9      2141.743          41.800  
                                                                
  23784077.164                   124986146.117 7     -2951.385          47.300  
                  23784079.684    97391797.163 9     -2299.781          42.800  
                                                                
  22094243.758                   116106039.815 8      2712.712          54.300  
                  22094242.137    90472253.786 9      2113.802          45.300  
                                                                
  20882310.344                   109737282.987 8     -1613.522          54.800  
                  20882311.184    85509567.838 9     -1257.292          49.800  
                                                                
  21492364.781                   114889008.491 7     -1850.766          47.000  
                  21492366.359    89358130.292 7     -1439.487          31.500  
                                                                
  20417995.586                   108954346.276 6       447.023          42.300  
                                                                                
                                                                
  23098315.648                   123647176.750 7      2169.410          49.000  
                  23098316.969    96169969.727 9      1687.323          42.300  
                                                                
  22220021.055                   118737074.402 7      -257.553          47.500  
                  22220024.574    92351076.208 8      -200.323          37.800  
                                                                
  22068389.477                   117885395.206 7      3257.274          46.000  
                  22068392.215    91688660.808 8      2533.429          38.500  
                                                                
  21656294.219                   115805918.417 7     -3999.654          45.500  
                  21656297.680    90071261.701 9     -3110.838          46.300  
                                                                
  20215000.305                   108174550.458 9      -539.118          53.800  
                  20215001.605    84135773.215 9      -419.312          48.500  
                                                                
  22982505.609                   122682173.930 7      3271.133          47.800  
                  22982508.391    95419480.850 9      2544.221          42.500  
                                                                
 18 07 01  0  1 45.0000000  0 19G01G08G10G11G14G18G20G22G27G31G32R05 0.000000000
                                R06R07R15R16R20R21R22       
  23764864.422                   124885210.546 7      3320.846          48.300  
                  23764866.941    97313163.013 9      2587.674          41.800  
                                                                
  23337930.805                   122641632.424 7     -1935.950          49.500  
                  23337933.406    95564908.321 9     -1508.534          43.000  
                                                                
  21847052.039                   114807027.368 8     -1544.550          52.800  
                  21847053.438    89460027.264 9     -1203.543          47.300  
                                                                
  23504293.203                   123515887.464 7      1894.041          49.800  
                  23504291.004    96246144.160 8      1475.876          39.800  
                                                                
  20077302.766                   105506950.282 7       126.247          50.300  
                  20077301.145    82213198.434 9        98.374          49.000  
                                                                
  21993796.258                   115578182.291 7      2287.272          52.000  
                  21993795.637    90060925.115 9      1782.286          45.500  
                                                                
  23488790.102                   123434404.487 7     -2256.497          48.500  
                  23488788.723    96182653.082 8     -1758.307          39.500  
                                                                
  23913254.039                   125664999.508 7      2748.447          49.000  
                  23913251.117    97920770.889 9      2141.649          41.800  
                                                                
  23786885.500                   125000903.946 7     -2951.743          47.500  
                  23786887.980    97403296.770 9     -2300.059          42.500  
                                                                
  22091663.672                   116092481.479 8      2710.905          54.300  
                  22091662.070    90461688.859 9      2112.389          45.000  
                                                                
  20883846.523                   109745355.662 8     -1615.290          54.800  
                  20883847.363    85515858.236 9     -1258.668          49.800  
                                                                
  21494096.102                   114898263.263 7     -1851.132          47.000  
                  21494097.641    89365328.446 7     -1439.765          32.000  
                                                                
  20417577.227                   108952113.878 6       446.044          42.300  
                                                                                
                                                                
  23096289.711                   123636331.595 8      2168.730          49.300  
                  23096290.992    96161534.617 9      1686.784          42.000  
                                                                
  22220264.391                   118738374.810 7      -261.817          47.300  
                  22220267.930    92352087.638 8      -203.633          37.500  
                                                                
  22065341.734                   117869114.406 7      3255.391          46.000  
                  22065344.313    91675997.966 8      2531.971          38.300  
                                                                
  21660034.992                   115825922.246 7     -4001.584          45.500  
                  21660038.473    90086820.226 9     -3112.344          46.000  
                                                                
  20215506.750                   108177259.924 9      -543.776          53.500  
                  20215507.930    84137880.565 9      -422.930          48.800  
                                                                
  22979443.227                   122665826.818 7      3268.229          47.800  
                  22979445.988    95406766.437 9      2541.956          42.500  
                                                                
 18 07 01  0  1 50.0000000  0 19G01G08G10G11G14G18G20G22G27G31G32R05 0.000000000
                                R06R07R15R16R20R21R22       
  23761705.125                   124868608.118 7      3320.179          48.500  
                  23761707.645    97300226.058 9      2587.150          42.000  
                                                                
  23339773.727                   122651316.908 7     -1937.566          49.800  
                  23339776.367    95572454.670 9     -1509.787          43.000  
                                                                
  21848522.016                   114814752.100 8     -1545.272          53.000  
                  21848523.355    89466046.535 9     -1204.112          47.500  
                                                                
  23502492.125                   123506422.612 7      1892.204          50.000  
                  23502489.906    96238768.942 8      1474.453          40.500  
                                                                
  20077183.930                   105506325.876 7       123.914          50.000  
                  20077182.328    82212711.882 9        96.554          49.500  
                                                                
  21991620.938                   115566751.018 7      2285.554          52.000  
                  21991620.336    90052017.633 9      1780.951          45.500  
                                                                
  23490937.406                   123445688.514 7     -2257.069          48.300  
                  23490936.047    96191445.829 8     -1758.757          39.000  
                                                                
  23910638.805                   125651256.400 7      2748.678          48.800  
                  23910635.926    97910061.994 9      2141.823          41.500  
                                                                
  23789693.984                   125015662.487 7     -2951.746          48.000  
                  23789696.465    97414796.930 9     -2300.063          41.500  
                                                                
  22089085.094                   116078931.113 8      2709.457          54.300  
                  22089083.516    90451130.144 9      2111.263          45.300  
                                                                
  20885384.141                   109753435.912 8     -1616.633          54.800  
                  20885384.980    85522154.533 9     -1259.714          49.800  
                                                                
  21495827.563                   114907518.767 7     -1851.148          47.500  
                  21495829.043    89372527.171 7     -1439.782          31.800  
                                                                
  20417159.641                   108949885.487 6       445.359          42.500  
                                                                                
                                                                
  23094264.211                   123625488.932 7      2168.350          49.000  
                  23094265.371    96153101.456 9      1686.488          41.500  
                                                                
  22220511.430                   118739695.421 7      -265.713          46.800  
                  22220515.090    92353114.791 8      -206.665          38.300  
                                                                
  22062295.555                   117852842.024 7      3253.820          46.300  
                  22062298.016    91663341.660 8      2530.747          39.000  
                                                                
  21663777.359                   115845934.608 7     -4003.119          45.500  
                  21663780.898    90102385.394 9     -3113.537          46.500  
                                                                
  20216017.305                   108179991.523 9      -548.073          53.300  
                  20216018.363    84140005.139 9      -426.279          48.800  
                                                                
  22976383.391                   122649493.251 7      3265.678          47.800  
                  22976386.090    95394062.554 9      2539.968          42.000  
                                                                
 18 07 01  0  1 55.0000000  0 19G01G08G10G11G14G18G20G22G27G31G32R05 0.000000000
                                R06R07R15R16R20R21R22       
  23758546.602                   124852009.671 7      3319.296          48.500  
                  23758549.082    97287292.201 9      2586.464          41.300  
                                                                
  23341618.227                   122661009.716 7     -1939.305          49.300  
                  23341620.867    95580007.507 9     -1511.147          43.300  
                                                                
  21849992.797                   114822480.920 8     -1546.155          53.000  
                  21849994.059    89472068.998 9     -1204.798          47.300  
                                                                
  23500692.906                   123496967.471 7      1890.181          49.500  
                  23500690.668    96231401.295 8      1472.868          41.000  
                                                                
  20077067.406                   105505713.683 7       121.407          49.800  
                  20077065.867    82212234.849 9        94.601          49.000  
                                                                
  21989447.352                   115555328.746 8      2283.676          52.300  
                  21989446.750    90043117.164 9      1779.487          45.800  
                                                                
  23493085.305                   123456975.771 7     -2257.768          47.800  
                  23493083.926    96200241.077 8     -1759.296          39.800  
                                                                
  23908023.445                   125637512.695 7      2748.728          48.000  
                  23908020.605    97899352.616 9      2141.866          42.000  
                                                                
  23792502.563                   125030421.504 7     -2951.895          47.800  
                  23792505.063    97426297.456 9     -2300.176          41.300  
                                                                
  22086507.977                   116065388.464 8      2707.849          54.000  
                  22086506.438    90440577.445 9      2110.008          45.000  
                                                                
  20886923.180                   109761523.533 8     -1618.175          54.800  
                  20886924.020    85528456.573 9     -1260.916          49.800  
                                                                
  21497559.141                   114916774.782 7     -1851.324          47.500  
                  21497560.582    89379726.300 7     -1439.921          31.800  
                                                                
  20416742.664                   108947660.732 6       444.598          42.800  
                                                                                
                                                                
  23092239.148                   123614648.515 7      2167.825          48.800  
                  23092240.148    96144670.028 9      1686.086          41.300  
                                                                
  22220762.211                   118741036.091 7      -269.814          47.000  
                  22220766.051    92354157.531 8      -209.857          38.300  
                                                                
  22059250.898                   117836577.823 7      3252.098          46.000  
                  22059253.277    91650691.745 8      2529.405          38.500  
                                                                
  21667521.273                   115865955.231 7     -4004.863          45.800  
                  21667524.875    90117956.976 9     -3114.893          46.000  
                                                                
  20216531.945                   108182745.019 9      -552.528          53.300  
                  20216532.906    84142146.743 9      -429.742          48.800  
                                                                
  22973326.047                   122633172.789 7      3262.974          47.000  
                  22973328.586    95381368.855 9      2537.877          41.800  
                                                                
 18 07 01  0  2  0.0000000  0 19G01G08G10G11G14G18G20G22G27G31G32R05 0.000000000
                                R06R07R15R16R20R21R22       
  23755389.242                   124835417.382 7      3318.111          48.500  
                  23755391.664    97274363.143 9      2585.541          42.300  
                                                                
  23343464.703                   122670713.152 7     -1941.405          49.500  
                  23343467.363    95587568.620 9     -1512.783          43.000  
                                                                
  21851464.773                   114830216.032 8     -1547.382          53.300  
                  21851465.953    89478096.346 9     -1205.746          47.300  
                                                                
  23498895.945                   123487524.222 7      1887.843          49.800  
                  23498893.684    96224042.914 8      1471.048          40.800  
                                                                
  20076953.625                   105505115.834 7       118.564          49.800  
                  20076952.105    82211768.992 9        92.388          49.500  
                                                                
  21987275.914                   115543917.702 8      2281.466          52.300  
                  21987275.293    90034225.437 9      1777.766          45.500  
                                                                
  23495234.266                   123468268.469 7     -2258.827          47.800  
                  23495232.867    96209040.589 8     -1760.129          39.500  
                                                                
  23905408.359                   125623770.557 7      2748.447          48.000  
                  23905405.598    97888644.458 9      2141.651          42.500  
                                                                
  23795311.602                   125045183.132 7     -2952.392          47.500  
                  23795314.121    97437800.032 9     -2300.569          41.500  
                                                                
  22083932.734                   116051855.741 8      2705.886          53.500  
                  22083931.234    90430032.470 9      2108.483          45.500  
                                                                
  20888464.000                   109769620.675 8     -1620.046          54.300  
                  20888464.840    85534766.028 9     -1262.371          49.800  
                                                                
  21499291.219                   114926033.504 7     -1851.824          47.300  
                  21499292.578    89386927.512 7     -1440.308          31.500  
                                                                
  20416326.867                   108945441.880 6       443.419          42.300  
                                                                                
                                                                
  23090214.891                   123603812.495 7      2166.990          48.000  
                  23090215.770    96136242.021 9      1685.437          41.800  
                                                                
  22221017.172                   118742399.166 7      -274.244          46.800  
                  22221021.250    92355217.695 8      -213.297          38.500  
                                                                
  22056208.180                   117820324.114 7      3250.073          46.000  
                  22056210.441    91638049.967 8      2527.837          38.800  
                                                                
  21671267.133                   115885986.258 7     -4006.884          46.300  
                  21671270.813    90133536.653 9     -3116.463          46.500  
                                                                
  20217051.086                   108185522.667 9      -557.328          53.300  
                  20217051.965    84144307.136 9      -433.477          49.000  
                                                                
  22970271.586                   122616867.767 7      3259.907          47.000  
                  22970274.008    95368687.176 9      2535.481          41.800  
                                                                
 18 07 01  0  2  5.0000000  0 19G01G08G10G11G14G18G20G22G27G31G32R05 0.000000000
                                R06R07R15R16R20R21R22       
  23752232.563                   124818828.833 7      3317.257          48.800  
                  23752234.961    97261437.003 9      2584.880          41.500  
                                                                
  23345312.805                   122680424.846 7     -1943.144          49.500  
                  23345315.445    95595136.172 9     -1514.136          43.300  
                                                                
  21852937.492                   114837955.020 8     -1548.262          53.300  
                  21852938.594    89484126.727 9     -1206.440          47.000  
                                                                
  23497100.781                   123478090.417 7      1885.848          49.800  
                  23497098.520    96216691.904 9      1469.488          41.800  
                                                                
  20076842.125                   105504529.926 7       116.065          49.800  
                  20076840.645    82211312.438 9        90.441          49.300  
                                                                
  21985106.172                   115532515.444 8      2279.595          52.300  
                  21985105.492    90025340.555 9      1776.310          44.800  
                                                                
  23497383.766                   123479564.215 7     -2259.547          47.300  
                  23497382.406    96217842.460 8     -1760.680          40.800  
                                                                
  23902793.141                   125610027.572 7      2748.520          48.000  
                  23902790.402    97877935.641 9      2141.706          42.300  
                                                                
  23798120.703                   125059944.997 7     -2952.542          48.000  
                  23798123.203    97449302.768 9     -2300.680          41.300  
                                                                
  22081358.938                   116038330.512 8      2704.283          53.300  
                  22081357.457    90419493.337 9      2107.234          45.500  
                                                                
  20890006.180                   109777724.910 8     -1621.554          54.800  
                  20890007.039    85541081.020 9     -1263.553          49.500  
                                                                
  21501023.359                   114935292.547 7     -1851.979          47.500  
                  21501024.680    89394128.986 7     -1440.424          31.500  
                                                                
  20415911.688                   108943226.514 6       442.648          43.000  
                                                                                
                                                                
  23088190.945                   123592978.403 7      2166.500          48.300  
                  23088191.785    96127815.503 9      1685.054          41.800  
                                                                
  22221275.813                   118743781.981 7      -278.302          46.500  
                  22221280.133    92356293.222 8      -216.457          38.800  
                                                                
  22053166.977                   117804078.425 7      3248.313          45.500  
                  22053169.117    91625414.431 8      2526.464          38.800  
                                                                
  21675014.539                   115906025.351 7     -4008.619          46.300  
                  21675018.219    90149122.606 9     -3117.815          46.000  
                                                                
  20217574.211                   108188321.918 8      -561.737          52.800  
                  20217575.070    84146484.332 9      -436.907          48.800  
                                                                
  22967219.547                   122600575.805 7      3257.188          46.800  
                  22967221.906    95356015.656 9      2533.366          41.800  
                                                                
 18 07 01  0  2 10.0000000  0 19G01G08G10G11G14G18G20G22G27G31G32R05 0.000000000
                                R06R07R15R16R20R21R22       
  23749077.000                   124802245.993 7      3316.374          48.500  
                  23749079.379    97248515.312 9      2584.188          42.000  
                                                                
  23347162.805                   122690146.594 7     -1944.883          49.800  
                  23347165.426    95602711.550 9     -1515.490          43.000  
                                                                
  21854411.313                   114845699.787 8     -1549.156          53.300  
                  21854412.371    89490161.611 9     -1207.132          47.000  
                                                                
  23495307.781                   123468668.012 7      1883.833          50.000  
                  23495305.543    96209349.773 8      1467.926          41.000  
                                                                
  20076733.250                   105503957.852 7       113.561          49.800  
                  20076731.789    82210866.665 9        88.491          49.500  
                                                                
  21982938.477                   115521123.828 8      2277.735          52.500  
                  21982937.738    90016463.967 9      1774.860          45.300  
                                                                
  23499534.203                   123490864.895 7     -2260.272          47.500  
                  23499532.883    96226648.181 8     -1761.251          40.500  
                                                                
  23900178.125                   125596285.607 7      2748.565          48.000  
                  23900175.406    97867227.617 9      2141.739          41.800  
                                                                
  23800930.180                   125074708.922 7     -2952.699          47.300  
                  23800932.719    97460807.123 9     -2300.801          41.800  
                                                                
  22078786.891                   116024814.716 8      2702.662          53.300  
                  22078785.492    90408961.556 9      2105.969          45.800  
                                                                
  20891550.078                   109785838.138 8     -1623.102          54.800  
                  20891550.918    85547403.014 9     -1264.755          49.500  
                                                                
  21502755.898                   114944553.772 7     -1852.164          47.500  
                  21502757.199    89401332.169 7     -1440.572          31.800  
                                                                
  20415497.508                   108941016.499 6       441.815          43.000  
                                                                                
                                                                
  23086167.727                   123582148.181 7      2166.035          48.500  
                  23086168.547    96119392.009 9      1684.690          41.800  
                                                                
  22221538.492                   118745186.428 7      -282.382          46.300  
                  22221543.031    92357385.567 8      -219.629          38.500  
                                                                
  22050127.555                   117787842.634 7      3246.620          45.800  
                  22050129.734    91612786.611 8      2525.145          39.800  
                                                                
  21678763.813                   115926074.300 7     -4010.274          45.500  
                  21678767.492    90164716.220 9     -3119.106          46.000  
                                                                
  20218101.750                   108191144.822 8      -566.192          52.800  
                  20218102.609    84148679.917 9      -440.372          49.000  
                                                                
  22964170.352                   122584298.875 7      3254.447          47.000  
                  22964172.613    95343355.838 8      2531.232          41.000  
                                                                
 18 07 01  0  2 15.0000000  0 19G01G08G10G11G14G18G20G22G27G31G32R05 0.000000000
                                R06R07R15R16R20R21R22       
  23745922.383                   124785668.224 7      3315.257          48.500  
                  23745924.742    97235597.562 8      2583.322          40.500  
                                                                
  23349014.625                   122699877.863 7     -1946.899          49.500  
                  23349017.227    95610294.357 9     -1517.066          43.000  
                                                                
  21855886.133                   114853449.771 8     -1550.301          53.800  
                  21855887.133    89496200.550 9     -1208.025          46.800  
                                                                
  23493516.820                   123459256.406 7      1881.579          50.300  
                  23493514.602    96202016.044 8      1466.169          40.500  
                                                                
  20076626.891                   105503398.998 7       110.839          50.000  
                  20076625.449    82210431.191 9        86.366          49.500  
                                                                
  21980772.656                   115509742.335 7      2275.596          51.300  
                  21980771.895    90007595.273 9      1773.192          45.300  
                                                                
  23501685.461                   123502169.943 7     -2261.255          47.300  
                  23501684.160    96235457.305 8     -1762.015          39.500  
                                                                
  23897563.180                   125582544.094 7      2748.391          48.300  
                  23897560.520    97856519.960 9      2141.604          41.300  
                                                                
  23803739.945                   125089474.337 7     -2953.083          47.500  
                  23803742.484    97472312.637 8     -2301.108          41.000  
                                                                
  22076216.555                   116011307.777 8      2700.791          53.300  
                  22076215.195    90398436.670 9      2104.513          45.300  
                                                                
  20893095.578                   109793959.772 8     -1624.881          54.500  
                  20893096.398    85553731.564 9     -1266.143          49.500  
                                                                
  21504488.703                   114953816.554 7     -1852.564          46.500  
                  21504489.984    89408536.549 7     -1440.881          31.500  
                                                                
  20415084.266                   108938811.387 6       440.729          43.500  
                                                                                
                                                                
  23084145.172                   123571321.363 7      2165.224          47.800  
                  23084146.012    96110971.143 9      1684.067          42.000  
                                                                
  22221805.172                   118746612.166 7      -286.740          46.500  
                  22221809.934    92358494.473 8      -223.026          39.000  
                                                                
  22047089.938                   117771616.398 7      3244.608          45.300  
                  22047092.176    91600166.205 8      2523.586          39.800  
                                                                
  21682514.758                   115946132.470 7     -4012.271          45.800  
                  21682518.457    90180317.015 9     -3120.656          46.300  
                                                                
  20218633.570                   108193990.658 8      -570.896          52.800  
                  20218634.430    84150893.351 9      -444.032          48.800  
                                                                
  22961123.828                   122568036.262 7      3251.479          47.800  
                  22961125.969    95330707.130 9      2528.928          41.300  
                                                                
 18 07 01  0  2 20.0000000  0 19G01G08G10G11G14G18G20G22G27G31G32R05 0.000000000
                                R06R07R15R16R20R21R22       
  23742768.703                   124769095.435 7      3314.325          48.000  
                  23742771.043    97222683.702 9      2582.591          42.300  
                                                                
  23350868.227                   122709618.366 7     -1948.683          49.500  
                  23350870.766    95617884.351 9     -1518.452          43.300  
                                                                
  21857361.898                   114861204.769 8     -1551.250          53.800  
                  21857362.879    89502243.399 9     -1208.768          47.300  
                                                                
  23491727.883                   123449855.421 7      1879.505          49.800  
                  23491725.684    96194690.599 9      1464.550          41.500  
                                                                
  20076523.047                   105502853.260 7       108.259          50.000  
                  20076521.586    82210005.937 9        84.360          49.500  
                                                                
  21978608.695                   115498370.828 7      2273.644          51.500  
                  21978607.934    89998734.356 9      1771.672          45.300  
                                                                
  23503837.484                   123513479.160 7     -2262.020          47.300  
                  23503836.285    96244269.676 8     -1762.613          40.500  
                                                                
  23894948.305                   125568802.930 7      2748.381          48.300  
                  23894945.727    97845812.552 8      2141.594          40.500  
                                                                
  23806549.922                   125104241.079 6     -2953.283          46.800  
                  23806552.480    97483819.174 9     -2301.251          41.500  
                                                                
  22073647.852                   115997809.532 8      2699.107          53.300  
                  22073646.570    90387918.564 9      2103.198          45.300  
                                                                
  20894642.664                   109802089.614 8     -1626.457          54.800  
                  20894643.465    85560066.504 9     -1267.371          49.800  
                                                                
  21506221.797                   114963080.935 7     -1852.837          46.800  
                  21506223.117    89415742.168 7     -1441.091          31.800  
                                                                
  20414671.883                   108936610.747 6       439.924          43.500  
                                                                                
                                                                
  23082123.227                   123560497.599 7      2164.622          47.800  
                  23082124.008    96102552.651 9      1683.597          41.500  
                                                                
  22222075.813                   118748058.916 7      -290.871          46.500  
                  22222080.832    92359619.727 8      -226.233          38.800  
                                                                
  22044054.078                   117755399.264 7      3242.830          45.800  
                  22044056.277    91587552.884 8      2522.201          39.500  
                                                                
  21686267.492                   115966199.857 7     -4014.039          46.000  
                  21686271.172    90195924.970 9     -3122.028          46.000  
                                                                
  20219169.672                   108196859.319 8      -575.409          52.300  
                  20219170.531    84153124.531 9      -447.541          48.800  
                                                                
  22958079.984                   122551787.941 7      3248.705          46.800  
                  22958082.043    95318069.539 9      2526.771          41.300  
                                                                
 18 07 01  0  2 25.0000000  0 19G01G08G10G11G14G18G20G22G27G31G32R05 0.000000000
                                R06R07R15R16R20R21R22       
  23739615.984                   124752527.803 7      3313.034          47.800  
                  23739618.305    97209773.865 9      2581.583          41.500  
                                                                
  23352723.609                   122719368.383 7     -1950.866          49.500  
                  23352726.129    95625481.762 9     -1520.151          42.800  
                                                                
  21858838.656                   114868965.001 8     -1552.542          53.300  
                  21858839.617    89508290.337 9     -1209.771          47.300  
                                                                
  23489940.961                   123440465.298 7      1877.096          49.000  
                  23489938.820    96187373.624 9      1462.672          41.300  
                                                                
  20076421.688                   105502320.785 7       105.350          49.800  
                  20076420.266    82209591.020 9        82.093          49.500  
                                                                
  21976446.656                   115487009.551 7      2271.347          51.800  
                  21976445.918    89989881.409 9      1769.881          45.300  
                                                                
  23505990.383                   123524792.760 7     -2263.152          47.500  
                  23505989.203    96253085.454 8     -1763.495          39.500  
                                                                
  23892333.523                   125555062.276 7      2748.005          48.300  
                  23892330.984    97835105.557 8      2141.305          40.300  
                                                                
  23809360.180                   125119009.318 6     -2953.861          46.000  
                  23809362.859    97495326.910 9     -2301.714          42.300  
                                                                
  22071080.875                   115984320.237 8      2697.060          53.500  
                  22071079.637    90377407.437 9      2101.607          45.300  
                                                                
  20896191.320                   109810227.885 8     -1628.409          54.500  
                  20896192.102    85566408.016 9     -1268.892          49.500  
                                                                
  21507955.219                   114972346.791 7     -1853.377          47.000  
                  21507956.520    89422948.959 7     -1441.518          31.800  
                                                                
  20414260.320                   108934414.875 6       438.704          43.500  
                                                                                
                                                                
  23080101.891                   123549677.122 7      2163.757          48.000  
                  23080102.652    96094136.735 9      1682.920          42.300  
                                                                
  22222350.453                   118749526.904 7      -295.405          46.800  
                  22222355.691    92360761.500 8      -229.757          39.000  
                                                                
  22041020.016                   117739191.740 7      3240.664          45.800  
                  22041022.215    91574947.041 8      2520.516          39.500  
                                                                
  21690021.898                   115986276.460 7     -4016.154          45.500  
                  21690025.598    90211540.094 9     -3123.673          45.800  
                                                                
  20219710.086                   108199750.989 8      -580.266          52.800  
                  20219710.906    84155373.592 9      -451.316          49.000  
                                                                
  22955038.766                   122535554.028 7      3245.524          46.800  
                  22955040.805    95305443.162 8      2524.292          41.000  
                                                                
 18 07 01  0  2 30.0000000  0 19G01G08G10G11G14G18G20G22G27G31G32R05 0.000000000
                                R06R07R15R16R20R21R22       
  23736464.203                   124735965.240 7      3312.125          47.800  
                  23736466.582    97196867.978 9      2580.873          41.500  
                                                                
  23354580.789                   122729127.758 7     -1952.624          49.500  
                  23354583.289    95633086.473 9     -1521.527          43.500  
                                                                
  21860316.375                   114876730.366 8     -1553.486          53.000  
                  21860317.355    89514341.272 9     -1210.508          47.300  
                                                                
  23488156.102                   123431085.924 7      1875.026          49.300  
                  23488154.023    96180065.029 9      1461.057          41.500  
                                                                
  20076322.867                   105501801.488 7       102.815          50.000  
                  20076321.445    82209186.373 9        80.115          49.300  
                                                                
  21974286.516                   115475658.325 7      2269.442          51.300  
                  21974285.816    89981036.306 9      1768.397          45.000  
                                                                
  23508144.102                   123536110.638 7     -2263.896          47.500  
                  23508142.941    96261904.569 8     -1764.072          39.500  
                                                                
  23889718.805                   125541322.011 7      2748.026          48.300  
                  23889716.266    97824398.867 8      2141.319          40.300  
                                                                
  23812170.703                   125133778.900 6     -2953.992          47.000  
                  23812173.422    97506835.648 8     -2301.810          40.800  
                                                                
  22068515.555                   115970839.760 8      2695.397          53.000  
                  22068514.375    90366903.175 9      2100.309          44.800  
                                                                
  20897741.539                   109818374.453 8     -1629.975          54.300  
                  20897742.320    85572755.991 9     -1270.109          49.500  
                                                                
  21509688.898                   114981614.213 7     -1853.612          46.800  
                  21509690.258    89430156.965 7     -1441.698          31.500  
                                                                
  20413849.727                   108932223.765 6       437.859          44.000  
                                                                                
                                                                
  23078081.227                   123538859.986 7      2163.211          48.300  
                  23078081.887    96085723.415 9      1682.500          42.000  
                                                                
  22222629.094                   118751016.048 7      -299.509          47.000  
                  22222634.434    92361919.729 8      -232.953          38.800  
                                                                
  22037987.656                   117722993.508 7      3238.866          46.000  
                  22037989.938    91562348.426 8      2519.114          40.300  
                                                                
  21693778.039                   116006362.250 7     -4017.854          45.500  
                  21693781.758    90227162.366 9     -3124.994          45.800  
                                                                
  20220254.750                   108202665.534 8      -584.734          52.300  
                  20220255.590    84157640.461 9      -454.793          48.800  
                                                                
  22952000.227                   122519334.466 7      3242.788          46.000  
                  22952002.227    95292827.960 9      2522.165          41.300  
                                                                
 18 07 01  0  2 35.0000000  0 19G01G08G10G11G14G18G20G22G27G31G32R05 0.000000000
                                R06R07R15R16R20R21R22       
  23733313.320                   124719407.196 7      3311.279          47.300  
                  23733315.680    97183965.597 8      2580.220          41.000  
                                                                
  23356439.625                   122738895.929 7     -1954.279          49.500  
                  23356442.105    95640698.026 9     -1522.813          42.800  
                                                                
  21861794.953                   114884500.299 8     -1554.316          53.300  
                  21861795.934    89520395.762 9     -1211.157          47.300  
                                                                
  23486373.164                   123421716.761 7      1873.060          49.300  
                  23486371.125    96172764.387 8      1459.527          40.500  
                                                                
  20076226.445                   105501294.811 7       100.379          49.800  
                  20076225.023    82208791.557 9        78.220          49.000  
                                                                
  21972128.211                   115464316.679 7      2267.621          51.500  
                  21972127.551    89972198.660 9      1766.978          45.000  
                                                                
  23510298.508                   123547432.257 7     -2264.573          47.500  
                  23510297.406    96270726.602 8     -1764.603          40.300  
                                                                
  23887104.039                   125527581.570 7      2748.152          48.300  
                  23887101.520    97813692.026 8      2141.419          40.300  
                                                                
  23814981.359                   125148549.320 6     -2954.100          46.000  
                  23814984.141    97518345.060 9     -2301.892          43.000  
                                                                
  22065951.813                   115957367.563 8      2693.831          53.300  
                  22065950.691    90356405.371 9      2099.087          44.800  
                                                                
  20899293.219                   109826528.742 8     -1631.421          54.300  
                  20899294.020    85579109.982 9     -1271.239          49.500  
                                                                
  21511422.719                   114990882.541 7     -1853.690          47.300  
                  21511424.078    89437365.650 7     -1441.757          31.800  
                                                                
  20413439.945                   108930036.863 6       437.098          43.800  
                                                                                
                                                                
  23076061.047                   123528045.429 7      2162.737          48.300  
                  23076061.605    96077312.102 9      1682.125          41.800  
                                                                
  22222911.609                   118752525.784 7      -303.546          47.000  
                  22222917.051    92363093.976 8      -236.098          38.800  
                                                                
  22034956.992                   117706804.231 7      3237.202          46.500  
                  22034959.371    91549756.777 8      2517.824          40.300  
                                                                
  21697535.758                   116026456.580 7     -4019.520          46.000  
                  21697539.520    90242791.281 9     -3126.291          45.800  
                                                                
  20220803.586                   108205602.429 8      -589.087          52.300  
                  20220804.426    84159924.712 9      -458.181          48.800  
                                                                
  22948964.289                   122503128.740 7      3240.095          46.500  
                  22948966.230    95280223.513 8      2520.076          41.000  
                                                                
 18 07 01  0  2 40.0000000  0 19G01G08G10G11G14G18G20G22G27G31G32R05 0.000000000
                                R06R07R15R16R20R21R22       
  23730163.242                   124702853.576 6      3310.215          46.800  
                  23730165.602    97171066.667 8      2579.393          40.500  
                                                                
  23358300.109                   122748672.688 7     -1956.171          49.800  
                  23358302.590    95648316.280 9     -1524.287          43.300  
                                                                
  21863274.375                   114892274.662 8     -1555.380          52.500  
                  21863275.355    89526453.709 9     -1211.984          47.500  
                                                                
  23484592.125                   123412357.656 7      1870.869          48.800  
                  23484590.184    96165471.584 9      1457.820          42.300  
                                                                
  20076132.406                   105500800.596 7        97.712          49.800  
                  20076130.984    82208406.456 9        76.135          49.300  
                                                                
  21969971.711                   115452984.463 7      2265.562          51.500  
                  21969971.070    89963368.356 9      1765.377          45.300  
                                                                
  23512453.602                   123558757.447 6     -2265.459          47.000  
                  23512452.523    96279551.417 8     -1765.293          39.800  
                                                                
  23884489.203                   125513840.832 7      2748.026          48.300  
                  23884486.742    97802984.955 8      2141.319          41.000  
                                                                
  23817792.164                   125163320.392 6     -2954.413          46.500  
                  23817795.023    97529854.982 9     -2302.137          41.300  
                                                                
  22063389.656                   115943903.536 8      2692.013          53.300  
                  22063388.578    90345913.939 9      2097.670          45.000  
                                                                
  20900846.344                   109834690.645 8     -1633.128          54.300  
                  20900847.184    85585469.901 9     -1272.570          49.500  
                                                                
  21513156.742                   115000151.776 7     -1854.059          46.800  
                  21513158.063    89444575.059 7     -1442.043          31.800  
                                                                
  20413030.906                   108927853.795 6       436.148          43.000  
                                                                                
                                                                
  23074041.289                   123517233.346 7      2162.068          48.000  
                  23074041.730    96068902.718 9      1681.604          42.000  
                                                                
  22223197.969                   118754056.000 7      -307.821          48.000  
                  22223203.488    92364284.161 8      -239.418          38.800  
                                                                
  22031927.977                   117690623.617 7      3235.258          46.300  
                  22031930.438    91537171.871 8      2516.307          40.300  
                                                                
  21701295.078                   116046559.225 7     -4021.317          45.300  
                  21701298.816    90258426.660 9     -3127.687          45.800  
                                                                
  20221356.570                   108208561.489 8      -593.721          52.500  
                  20221357.430    84162226.197 9      -461.781          48.800  
                                                                
  22945930.969                   122486936.845 7      3237.141          46.300  
                  22945932.848    95267629.811 8      2517.774          41.000  
                                                                
 18 07 01  0  2 45.0000000  0 19G01G08G10G11G14G18G20G22G27G31G32R05 0.000000000
                                R06R07R15R16R20R21R22       
  23727014.164                   124686305.307 6      3309.267          46.000  
                  23727016.523    97158171.926 9      2578.645          42.300  
                                                                
  23360162.430                   122758459.067 7     -1958.000          49.500  
                  23360164.910    95655942.034 9     -1525.716          42.800  
                                                                
  21864754.813                   114900054.437 8     -1556.326          52.800  
                  21864755.832    89532515.870 9     -1212.722          47.500  
                                                                
  23482813.164                   123403009.646 7      1868.759          48.500  
                  23482811.344    96158187.419 9      1456.178          41.500  
                                                                
  20076040.906                   105500319.815 7        95.132          49.800  
                  20076039.484    82208031.824 9        74.127          49.300  
                                                                
  21967817.211                   115441662.576 7      2263.591          51.000  
                  21967816.570    89954546.104 9      1763.837          45.300  
                                                                
  23514609.563                   123570087.159 6     -2266.247          46.800  
                  23514608.523    96288379.752 8     -1765.905          40.500  
                                                                
  23881874.539                   125500100.825 7      2747.997          48.300  
                  23881872.117    97792278.470 8      2141.299          41.000  
                                                                
  23820603.203                   125178093.053 6     -2954.612          45.500  
                  23820606.164    97541366.143 9     -2302.299          42.500  
                                                                
  22060829.211                   115930448.696 8      2690.281          53.300  
                  22060828.191    90335429.656 9      2096.319          45.300  
                                                                
  20902401.063                   109842861.069 8     -1634.731          54.000  
                  20902401.961    85591836.465 9     -1273.819          49.500  
                                                                
  21514891.023                   115009422.769 7     -1854.288          46.000  
                  21514892.422    89451785.833 7     -1442.222          32.300  
                                                                
  20412622.766                   108925675.767 6       435.300          43.000  
                                                                                
                                                                
  23072022.227                   123506424.796 7      2161.498          48.000  
                  23072022.566    96060496.072 9      1681.163          41.800  
                                                                
  22223488.313                   118755607.446 7      -311.930          48.300  
                  22223493.852    92365490.849 8      -242.617          38.300  
                                                                
  22028900.773                   117674452.681 7      3233.481          46.300  
                  22028903.273    91524594.483 8      2514.930          40.000  
                                                                
  21705056.133                   116066671.242 7     -4023.108          46.300  
                  21705059.871    90274069.333 9     -3129.080          46.000  
                                                                
  20221913.852                   108211543.708 8      -598.232          52.300  
                  20221914.750    84164545.701 9      -465.292          48.800  
                                                                
  22942900.391                   122470759.569 7      3234.335          46.500  
                  22942902.191    95255047.495 8      2515.594          40.800  
                                                                
 18 07 01  0  2 50.0000000  0 19G01G08G10G11G14G18G20G22G27G31G32R05 0.000000000
                                R06R07R15R16R20R21R22       
  23723866.039                   124669762.256 6      3308.352          46.000  
                  23723868.520    97145281.241 9      2577.933          41.300  
                                                                
  23362026.523                   122768254.800 7     -1959.710          50.000  
                  23362028.984    95663575.065 9     -1527.043          43.000  
                                                                
  21866236.234                   114907839.456 8     -1557.248          53.000  
                  21866237.313    89538582.113 9     -1213.438          47.500  
                                                                
  23481036.320                   123393672.544 7      1866.746          47.800  
                  23481034.559    96150911.756 9      1454.607          41.800  
                                                                
  20075951.945                   105499852.248 7        92.638          50.300  
                  20075950.523    82207667.484 9        72.188          49.300  
                                                                
  21965664.672                   115430350.894 7      2261.709          52.000  
                  21965664.012    89945731.802 9      1762.371          45.300  
                                                                
  23516766.344                   123581421.196 6     -2266.957          46.500  
                  23516765.383    96297211.463 8     -1766.460          40.500  
                                                                
  23879259.945                   125486361.238 7      2748.079          48.300  
                  23879257.605    97781572.303 8      2141.360          41.000  
                                                                
  23823414.523                   125192867.110 6     -2954.725          46.800  
                  23823417.523    97552878.374 9     -2302.379          41.300  
                                                                
  22058270.477                   115917002.763 8      2688.644          53.000  
                  22058269.516    90324952.313 9      2095.043          44.800  
                                                                
  20903957.383                   109851039.843 8     -1636.237          54.000  
                  20903958.324    85598209.534 9     -1274.992          49.500  
                                                                
  21516625.641                   115018695.419 7     -1854.478          46.800  
                  21516627.082    89458997.884 7     -1442.370          31.800  
                                                                
  20412215.508                   108923502.493 6       434.446          43.000  
                                                                                
                                                                
  23070003.727                   123495619.463 7      2160.965          48.300  
                  23070004.008    96052091.943 9      1680.745          41.800  
                                                                
  22223782.633                   118757180.045 7      -316.034          47.500  
                  22223788.152    92366713.976 8      -245.804          38.300  
                                                                
  22025875.359                   117658291.361 7      3231.695          46.500  
                  22025877.859    91512024.578 8      2513.540          40.000  
                                                                
  21708818.938                   116086792.450 7     -4024.787          46.000  
                  21708822.637    90289719.145 9     -3130.390          45.500  
                                                                
  20222475.406                   108214548.874 8      -602.679          52.000  
                  20222476.367    84166883.050 9      -468.750          48.800  
                                                                
  22939872.531                   122454596.842 7      3231.554          47.000  
                  22939874.270    95242476.489 8      2513.433          41.000  
                                                                
 18 07 01  0  2 55.0000000  0 19G01G08G10G11G14G18G20G22G27G31G32R05 0.000000000
                                R06R07R15R16R20R21R22       
  23720718.766                   124653223.752 6      3307.417          46.000  
                  23720721.285    97132394.106 9      2577.206          41.500  
                                                                
  23363892.305                   122778059.341 7     -1961.542          49.800  
                  23363894.746    95671214.956 9     -1528.472          43.300  
                                                                
  21867718.516                   114915629.048 8     -1558.223          52.800  
                  21867719.656    89544651.920 9     -1214.196          47.800  
                                                                
  23479261.422                   123384345.668 7      1864.610          47.800  
                  23479259.762    96143644.069 9      1452.941          41.500  
                                                                
  20075865.391                   105499397.294 7        90.048          50.000  
                  20075863.949    82207312.972 9        70.167          49.300  
                                                                
  21963513.977                   115419048.871 7      2259.681          51.000  
                  21963513.297    89936925.033 9      1760.792          45.300  
                                                                
  23518923.844                   123592758.985 6     -2267.769          46.000  
                  23518922.945    96306046.108 8     -1767.096          41.000  
                                                                
  23876645.344                   125472621.572 7      2748.021          47.300  
                  23876643.004    97770866.069 8      2141.315          40.800  
                                                                
  23826226.078                   125207641.921 6     -2954.959          46.800  
                  23826229.098    97564391.220 9     -2302.570          41.500  
                                                                
  22055713.352                   115903565.193 8      2686.918          52.800  
                  22055712.410    90314481.490 9      2093.700          45.800  
                                                                
  20905515.180                   109859226.340 8     -1637.850          53.800  
                  20905516.180    85604588.618 9     -1276.247          49.500  
                                                                
  21518360.477                   115027969.066 7     -1854.735          47.000  
                  21518361.938    89466210.727 7     -1442.569          31.800  
                                                                
  20411809.023                   108921333.353 6       433.568          42.800  
                                                                                
                                                                
  23067985.727                   123484816.846 7      2160.425          47.800  
                  23067985.906    96043689.921 9      1680.334          41.500  
                                                                
  22224080.789                   118758773.258 7      -320.221          47.800  
                  22224086.211    92367953.135 8      -249.057          38.000  
                                                                
  22022851.594                   117642138.962 7      3229.849          46.300  
                  22022854.113    91499461.611 8      2512.103          39.500  
                                                                
  21712583.313                   116106922.172 7     -4026.547          46.800  
                  21712586.992    90305375.587 9     -3131.752          45.800  
                                                                
  20223041.125                   108217576.337 8      -607.225          52.000  
                  20223042.145    84169237.740 9      -472.290          48.800  
                                                                
  22936847.305                   122438448.044 7      3228.704          47.000  
                  22936849.023    95229916.303 9      2511.214          41.300  
                                                                
 18 07 01  0  3  0.0000000  0 19G01G08G10G11G14G18G20G22G27G31G32R05 0.000000000
                                R06R07R15R16R20R21R22       
  23717572.281                   124636689.201 6      3306.542          45.500  
                  23717574.820    97119510.052 9      2576.526          42.300  
                                                                
  23365759.609                   122787871.934 7     -1963.216          49.500  
                  23365762.031    95678861.133 9     -1529.774          43.300  
                                                                
  21869201.555                   114923422.578 8     -1559.056          52.500  
                  21869202.754    89550724.801 9     -1214.849          47.300  
                                                                
  23477488.383                   123375028.403 7      1862.653          49.300  
                  23477486.781    96136383.863 9      1451.422          42.000  
                                                                
  20075781.109                   105498954.268 7        87.609          50.000  
                  20075779.668    82206967.761 9        68.269          49.300  
                                                                
  21961364.938                   115407755.799 7      2257.868          51.500  
                  21961364.316    89928125.233 9      1759.378          45.500  
                                                                
  23521081.883                   123604099.851 6     -2268.459          46.300  
                  23521081.082    96314883.136 8     -1767.627          41.000  
                                                                
  23874030.563                   125458881.128 7      2748.110          47.800  
                  23874028.203    97760159.238 8      2141.387          39.800  
                                                                
  23829037.578                   125222416.834 6     -2955.014          46.500  
                  23829040.637    97575904.129 9     -2302.604          41.800  
                                                                
  22053157.672                   115890135.277 8      2685.328          52.800  
                  22053156.773    90304016.627 9      2092.462          45.300  
                                                                
  20907074.320                   109867419.862 8     -1639.306          54.300  
                  20907075.340    85610973.183 9     -1277.381          49.300  
                                                                
  21520095.344                   115037242.954 7     -1854.850          47.000  
                  21520096.805    89473423.739 7     -1442.661          31.500  
                                                                
  20411403.188                   108919167.750 6       432.786          43.800  
                                                                                
                                                                
  23065968.086                   123474016.205 7      2159.938          48.500  
                  23065968.164    96035289.418 9      1679.949          41.500  
                                                                
  22224382.672                   118760386.298 7      -324.242          47.800  
                  22224387.953    92369207.720 8      -252.190          37.800  
                                                                
  22019829.375                   117625994.912 7      3228.062          46.000  
                  22019831.934    91486905.136 8      2510.713          39.800  
                                                                
  21716349.156                   116127059.627 7     -4028.153          46.800  
                  21716352.816    90321038.048 9     -3133.006          45.800  
                                                                
  20223610.906                   108220625.498 8      -611.613          52.000  
                  20223611.984    84171609.315 9      -475.699          48.800  
                                                                
  22933824.570                   122422312.471 7      3226.008          46.500  
                  22933826.309    95217366.402 9      2509.124          41.300  
                                                                
 18 07 01  0  3  5.0000000  0 19G01G08G10G11G14G18G20G22G27G31G32R05 0.000000000
                                R06R07R15R16R20R21R22       
  23714427.000                   124620160.908 6      3305.257          46.000  
                  23714429.559    97106630.859 9      2575.527          41.500  
                                                                
  23367628.906                   122797694.970 7     -1965.328          50.000  
                  23367631.305    95686515.442 9     -1531.420          42.800  
                                                                
  21870685.797                   114931222.344 8     -1560.346          53.300  
                  21870687.035    89556802.534 9     -1215.852          47.000  
                                                                
  23475717.602                   123365723.060 7      1860.206          48.500  
                  23475716.102    96129132.946 9      1449.514          41.500  
                                                                
  20075699.531                   105498525.444 7        84.745          50.300  
                  20075698.070    82206633.615 9        66.033          49.300  
                                                                
  21959218.031                   115396473.914 7      2255.611          52.000  
                  21959217.453    89919334.161 9      1757.619          45.500  
                                                                
  23523240.984                   123615446.061 6     -2269.561          46.800  
                  23523240.203    96323724.334 8     -1768.489          40.300  
                                                                
  23871416.102                   125445142.145 7      2747.792          48.300  
                  23871413.660    97749453.531 8      2141.139          39.800  
                                                                
  23831849.625                   125237194.083 6     -2955.516          47.000  
                  23831852.684    97587418.859 9     -2303.001          41.300  
                                                                
  22050603.914                   115876715.372 8      2683.281          52.800  
                  22050603.055    90293559.570 9      2090.871          45.300  
                                                                
  20908635.219                   109875622.707 8     -1641.208          54.300  
                  20908636.297    85617365.008 9     -1278.859          49.300  
                                                                
  21521830.781                   115046519.557 7     -1855.427          47.500  
                  21521832.141    89480638.866 7     -1443.112          31.300  
                                                                
  20410998.445                   108917007.964 6       431.626          43.800  
                                                                                
                                                                
  23063951.289                   123463219.959 7      2159.017          48.300  
                  23063951.328    96026892.358 9      1679.231          41.500  
                                                                
  22224688.711                   118762021.523 7      -328.704          48.000  
                  22224693.891    92370479.557 8      -255.659          38.000  
                                                                
  22016809.117                   117609861.431 7      3225.976          46.000  
                  22016811.719    91474356.888 8      2509.088          40.000  
                                                                
  21720116.914                   116147207.281 7     -4030.231          46.800  
                  21720120.535    90336708.444 9     -3134.628          45.800  
                                                                
  20224185.148                   108223698.629 8      -616.429          53.000  
                  20224186.270    84173999.526 9      -479.441          49.000  
                                                                
  22930804.648                   122406192.579 7      3222.853          46.300  
                  22930806.547    95204828.723 9      2506.664          41.300  
                                                                
 18 07 01  0  3 10.0000000  0 19G01G08G10G11G14G18G20G22G27G31G32R05 0.000000000
                                R06R07R15R16R20R21R22       
  23711282.703                   124603637.395 6      3304.471          47.000  
                  23711285.242    97093755.400 8      2574.913          40.800  
                                                                
  23369499.883                   122807526.871 7     -1966.941          50.000  
                  23369502.262    95694176.662 9     -1532.684          42.800  
                                                                
  21872170.914                   114939026.870 8     -1561.137          53.300  
                  21872172.215    89562883.975 9     -1216.468          47.000  
                                                                
  23473948.805                   123356428.124 7      1858.288          48.300  
                  23473947.406    96121890.147 9      1448.019          42.500  
                                                                
  20075620.367                   105498109.410 7        82.328          50.300  
                  20075618.926    82206309.427 9        64.154          49.300  
                                                                
  21957073.031                   115385201.910 7      2253.748          51.800  
                  21957072.473    89910550.784 9      1756.165          45.000  
                                                                
  23525400.820                   123626796.196 7     -2270.202          47.300  
                  23525400.082    96332568.600 8     -1768.988          39.300  
                                                                
  23868801.703                   125431403.225 7      2747.939          47.800  
                  23868799.102    97738747.865 8      2141.258          39.800  
                                                                
  23834661.781                   125251972.220 6     -2955.542          46.800  
                  23834664.902    97598934.286 9     -2303.020          41.300  
                                                                
  22048051.758                   115863304.044 8      2681.729          52.800  
                  22048050.977    90283109.186 9      2089.657          45.300  
                                                                
  20910197.641                   109883833.401 8     -1642.619          54.300  
                  20910198.719    85623762.951 9     -1279.963          49.300  
                                                                
  21523566.398                   115055797.235 7     -1855.475          47.300  
                  21523567.637    89487854.829 7     -1443.143          31.000  
                                                                
  20410594.461                   108914852.228 6       430.954          44.000  
                                                                                
                                                                
  23061934.969                   123452426.440 7      2158.615          48.300  
                  23061934.988    96018497.403 9      1678.921          41.800  
                                                                
  22224998.648                   118763677.481 7      -332.709          48.300  
                  22225003.750    92371767.516 8      -258.770          38.300  
                                                                
  22013790.617                   117593737.231 7      3224.272          46.300  
                  22013793.219    91461815.852 8      2507.767          40.000  
                                                                
  21723886.234                   116167363.559 7     -4031.784          46.800  
                  21723889.855    90352385.540 9     -3135.830          45.800  
                                                                
  20224763.625                   108226794.163 8      -620.766          52.500  
                  20224764.746    84176407.157 9      -482.818          48.800  
                                                                
  22927787.430                   122390086.750 7      3220.184          46.800  
                  22927789.508    95192301.975 9      2504.586          41.800  
                                                                
 18 07 01  0  3 15.0000000  0 19G01G08G10G11G14G18G20G22G27G31G32R05 0.000000000
                                R06R07R15R16R20R21R22       
  23708139.180                   124587118.021 6      3303.462          46.800  
                  23708141.660    97080883.160 9      2574.125          41.800  
                                                                
  23371372.406                   122817366.922 7     -1968.768          50.000  
                  23371374.746    95701844.234 9     -1534.107          42.800  
                                                                
  21873656.813                   114946835.493 8     -1562.159          52.800  
                  21873658.172    89568968.610 9     -1217.265          47.300  
                                                                
  23472181.922                   123347142.970 7      1856.152          49.300  
                  23472180.500    96114654.958 9      1446.350          41.800  
                                                                
  20075543.508                   105497705.398 7        79.737          50.300  
                  20075542.066    82205994.614 9        62.135          49.300  
                                                                
  21954929.797                   115373939.076 7      2251.717          51.000  
                  21954929.258    89901774.550 9      1754.585          44.500  
                                                                
  23527561.281                   123638149.540 7     -2271.027          47.300  
                  23527560.582    96341415.339 8     -1769.627          39.800  
                                                                
  23866187.164                   125417663.693 7      2747.866          47.800  
                  23866184.465    97728041.734 8      2141.196          40.300  
                                                                
  23837473.984                   125266750.546 6     -2955.768          46.800  
                  23837477.145    97610449.869 9     -2303.198          41.500  
                                                                
  22045501.117                   115849900.579 8      2679.950          52.800  
                  22045500.418    90272664.940 9      2088.271          45.300  
                                                                
  20911761.398                   109892051.270 8     -1644.245          54.300  
                  20911762.520    85630166.485 9     -1281.230          49.000  
                                                                
  21525302.102                   115065075.456 7     -1855.775          46.500  
                  21525303.262    89495071.229 7     -1443.380          31.000  
                                                                
  20410191.188                   108912700.129 6       430.022          43.500  
                                                                                
                                                                
  23059919.031                   123441635.081 7      2157.954          47.300  
                  23059919.051    96010104.137 9      1678.409          41.500  
                                                                
  22225312.391                   118765353.542 7      -336.920          48.500  
                  22225317.332    92373071.117 8      -262.045          38.000  
                                                                
  22010773.695                   117577621.469 7      3222.328          46.300  
                  22010776.336    91449281.384 8      2506.251          40.000  
                                                                
  21727657.055                   116187527.614 7     -4033.536          46.800  
                  21727660.633    90368068.686 9     -3137.190          45.500  
                                                                
  20225346.211                   108229911.506 8      -625.331          52.500  
                  20225347.289    84178831.751 9      -486.364          48.800  
                                                                
  22924772.805                   122373994.450 7      3217.275          46.800  
                  22924775.004    95179785.730 9      2502.333          41.800  
                                                                
 18 07 01  0  3 20.0000000  0 19G01G08G10G11G14G18G20G22G27G31G32R05 0.000000000
                                R06R07R15R16R20R21R22       
  23704996.602                   124570603.599 6      3302.456          46.800  
                  23704999.063    97068014.782 9      2573.340          42.300  
                                                                
  23373246.609                   122827215.930 7     -1970.538          49.800  
                  23373248.949    95709518.782 9     -1535.482          42.500  
                                                                
  21875143.617                   114954649.005 8     -1563.110          52.800  
                  21875145.059    89575057.057 9     -1218.004          47.500  
                                                                
  23470417.047                   123337868.413 7      1854.053          48.800  
                  23470415.688    96107428.037 9      1444.716          42.000  
                                                                
  20075469.109                   105497314.289 7        77.183          50.300  
                  20075467.668    82205689.850 9        60.143          49.000  
                                                                
  21952788.438                   115362686.106 7      2249.767          51.800  
                  21952787.898    89893005.993 9      1753.066          44.800  
                                                                
  23529722.508                   123649506.915 6     -2271.807          47.000  
                  23529721.828    96350265.241 8     -1770.239          39.500  
                                                                
  23863572.625                   125403924.351 7      2747.853          48.000  
                  23863569.926    97717335.761 8      2141.182          40.300  
                                                                
  23840286.398                   125281529.879 7     -2955.947          47.800  
                  23840289.520    97621966.214 8     -2303.333          41.000  
                                                                
  22042952.133                   115836505.854 8      2678.226          53.000  
                  22042951.492    90262227.498 9      2086.929          45.300  
                                                                
  20913326.703                   109900277.093 8     -1645.817          54.500  
                  20913327.824    85636576.213 9     -1282.450          49.000  
                                                                
  21527038.039                   115074354.697 7     -1855.964          46.800  
                  21527039.098    89502288.405 7     -1443.526          30.800  
                                                                
  20409788.703                   108910552.512 6       429.147          43.000  
                                                                                
                                                                
  23057903.625                   123430846.602 7      2157.430          48.500  
                  23057903.625    96001713.100 9      1678.003          41.500  
                                                                
  22225630.055                   118767050.551 7      -341.110          48.300  
                  22225634.816    92374391.011 8      -265.314          37.800  
                                                                
  22007758.555                   117561515.041 7      3220.501          46.300  
                  22007761.176    91436754.161 8      2504.830          39.800  
                                                                
  21731429.492                   116207700.383 7     -4035.260          46.300  
                  21731433.031    90383758.607 9     -3138.534          45.800  
                                                                
  20225933.031                   108233051.412 8      -629.799          53.000  
                  20225934.070    84181273.892 9      -489.842          49.000  
                                                                
  22921760.852                   122357916.398 7      3214.467          45.500  
                  22921763.172    95167280.566 9      2500.141          41.800  
                                                                
 18 07 01  0  3 25.0000000  0 19G01G08G10G11G14G18G20G22G27G31G32R05 0.000000000
                                R06R07R15R16R20R21R22       
  23701854.961                   124554094.261 6      3301.321          46.800  
                  23701857.441    97055150.365 9      2572.460          42.500  
                                                                
  23375122.523                   122837073.951 7     -1972.459          49.300  
                  23375124.844    95717200.348 9     -1536.979          43.300  
                                                                
  21876631.359                   114962467.563 8     -1564.256          52.300  
                  21876632.898    89581149.434 9     -1218.897          47.500  
                                                                
  23468654.188                   123328604.569 7      1851.777          49.300  
                  23468652.867    96100209.456 9      1442.943          41.800  
                                                                
  20075397.172                   105496936.184 7        74.440          50.500  
                  20075395.750    82205395.223 9        58.001          49.300  
                                                                
  21950648.992                   115351443.283 7      2247.629          51.300  
                  21950648.453    89884245.352 9      1751.399          44.800  
                                                                
  23531884.523                   123660868.485 7     -2272.779          47.500  
                  23531883.902    96359118.401 8     -1770.991          40.500  
                                                                
  23860958.141                   125390185.328 7      2747.632          47.800  
                  23860955.461    97706630.034 8      2141.014          40.000  
                                                                
  23843099.039                   125296310.318 7     -2956.307          47.500  
                  23843102.199    97633483.435 9     -2303.614          41.300  
                                                                
  22040404.852                   115823119.954 8      2676.319          52.800  
                  22040404.250    90251796.937 9      2085.443          45.500  
                                                                
  20914893.523                   109908510.997 8     -1647.574          54.300  
                  20914894.684    85642992.243 9     -1283.826          49.300  
                                                                
  21528774.242                   115083635.553 7     -1856.429          47.800  
                  21528775.203    89509506.856 7     -1443.894          30.500  
                                                                
  20409387.102                   108908409.601 6       428.101          42.500  
                                                                                
                                                                
  23055888.828                   123420061.167 7      2156.691          48.500  
                  23055888.809    95993324.446 9      1677.422          41.500  
                                                                
  22225951.633                   118768768.587 7      -345.411          48.000  
                  22225956.211    92375727.263 8      -268.655          37.500  
                                                                
  22004745.234                   117545418.226 7      3218.474          46.000  
                  22004747.836    91424234.424 8      2503.255          40.000  
                                                                
  21735203.578                   116227881.903 7     -4037.156          45.800  
                  21735207.117    90399455.347 9     -3140.012          45.800  
                                                                
  20226524.086                   108236214.100 8      -634.497          53.000  
                  20226525.066    84183733.763 9      -493.498          48.800  
                                                                
  22918751.531                   122341852.774 7      3211.456          45.500  
                  22918753.992    95154786.649 9      2497.802          41.500  
                                                                
 18 07 01  0  3 30.0000000  0 19G01G08G10G11G14G18G20G22G27G31G32R05 0.000000000
                                R06R07R15R16R20R21R22       
  23698714.461                   124537590.709 7      3300.194          47.500  
                  23698716.922    97042290.460 9      2571.575          41.800  
                                                                
  23377000.305                   122846941.773 7     -1974.419          49.300  
                  23377002.605    95724889.570 9     -1538.509          43.500  
                                                                
  21878120.195                   114970291.838 7     -1565.373          51.800  
                  21878121.816    89587246.265 9     -1219.769          47.800  
                                                                
  23466893.523                   123319352.151 7      1849.510          49.300  
                  23466892.242    96092999.787 9      1441.176          42.000  
                                                                
  20075327.852                   105496571.782 7        71.731          50.300  
                  20075326.430    82205111.271 9        55.899          49.800  
                                                                
  21948511.594                   115340211.247 7      2245.521          51.500  
                  21948511.074    89875493.118 9      1749.759          46.000  
                                                                
  23534047.461                   123672234.912 6     -2273.720          47.000  
                  23534046.859    96367975.344 8     -1771.730          40.800  
                                                                
  23858343.883                   125376447.357 7      2747.461          47.800  
                  23858341.164    97695925.135 8      2140.879          40.800  
                                                                
  23845912.039                   125311092.496 7     -2956.625          47.500  
                  23845915.199    97645002.013 8     -2303.865          40.800  
                                                                
  22037859.352                   115809743.619 8      2674.450          52.800  
                  22037858.832    90241373.825 9      2083.987          45.500  
                                                                
  20916462.023                   109916753.678 8     -1649.290          54.300  
                  20916463.223    85649415.109 9     -1285.159          49.300  
                                                                
  21530510.797                   115092918.434 7     -1856.796          47.000  
                  21530511.676    89516726.879 7     -1444.178          31.000  
                                                                
  20408986.445                   108906271.821 6       427.074          42.800  
                                                                                
                                                                
  23053874.711                   123409279.639 7      2155.971          48.000  
                  23053874.770    95984938.820 9      1676.864          41.800  
                                                                
  22226277.211                   118770508.209 7      -349.718          47.800  
                  22226281.633    92377080.304 8      -272.001          37.500  
                                                                
  22001733.797                   117529331.639 7      3216.422          46.800  
                  22001736.438    91411722.636 8      2501.660          40.500  
                                                                
  21738979.453                   116248073.019 7     -4039.003          45.500  
                  21738982.973    90415159.535 9     -3141.445          45.300  
                                                                
  20227119.508                   108239400.190 8      -639.134          53.000  
                  20227120.469    84186211.829 9      -497.106          49.000  
                                                                
  22915745.047                   122325804.391 6      3208.374          44.800  
                  22915747.605    95142304.566 9      2495.406          41.500  
                                                                
 18 07 01  0  3 35.0000000  0 19G01G08G10G11G14G18G20G22G27G31G32R05 0.000000000
                                R06R07R15R16R20R21R22       
  23695574.859                   124521092.094 7      3299.271          47.300  
                  23695577.320    97029434.397 9      2570.861          42.500  
                                                                
  23378879.766                   122856818.515 7     -1976.111          49.800  
                  23378882.086    95732585.725 9     -1539.829          43.500  
                                                                
  21879609.914                   114978120.958 7     -1566.255          52.000  
                  21879611.676    89593346.862 9     -1220.457          48.000  
                                                                
  23465134.867                   123310110.244 7      1847.494          49.500  
                  23465133.629    96085798.302 9      1439.604          41.800  
                                                                
  20075260.945                   105496220.165 7        69.251          50.300  
                  20075259.523    82204837.279 9        53.964          49.300  
                                                                
  21946376.031                   115328989.079 7      2243.587          51.000  
                  21946375.551    89866748.582 9      1748.246          45.500  
                                                                
  23536211.125                   123683605.282 6     -2274.442          47.000  
                  23536210.586    96376835.377 9     -1772.293          41.300  
                                                                
  23855729.680                   125362709.512 7      2747.509          47.800  
                  23855726.820    97685220.300 8      2140.916          40.300  
                                                                
  23848725.203                   125325875.584 7     -2956.740          47.500  
                  23848728.305    97656521.290 9     -2303.949          42.000  
                                                                
  22035315.516                   115796375.949 8      2672.785          52.800  
                  22035315.074    90230957.469 9      2082.687          45.800  
                                                                
  20918032.023                   109925004.223 8     -1650.791          54.500  
                  20918033.242    85655844.107 9     -1286.332          49.500  
                                                                
  21532247.617                   115102202.591 7     -1856.983          47.000  
                  21532248.418    89523947.869 7     -1444.318          31.300  
                                                                
  20408586.641                   108904138.417 6       426.287          43.500  
                                                                                
                                                                
  23051861.109                   123398500.886 7      2155.452          48.300  
                  23051861.211    95976555.354 9      1676.462          41.800  
                                                                
  22226606.672                   118772268.687 7      -353.814          47.500  
                  22226611.031    92378449.561 8      -275.191          37.300  
                                                                
  21998724.133                   117513254.380 7      3214.665          46.300  
                  21998726.813    91399218.106 8      2500.291          40.500  
                                                                
  21742756.938                   116268272.656 7     -4040.664          46.000  
                  21742760.418    90430870.362 9     -3142.739          45.800  
                                                                
  20227719.109                   108242608.696 8      -643.546          52.300  
                  20227720.051    84188707.331 9      -500.538          48.800  
                                                                
  22912741.109                   122309770.236 6      3205.654          42.800  
                  22912743.910    95129833.563 9      2493.278          41.800  
                                                                
 18 07 01  0  3 40.0000000  0 19G01G08G10G11G14G18G20G22G27G31G32R05 0.000000000
                                R06R07R15R16R20R21R22       
  23692436.164                   124504598.078 7      3298.370          47.800  
                  23692438.625    97016581.914 9      2570.159          43.500  
                                                                
  23380760.906                   122866703.912 7     -1977.838          50.000  
                  23380763.207    95740288.640 9     -1541.176          43.300  
                                                                
  21881100.539                   114985954.642 7     -1567.183          51.800  
                  21881102.398    89599451.037 9     -1221.184          48.300  
                                                                
  23463378.203                   123300878.629 7      1845.427          50.800  
                  23463376.965    96078604.842 9      1437.997          42.800  
                                                                
  20075196.445                   105495881.057 7        66.749          50.500  
                  20075195.004    82204573.038 9        52.013          49.500  
                                                                
  21944242.297                   115317776.557 7      2241.664          51.000  
                  21944241.875    89858011.556 9      1746.749          45.000  
                                                                
  23538375.547                   123694979.367 6     -2275.183          47.000  
                  23538375.008    96385698.284 8     -1772.866          40.300  
                                                                
  23853115.398                   125348971.483 7      2747.540          47.500  
                  23853112.500    97674515.335 8      2140.944          40.500  
                                                                
  23851538.445                   125340659.244 7     -2956.854          47.300  
                  23851541.566    97668041.019 9     -2304.040          42.300  
                                                                
  22032773.313                   115783016.689 8      2671.106          53.000  
                  22032772.891    90220547.665 9      2081.379          45.800  
                                                                
  20919603.461                   109933262.333 8     -1652.296          54.500  
                  20919604.742    85662279.002 9     -1287.505          49.500  
                                                                
  21533984.602                   115111487.582 7     -1857.130          47.000  
                  21533985.281    89531169.522 7     -1444.434          30.500  
                                                                
  20408187.563                   108902009.007 6       425.495          43.800  
                                                                                
                                                                
  23049848.047                   123387724.754 7      2154.951          47.800  
                  23049848.148    95968173.914 9      1676.075          41.500  
                                                                
  22226939.969                   118774049.821 7      -357.940          47.000  
                  22226944.250    92379834.873 8      -278.397          37.300  
                                                                
  21995716.094                   117497186.168 7      3212.830          46.500  
                  21995718.855    91386720.630 8      2498.864          40.500  
                                                                
  21746535.938                   116288480.579 7     -4042.295          46.000  
                  21746539.418    90446587.640 9     -3144.005          45.500  
                                                                
  20228322.852                   108245839.481 8      -648.028          52.500  
                  20228323.832    84191220.166 9      -504.024          48.800  
                                                                
  22909739.867                   122293750.131 6      3202.825          43.300  
                  22909742.867    95117373.509 9      2491.084          41.500  
                                                                
 18 07 01  0  3 45.0000000  0 19G01G08G10G11G14G18G20G22G27G31G32R05 0.000000000
                                R06R07R15R16R20R21R22       
  23689298.344                   124488108.693 7      3297.603          48.300  
                  23689300.824    97003733.045 9      2569.565          43.000  
                                                                
  23382643.664                   122876597.759 7     -1979.359          50.000  
                  23382645.902    95747998.116 9     -1542.354          43.000  
                                                                
  21882592.016                   114993792.766 8     -1567.895          52.500  
                  21882593.957    89605558.656 9     -1221.732          48.000  
                                                                
  23461623.484                   123291657.190 7      1843.551          50.300  
                  23461622.246    96071419.315 9      1436.531          41.800  
                                                                
  20075134.289                   105495554.378 7        64.424          50.500  
                  20075132.848    82204318.484 9        50.203          49.800  
                                                                
  21942110.375                   115306573.662 7      2239.919          51.300  
                  21942109.996    89849282.023 9      1745.394          45.300  
                                                                
  23540540.641                   123706357.039 6     -2275.732          46.800  
                  23540540.102    96394564.007 9     -1773.304          41.500  
                                                                
  23850501.102                   125335233.223 7      2747.777          48.000  
                  23850498.141    97663810.197 8      2141.125          39.000  
                                                                
  23854351.844                   125355443.348 7     -2956.756          47.800  
                  23854354.863    97679561.080 9     -2303.962          42.000  
                                                                
  22030232.672                   115769665.780 8      2669.600          53.000  
                  22030232.313    90210144.367 9      2080.206          46.000  
                                                                
  20921176.320                   109941527.918 8     -1653.613          54.500  
                  20921177.660    85668719.719 9     -1288.531          49.500  
                                                                
  21535721.742                   115120773.395 7     -1857.151          47.000  
                  21535722.344    89538391.835 7     -1444.453          31.300  
                                                                
  20407789.242                   108899883.514 6       424.884          43.500  
                                                                                
                                                                
  23047835.445                   123376950.954 7      2154.651          47.800  
                  23047835.504    95959794.297 9      1675.836          41.800  
                                                                
  22227277.055                   118775851.272 7      -361.830          47.300  
                  22227281.355    92381235.993 8      -281.423          37.500  
                                                                
  21992709.797                   117481127.000 7      3211.195          46.800  
                  21992712.578    91374230.176 8      2497.596          40.500  
                                                                
  21750316.438                   116308696.558 7     -4043.752          46.300  
                  21750319.918    90462311.173 9     -3145.140          45.500  
                                                                
  20228930.750                   108249092.373 8      -652.237          52.500  
                  20228931.730    84193750.187 9      -507.293          49.000  
                                                                
  22906741.305                   122277743.951 6      3200.196          43.800  
                  22906744.406    95104924.274 9      2489.041          41.500  
                                                                
 18 07 01  0  3 50.0000000  0 19G01G08G10G11G14G18G20G22G27G31G32R05 0.000000000
                                R06R07R15R16R20R21R22       
  23686161.500                   124471624.556 7      3296.402          47.800  
                  23686164.000    96990888.273 9      2568.627          42.500  
                                                                
  23384528.164                   122886500.802 7     -1981.351          50.800  
                  23384530.363    95755714.772 9     -1543.908          42.800  
                                                                
  21884084.492                   115001636.062 8     -1569.083          52.800  
                  21884086.492    89611670.313 9     -1222.662          47.500  
                                                                
  23459870.867                   123282446.657 7      1841.228          51.300  
                  23459869.586    96064242.271 9      1434.725          41.800  
                                                                
  20075074.648                   105495240.828 7        61.660          51.000  
                  20075073.188    82204074.160 9        48.049          49.000  
                                                                
  21939980.453                   115295381.025 7      2237.689          51.000  
                  21939980.074    89840560.494 9      1743.647          44.800  
                                                                
  23542706.547                   123717739.007 7     -2276.750          47.500  
                  23542706.008    96403433.075 8     -1774.084          40.800  
                                                                
  23847886.859                   125321495.422 7      2747.509          48.300  
                  23847883.898    97653105.417 8      2140.920          39.500  
                                                                
  23857165.461                   125370228.653 6     -2957.182          47.000  
                  23857168.402    97691082.093 9     -2304.293          42.300  
                                                                
  22027693.797                   115756323.915 8      2667.637          53.000  
                  22027693.438    90199748.119 9      2078.674          45.800  
                                                                
  20922750.742                   109949801.690 8     -1655.412          54.500  
                  20922752.102    85675166.817 9     -1289.928          49.300  
                                                                
  21537459.156                   115130060.767 7     -1857.611          47.500  
                  21537459.758    89545615.329 7     -1444.808          31.800  
                                                                
  20407391.820                   108897762.858 6       423.760          43.500  
                                                                                
                                                                
  23045823.445                   123366180.499 7      2153.819          48.000  
                  23045823.547    95951417.289 9      1675.191          42.000  
                                                                
  22227618.148                   118777673.954 7      -366.249          47.800  
                  22227622.430    92382653.639 8      -284.862          38.000  
                                                                
  21989705.297                   117465077.518 7      3209.104          46.500  
                  21989708.137    91361747.251 8      2495.968          40.800  
                                                                
  21754098.594                   116328921.374 7     -4045.669          46.500  
                  21754102.035    90478041.579 9     -3146.634          45.500  
                                                                
  20229542.891                   108252368.116 8      -656.980          52.500  
                  20229543.891    84196297.994 9      -510.985          48.800  
                                                                
  22903745.469                   122261752.468 6      3197.092          44.300  
                  22903748.750    95092486.452 9      2486.627          42.300  
                                                                
 18 07 01  0  3 55.0000000  0 19G01G08G10G11G14G18G20G22G27G31G32R05 0.000000000
                                R06R07R15R16R20R21R22       
  23683025.727                   124455145.837 7      3295.191          48.500  
                  23683028.246    96978047.711 9      2567.679          43.500  
                                                                
  23386414.406                   122896413.042 7     -1983.327          50.500  
                  23386416.586    95763438.587 9     -1545.443          43.000  
                                                                
  21885578.016                   115009484.657 8     -1570.257          52.800  
                  21885580.035    89617786.100 9     -1223.575          47.300  
                                                                
  23458120.344                   123273247.148 7      1838.908          51.500  
                  23458118.984    96057073.810 9      1432.919          41.800  
                                                                
  20075017.547                   105494940.514 7        58.888          50.800  
                  20075016.066    82203840.151 9        45.887          49.300  
                                                                
  21937852.555                   115284198.822 7      2235.474          51.500  
                  21937852.113    89831847.085 9      1741.927          44.500  
                                                                
  23544873.305                   123729125.405 7     -2277.764          48.000  
                  23544872.785    96412305.580 8     -1774.879          40.000  
                                                                
  23845272.742                   125307758.210 7      2747.272          48.300  
                  23845269.820    97642401.111 8      2140.728          39.800  
                                                                
  23859979.320                   125385015.180 7     -2957.523          47.800  
                  23859982.141    97702604.062 9     -2304.566          41.500  
                                                                
  22025156.617                   115742991.247 8      2665.685          52.500  
                  22025156.336    90189359.035 9      2077.155          46.000  
                                                                
  20924326.766                   109958083.741 8     -1657.207          54.500  
                  20924328.145    85681620.363 9     -1291.330          49.500  
                                                                
  21539196.898                   115139349.818 7     -1858.073          47.300  
                  21539197.477    89552840.142 7     -1445.168          31.300  
                                                                
  20406995.266                   108895646.853 6       422.706          43.000  
                                                                                
                                                                
  23043812.070                   123355413.290 7      2153.062          47.500  
                  23043812.211    95943042.800 9      1674.604          41.800  
                                                                
  22227963.273                   118779517.935 7      -370.617          48.000  
                  22227967.512    92384087.846 8      -288.260          38.000  
                                                                
  21986702.617                   117449037.893 7      3207.002          46.500  
                  21986705.539    91349271.999 8      2494.333          40.500  
                                                                
  21757882.438                   116349155.162 7     -4047.594          47.000  
                  21757885.879    90493778.968 9     -3148.129          45.500  
                                                                
  20230159.328                   108255666.806 8      -661.703          52.300  
                  20230160.328    84198863.633 9      -514.656          48.500  
                                                                
  22900752.484                   122245775.815 6      3194.017          44.800  
                  22900755.926    95080060.179 9      2484.233          42.300  
                                                                
 18 07 01  0  4  0.0000000  0 19G01G08G10G11G14G18G20G22G27G31G32R05 0.000000000
                                R06R07R15R16R20R21R22       
  23679890.867                   124438672.060 7      3294.647          48.300  
                  23679893.426    96965211.002 9      2567.262          43.000  
                                                                
  23388302.320                   122906334.058 7     -1984.632          50.500  
                  23388304.480    95771169.240 9     -1546.467          42.300  
                                                                
  21887072.438                   115017338.068 8     -1570.809          52.800  
                  21887074.516    89623905.631 9     -1224.003          47.300  
                                                                
  23456371.781                   123264058.169 7      1837.221          50.800  
                  23456370.402    96049913.575 9      1431.603          41.500  
                                                                
  20074962.852                   105494652.932 7        56.749          50.800  
                  20074961.352    82203616.057 9        44.222          49.300  
                                                                
  21935726.516                   115273026.551 7      2233.929          51.500  
                  21935726.055    89823141.417 9      1740.724          44.500  
                                                                
  23547040.805                   123740515.713 7     -2278.103          47.500  
                  23547040.305    96421181.141 8     -1775.143          39.800  
                                                                
  23842658.625                   125294021.072 7      2747.698          48.000  
                  23842655.766    97631696.843 8      2141.063          40.000  
                                                                
  23862793.344                   125399802.490 7     -2957.266          47.500  
                  23862796.063    97714126.643 9     -2304.359          41.800  
                                                                
  22022621.117                   115729667.257 8      2664.366          52.800  
                  22022620.898    90178976.713 9      2076.127          46.000  
                                                                
  20925904.242                   109966373.560 8     -1658.332          54.300  
                  20925905.664    85688079.958 9     -1292.204          49.300  
                                                                
  21540934.844                   115148639.953 7     -1857.846          47.500  
                  21540935.465    89560065.797 7     -1444.985          31.800  
                                                                
  20406599.422                   108893534.948 6       422.290          43.000  
                                                                                
                                                                
  23041801.188                   123344648.857 7      2152.928          47.300  
                  23041801.387    95934670.467 9      1674.499          41.800  
                                                                
  22228312.273                   118781382.693 7      -374.342          48.800  
                  22228316.512    92385538.220 8      -291.155          38.300  
                                                                
  21983701.719                   117433007.707 7      3205.586          46.500  
                  21983704.699    91336804.085 8      2493.236          40.300  
                                                                
  21761667.875                   116369397.234 7     -4048.805          47.800  
                  21761671.254    90509522.797 9     -3149.067          45.500  
                                                                
  20230779.984                   108258987.898 8      -665.756          52.500  
                  20230780.926    84201446.700 9      -517.813          48.500  
                                                                
  22897762.211                   122229813.516 6      3191.559          44.500  
                  22897765.750    95067645.072 9      2482.315          42.000  
                                                                
 18 07 01  0  4  5.0000000  0 19G01G08G10G11G14G18G20G22G27G31G32R05 0.000000000
                                R06R07R15R16R20R21R22       
  23676756.820                   124422202.603 7      3293.270          48.500  
                  23676759.461    96952377.669 9      2566.181          43.300  
                                                                
  23390191.766                   122916263.171 7     -1986.763          49.800  
                  23390193.906    95778906.216 9     -1548.129          42.800  
                                                                
  21888567.695                   115025195.668 8     -1572.162          53.000  
                  21888569.797    89630028.436 9     -1225.059          47.500  
                                                                
  23454625.125                   123254879.125 7      1834.730          50.800  
                  23454623.703    96042761.083 9      1429.656          41.300  
                                                                
  20074910.445                   105494377.442 7        53.843          50.800  
                  20074908.906    82203401.389 9        41.956          48.800  
                                                                
  21933602.258                   115261863.613 8      2231.551          52.300  
                  21933601.758    89814443.020 9      1738.871          44.300  
                                                                
  23549208.961                   123751909.371 7     -2279.293          47.800  
                  23549208.461    96430059.303 8     -1776.074          40.000  
                                                                
  23840044.422                   125280283.424 7      2747.291          48.300  
                  23840041.602    97620992.205 8      2140.752          40.300  
                                                                
  23865607.383                   125414589.944 7     -2957.789          48.300  
                  23865610.004    97725649.318 9     -2304.772          41.500  
                                                                
  22020087.156                   115716351.399 8      2662.238          53.000  
                  22020086.996    90168600.728 9      2074.471          46.000  
                                                                
  20927483.078                   109974670.557 8     -1660.260          54.500  
                  20927484.539    85694545.152 9     -1293.713          49.300  
                                                                
  21542672.859                   115157930.690 7     -1858.482          47.000  
                  21542673.500    89567291.936 7     -1445.482          31.800  
                                                                
  20406204.383                   108891426.982 6       421.009          43.000  
                                                                                
                                                                
  23039790.727                   123333886.558 7      2151.986          47.500  
                  23039790.945    95926299.790 9      1673.765          42.300  
                                                                
  22228665.094                   118783267.717 8      -378.916          49.300  
                  22228669.355    92387004.358 8      -294.713          38.500  
                                                                
  21980702.453                   117416986.382 7      3203.265          46.500  
                  21980705.492    91324343.067 8      2491.429          40.500  
                                                                
  21765454.719                   116389647.076 7     -4050.880          47.000  
                  21765458.098    90525272.664 9     -3150.682          45.500  
                                                                
  20231404.711                   108262330.850 8      -670.642          52.000  
                  20231405.633    84204046.770 9      -521.608          48.500  
                                                                
  22894774.547                   122213865.008 7      3188.313          45.500  
                  22894778.188    95055240.693 9      2479.799          42.500  
                                                                
 18 07 01  0  4 10.0000000  0 19G01G08G10G11G14G18G20G22G27G31G32R05 0.000000000
                                R06R07R15R16R20R21R22       
  23673623.820                   124405738.656 7      3292.477          47.800  
                  23673626.520    96939548.627 9      2565.566          43.000  
                                                                
  23392082.961                   122926201.563 7     -1988.314          49.800  
                  23392085.082    95786650.407 9     -1549.335          43.300  
                                                                
  21890063.953                   115033058.604 8     -1572.903          52.800  
                  21890066.074    89636155.393 9     -1225.635          47.500  
                                                                
  23452880.547                   123245711.151 7      1832.833          50.000  
                  23452879.066    96035617.207 9      1428.182          41.500  
                                                                
  20074860.570                   105494115.218 7        51.505          50.500  
                  20074859.012    82203197.057 9        40.133          49.300  
                                                                
  21931480.016                   115250711.122 7      2229.756          51.800  
                  21931479.477    89805752.763 9      1737.474          43.800  
                                                                
  23551377.961                   123763307.456 7     -2279.858          47.500  
                  23551377.480    96438940.930 8     -1776.506          40.000  
                                                                
  23837430.344                   125266546.396 7      2747.480          47.500  
                  23837427.563    97610288.004 8      2140.904          40.500  
                                                                
  23868421.680                   125429378.665 7     -2957.734          48.500  
                  23868424.160    97737172.988 8     -2304.719          40.800  
                                                                
  22017554.977                   115703044.790 8      2660.688          53.000  
                  22017554.855    90158231.940 9      2073.263          46.000  
                                                                
  20929063.500                   109982975.838 8     -1661.595          54.000  
                  20929065.000    85701016.794 9     -1294.747          49.500  
                                                                
  21544411.203                   115167223.077 7     -1858.482          46.800  
                  21544411.844    89574519.348 7     -1445.484          32.000  
                                                                
  20405810.227                   108889323.661 6       420.398          42.800  
                                                                                
                                                                
  23037780.906                   123323127.756 7      2151.675          47.300  
                  23037781.207    95917931.839 9      1673.525          42.000  
                                                                
  22229021.852                   118785173.883 7      -382.788          48.500  
                  22229026.172    92388486.931 8      -297.724          38.500  
                                                                
  21977705.078                   117400975.007 7      3201.580          46.000  
                  21977708.098    91311889.779 8      2490.118          40.300  
                                                                
  21769243.258                   116409905.950 7     -4052.377          46.800  
                  21769246.617    90541029.564 9     -3151.849          45.500  
                                                                
  20232033.711                   108265696.708 8      -674.886          52.500  
                  20232034.609    84206664.651 9      -524.909          48.800  
                                                                
  22891789.609                   122197931.286 6      3185.652          44.800  
                  22891793.371    95042847.803 9      2477.725          41.800  
                                                                
 18 07 01  0  4 15.0000000  0 19G01G08G10G11G14G18G20G22G27G31G32R05 0.000000000
                                R06R07R15R16R20R21R22       
  23670491.688                   124389279.207 7      3291.583          47.300  
                  23670494.426    96926723.087 9      2564.870          43.000  
                                                                
  23393975.727                   122936148.215 7     -1989.935          49.500  
                  23393977.887    95794401.055 9     -1550.599          43.000  
                                                                
  21891561.094                   115040925.870 8     -1573.762          53.000  
                  21891563.172    89642285.722 9     -1226.310          47.800  
                                                                
  23451137.867                   123236553.277 7      1830.810          50.500  
                  23451136.387    96028481.207 9      1426.605          41.500  
                                                                
  20074813.008                   105493865.210 7        49.066          50.800  
                  20074811.430    82203002.247 9        38.233          49.000  
                                                                
  21929359.555                   115239568.113 7      2227.904          52.000  
                  21929358.996    89797069.897 9      1736.027          44.500  
                                                                
  23553547.602                   123774709.002 7     -2280.538          47.800  
                  23553547.102    96447825.245 8     -1777.045          39.800  
                                                                
  23834816.203                   125252808.990 7      2747.545          48.300  
                  23834813.422    97599583.542 8      2140.940          40.800  
                                                                
  23871236.039                   125444167.591 7     -2957.755          48.800  
                  23871238.379    97748696.829 8     -2304.748          41.000  
                                                                
  22015024.375                   115689746.418 8      2659.056          52.500  
                  22015024.254    90147869.578 9      2071.988          46.500  
                                                                
  20930645.281                   109991288.384 8     -1663.043          54.500  
                  20930646.840    85707494.105 9     -1295.881          49.500  
                                                                
  21546149.680                   115176516.144 7     -1858.624          47.500  
                  21546150.379    89581747.275 7     -1445.594          31.500  
                                                                
  20405416.727                   108887224.072 6       419.638          42.800  
                                                                                
                                                                
  23035771.430                   123312371.147 7      2151.153          46.800  
                  23035771.852    95909565.610 9      1673.115          42.300  
                                                                
  22229382.375                   118787100.149 7      -386.820          47.800  
                  22229386.715    92389985.128 8      -300.858          38.500  
                                                                
  21974709.359                   117384972.676 7      3199.801          45.800  
                  21974712.398    91299443.530 8      2488.728          40.500  
                                                                
  21773033.297                   116430172.588 7     -4053.917          46.800  
                  21773036.598    90556792.498 9     -3153.045          45.800  
                                                                
  20232666.789                   108269084.501 8      -679.257          52.300  
                  20232667.711    84209299.603 9      -528.311          48.800  
                                                                
  22888807.352                   122182011.585 7      3182.858          45.800  
                  22888811.090    95030465.821 9      2475.554          42.300  
                                                                
 18 07 01  0  4 20.0000000  0 19G01G08G10G11G14G18G20G22G27G31G32R05 0.000000000
                                R06R07R15R16R20R21R22       
  23667360.641                   124372825.586 7      3290.236          47.800  
                  23667363.359    96913902.095 9      2563.820          42.800  
                                                                
  23395870.305                   122946104.455 7     -1992.031          50.000  
                  23395872.484    95802159.160 9     -1552.232          43.000  
                                                                
  21893059.297                   115048798.815 8     -1575.068          53.300  
                  21893061.375    89648420.480 9     -1227.322          47.800  
                                                                
  23449397.367                   123227406.801 7      1828.358          50.300  
                  23449395.828    96021354.075 9      1424.697          41.300  
                                                                
  20074768.031                   105493628.754 7        46.179          50.800  
                  20074766.430    82202817.998 9        35.985          49.300  
                                                                
  21927241.172                   115228435.986 7      2225.518          51.800  
                  21927240.633    89788395.512 9      1734.170          44.300  
                                                                
  23555718.188                   123786115.348 7     -2281.681          48.300  
                  23555717.707    96456713.305 8     -1777.927          39.800  
                                                                
  23832202.242                   125239072.577 7      2747.175          47.500  
                  23832199.523    97588879.846 9      2140.652          41.500  
                                                                
  23874050.664                   125458958.119 7     -2958.272          48.800  
                  23874052.945    97760221.895 8     -2305.139          41.000  
                                                                
  22012495.617                   115676457.692 8      2656.941          53.300  
                  22012495.516    90137514.747 9      2070.343          46.000  
                                                                
  20932228.742                   109999609.562 8     -1664.948          54.500  
                  20932230.320    85713978.140 9     -1297.362          49.500  
                                                                
  21547888.563                   115185811.267 7     -1859.214          47.300  
                  21547889.242    89588976.821 7     -1446.060          31.300  
                                                                
  20405024.227                   108885129.753 6       418.427          43.300  
                                                                                
                                                                
  23033762.625                   123301618.252 7      2150.214          46.000  
                  23033763.145    95901202.232 9      1672.388          42.500  
                                                                
  22229746.953                   118789048.116 7      -391.378          47.800  
                  22229751.273    92391500.214 8      -304.403          38.300  
                                                                
  21971715.594                   117368980.777 7      3197.518          45.800  
                  21971718.652    91287005.393 8      2486.960          40.300  
                                                                
  21776824.977                   116450448.375 7     -4055.912          46.800  
                  21776828.297    90572562.551 9     -3154.598          45.500  
                                                                
  20233304.188                   108272495.606 8      -684.130          53.000  
                  20233305.168    84211952.685 9      -532.103          49.000  
                                                                
  22885827.930                   122166107.167 7      3179.639          45.300  
                  22885831.648    95018095.700 9      2473.050          42.000  
                                                                
 18 07 01  0  4 25.0000000  0 19G01G08G10G11G14G18G20G22G27G31G32R05 0.000000000
                                R06R07R15R16R20R21R22       
  23664230.664                   124356377.501 7      3289.195          47.500  
                  23664233.363    96901085.404 9      2563.011          42.800  
                                                                
  23397766.641                   122956069.849 7     -1993.787          49.500  
                  23397768.840    95809924.402 9     -1553.600          43.300  
                                                                
  21894558.531                   115056677.088 8     -1576.059          53.300  
                  21894560.551    89654559.379 9     -1228.096          47.500  
                                                                
  23447658.961                   123218271.442 7      1826.219          50.000  
                  23447657.422    96014235.620 8      1423.024          41.000  
                                                                
  20074725.570                   105493405.576 7        43.622          50.500  
                  20074723.969    82202644.091 9        33.989          49.300  
                                                                
  21925124.773                   115217314.386 7      2223.532          51.300  
                  21925124.273    89779729.326 9      1732.624          45.000  
                                                                
  23557889.586                   123797526.137 7     -2282.501          48.300  
                  23557889.105    96465604.821 8     -1778.570          40.800  
                                                                
  23829588.422                   125225336.807 7      2747.128          47.500  
                  23829585.703    97578176.647 9      2140.617          41.300  
                                                                
  23876865.539                   125473749.846 7     -2958.409          48.800  
                  23876867.719    97771747.910 8     -2305.256          40.500  
                                                                
  22009968.633                   115663178.257 8      2655.170          53.000  
                  22009968.512    90127167.138 9      2068.961          46.000  
                                                                
  20933813.742                   110007939.001 8     -1666.529          54.500  
                  20933815.383    85720468.612 9     -1298.596          49.000  
                                                                
  21549627.719                   115195107.962 7     -1859.436          47.300  
                  21549628.418    89596207.584 7     -1446.222          31.500  
                                                                
  20404632.602                   108883040.127 6       417.573          43.300  
                                                                                
                                                                
  23031754.469                   123290868.637 7      2149.681          47.000  
                  23031755.027    95892841.411 9      1671.978          42.300  
                                                                
  22230115.492                   118791017.429 7      -395.548          48.300  
                  22230119.832    92393031.899 8      -307.651          38.500  
                                                                
  21968723.695                   117352998.905 7      3195.573          46.000  
                  21968726.754    91274575.062 8      2485.439          40.300  
                                                                
  21780618.359                   116470733.133 7     -4057.615          46.800  
                  21780621.660    90588339.576 9     -3155.919          45.300  
                                                                
  20233945.930                   108275929.633 8      -688.595          53.000  
                  20233946.930    84214623.590 9      -535.574          49.000  
                                                                
  22882851.289                   122150217.644 6      3176.735          44.800  
                  22882854.988    95005737.205 9      2470.790          42.300  
                                                                
 18 07 01  0  4 30.0000000  0 19G01G08G10G11G14G18G20G22G27G31G32R05 0.000000000
                                R06R07R15R16R20R21R22       
  23661101.625                   124339934.316 7      3288.220          47.300  
                  23661104.285    96888272.539 9      2562.245          43.300  
                                                                
  23399664.602                   122966043.796 7     -1995.518          49.300  
                  23399666.840    95817696.313 9     -1554.949          43.000  
                                                                
  21896058.656                   115064560.074 8     -1577.020          53.000  
                  21896060.656    89660701.979 9     -1228.847          47.500  
                                                                
  23445922.586                   123209146.585 7      1824.094          50.800  
                  23445920.926    96007125.325 8      1421.378          41.000  
                                                                
  20074685.508                   105493194.964 7        41.081          50.800  
                  20074683.887    82202479.980 9        32.013          49.800  
                                                                
  21923010.297                   115206202.687 7      2221.509          52.000  
                  21923009.816    89771070.864 9      1731.046          45.000  
                                                                
  23560061.766                   123808940.781 7     -2283.266          48.000  
                  23560061.285    96474499.347 8     -1779.168          40.000  
                                                                
  23826974.602                   125211601.051 7      2747.130          48.300  
                  23826971.922    97567473.464 8      2140.619          40.500  
                                                                
  23879680.484                   125488542.154 7     -2958.540          48.800  
                  23879682.563    97783274.373 8     -2305.358          41.000  
                                                                
  22007443.297                   115649907.487 8      2653.415          53.000  
                  22007443.195    90116826.288 9      2067.594          45.800  
                                                                
  20935400.219                   110016276.047 8     -1668.061          54.300  
                  20935401.879    85726965.017 9     -1299.790          49.500  
                                                                
  21551367.078                   115204405.728 7     -1859.677          47.300  
                  21551367.758    89603439.169 7     -1446.415          31.500  
                                                                
  20404241.781                   108880954.759 6       416.674          42.000  
                                                                                
                                                                
  23029746.805                   123280121.636 7      2149.175          46.800  
                  23029747.426    95884482.650 9      1671.579          42.500  
                                                                
  22230487.953                   118793007.507 7      -399.714          48.300  
                  22230492.254    92394579.732 8      -310.886          38.500  
                                                                
  21965733.555                   117337026.421 7      3193.704          45.800  
                  21965736.656    91262152.044 8      2483.988          40.500  
                                                                
  21784413.234                   116491025.917 7     -4059.235          46.300  
                  21784416.516    90604122.853 9     -3157.185          45.800  
                                                                
  20234591.789                   108279385.915 8      -693.098          51.800  
                  20234592.848    84217311.808 9      -539.081          49.000  
                                                                
  22879877.352                   122134342.487 7      3173.847          46.000  
                  22879880.953    94993389.870 9      2468.550          41.500  
                                                                
 18 07 01  0  4 35.0000000  0 19G01G08G10G11G14G18G20G22G27G31G32R05 0.000000000
                                R06R07R15R16R20R21R22       
  23657973.547                   124323496.158 7      3287.322          47.300  
                  23657976.207    96875463.599 9      2561.545          42.300  
                                                                
  23401564.227                   122976026.412 7     -1997.150          50.000  
                  23401566.508    95825474.974 9     -1556.219          42.000  
                                                                
  21897559.695                   115072447.856 8     -1577.861          53.800  
                  21897561.656    89666848.290 9     -1229.500          47.000  
                                                                
  23444188.227                   123200032.241 7      1822.105          50.000  
                  23444186.488    96000023.254 8      1419.818          41.000  
                                                                
  20074647.867                   105492997.060 7        38.640          50.500  
                  20074646.266    82202325.763 9        30.111          49.300  
                                                                
  21920897.695                   115195100.954 7      2219.611          51.800  
                  21920897.254    89762420.177 9      1729.565          44.300  
                                                                
  23562234.641                   123820359.348 7     -2283.959          48.300  
                  23562234.141    96483396.925 8     -1779.704          39.500  
                                                                
  23824360.805                   125197865.416 7      2747.193          48.300  
                  23824358.105    97556770.374 8      2140.674          40.300  
                                                                
  23882495.539                   125503335.078 7     -2958.546          47.800  
                  23882497.598    97794801.325 9     -2305.354          41.500  
                                                                
  22004919.617                   115636645.467 8      2651.783          53.300  
                  22004919.516    90106492.251 9      2066.324          46.000  
                                                                
  20936988.164                   110024620.814 8     -1669.485          54.500  
                  20936989.863    85733467.425 9     -1300.898          49.000  
                                                                
  21553106.656                   115213704.642 7     -1859.800          47.000  
                  21553107.297    89610671.657 7     -1446.511          32.000  
                                                                
  20403851.703                   108878873.706 6       415.948          42.800  
                                                                                
                                                                
  23027739.672                   123269377.569 7      2148.661          47.000  
                  23027740.391    95876126.161 9      1671.179          42.300  
                                                                
  22230864.328                   118795018.404 7      -403.770          48.000  
                  22230868.547    92396143.767 8      -314.045          38.300  
                                                                
  21962745.195                   117321063.467 7      3191.911          46.300  
                  21962748.336    91249736.402 8      2482.600          40.300  
                                                                
  21788209.656                   116511326.974 7     -4060.800          46.800  
                  21788212.895    90619912.560 9     -3158.400          45.300  
                                                                
  20235241.828                   108282864.606 8      -697.465          53.000  
                  20235242.949    84220017.460 9      -542.473          49.000  
                                                                
  22876906.172                   122118481.784 6      3171.047          45.000  
                  22876909.570    94981053.762 9      2466.370          41.500  
                                                                
 18 07 01  0  4 40.0000000  0 19G01G08G10G11G14G18G20G22G27G31G32R05 0.000000000
                                R06R07R15R16R20R21R22       
  23654846.367                   124307062.750 7      3286.200          47.800  
                  23654849.008    96862658.350 9      2560.675          41.500  
                                                                
  23403465.445                   122986017.443 7     -1998.971          50.000  
                  23403467.746    95833260.191 9     -1557.640          42.800  
                                                                
  21899061.594                   115080340.179 8     -1578.904          53.500  
                  21899063.492    89672998.154 9     -1230.313          47.500  
                                                                
  23442455.820                   123190928.278 7      1819.882          51.500  
                  23442454.020    95992929.259 8      1418.094          40.500  
                                                                
  20074612.586                   105492811.573 7        36.021          51.000  
                  20074610.984    82202181.229 9        28.068          49.300  
                                                                
  21918786.938                   115184008.920 8      2217.541          52.300  
                  21918786.516    89753777.035 9      1727.954          44.500  
                                                                
  23564408.227                   123831781.548 7     -2284.826          47.800  
                  23564407.688    96492297.337 9     -1780.386          41.300  
                                                                
  23821746.961                   125184129.583 7      2747.096          48.500  
                  23821744.223    97546067.130 8      2140.590          40.500  
                                                                
  23885310.664                   125518128.426 7     -2958.782          48.000  
                  23885312.664    97806328.597 9     -2305.542          41.500  
                                                                
  22002397.570                   115623391.979 8      2649.936          53.800  
                  22002397.469    90096164.874 9      2064.881          45.500  
                                                                
  20938577.539                   110032973.013 8     -1671.125          55.000  
                  20938579.258    85739975.634 9     -1302.177          49.300  
                                                                
  21554846.383                   115223004.554 7     -1860.136          46.500  
                  21554847.043    89617904.912 7     -1446.769          31.500  
                                                                
  20403462.422                   108876796.481 6       415.046          42.500  
                                                                                
                                                                
  23025733.047                   123258635.975 7      2148.056          47.000  
                  23025733.766    95867771.586 9      1670.717          42.300  
                                                                
  22231244.531                   118797049.728 7      -407.991          48.300  
                  22231248.652    92397723.679 8      -317.327          38.300  
                                                                
  21959758.617                   117305109.935 7      3189.889          46.000  
                  21959761.797    91237328.119 8      2481.021          40.000  
                                                                
  21792007.617                   116531636.036 7     -4062.535          46.800  
                  21792010.777    90635708.495 9     -3159.749          45.300  
                                                                
  20235896.047                   108286365.448 8      -702.027          52.500  
                  20235897.188    84222740.331 9      -546.019          48.800  
                                                                
  22873937.688                   122102635.284 7      3168.055          47.300  
                  22873940.949    94968728.713 9      2464.041          41.800  
                                                                
 18 07 01  0  4 45.0000000  0 19G01G08G10G11G14G18G20G22G27G31G32R05 0.000000000
                                R06R07R15R16R20R21R22       
  23651720.281                   124290635.147 7      3285.196          47.500  
                  23651722.902    96849857.618 9      2559.895          42.300  
                                                                
  23405368.484                   122996017.956 7     -2000.700          49.800  
                  23405370.805    95841052.793 9     -1558.985          43.300  
                                                                
  21900564.531                   115088238.106 8     -1579.895          53.000  
                  21900566.410    89679152.378 9     -1231.077          47.500  
                                                                
  23440725.625                   123181835.669 7      1817.764          50.800  
                  23440723.727    95985844.088 8      1416.442          40.500  
                                                                
  20074579.867                   105492639.510 7        33.469          50.500  
                  20074578.266    82202047.154 9        26.082          49.500  
                                                                
  21916678.297                   115172927.763 8      2215.510          52.500  
                  21916677.875    89745142.362 9      1726.369          44.300  
                                                                
  23566582.703                   123843208.444 7     -2285.612          47.800  
                  23566582.184    96501201.412 8     -1780.994          40.800  
                                                                
  23819133.305                   125170394.692 7      2747.046          48.300  
                  23819130.543    97535364.637 9      2140.555          41.500  
                                                                
  23888126.039                   125532923.122 6     -2958.900          47.000  
                  23888128.020    97817856.923 9     -2305.630          42.300  
                                                                
  21999877.375                   115610148.062 8      2648.159          53.800  
                  21999877.234    90085844.943 9      2063.497          46.000  
                                                                
  20940168.539                   110041333.658 8     -1672.659          54.300  
                  20940170.238    85746490.421 9     -1303.371          49.500  
                                                                
  21556586.422                   115232306.292 7     -1860.340          46.500  
                  21556587.160    89625139.606 7     -1446.937          31.300  
                                                                
  20403074.023                   108874724.291 6       414.193          42.300  
                                                                                
                                                                
  23023727.172                   123247897.906 7      2147.508          47.800  
                  23023727.813    95859419.757 9      1670.280          41.800  
                                                                
  22231628.734                   118799102.555 7      -412.135          48.300  
                  22231632.836    92399320.326 8      -320.554          38.300  
                                                                
  21956773.992                   117289166.741 7      3187.953          46.500  
                  21956777.113    91224927.871 8      2479.519          40.000  
                                                                
  21795807.195                   116551954.088 7     -4064.185          47.000  
                  21795810.355    90651511.409 9     -3161.026          45.300  
                                                                
  20236554.609                   108289889.463 8      -706.511          52.500  
                  20236555.711    84225481.226 9      -549.509          48.800  
                                                                
  22870972.086                   122086804.099 7      3165.151          47.000  
                  22870975.227    94956415.560 9      2461.791          41.300  
                                                                
 18 07 01  0  4 50.0000000  0 19G01G08G10G11G14G18G20G22G27G31G32R05 0.000000000
                                R06R07R15R16R20R21R22       
  23648595.188                   124274212.690 7      3283.990          47.800  
                  23648597.766    96837060.901 9      2558.953          41.500  
                                                                
  23407273.188                   123006027.154 7     -2002.613          50.300  
                  23407275.469    95848852.158 9     -1560.473          42.500  
                                                                
  21902068.438                   115096140.930 8     -1581.033          52.800  
                  21902070.219    89685310.415 9     -1231.978          47.300  
                                                                
  23438997.406                   123172753.767 7      1815.444          50.800  
                  23438995.508    95978767.298 9      1414.630          41.300  
                                                                
  20074549.570                   105492480.232 7        30.752          50.000  
                  20074547.949    82201923.036 9        23.965          49.800  
                                                                
  21914571.570                   115161856.736 8      2213.313          52.300  
                  21914571.129    89736515.606 9      1724.660          44.500  
                                                                
  23568757.945                   123854639.384 7     -2286.589          47.800  
                  23568757.406    96510108.631 8     -1781.756          40.800  
                                                                
  23816519.664                   125156660.050 7      2746.839          47.300  
                  23816516.883    97524662.300 9      2140.398          41.500  
                                                                
  23890941.539                   125547718.569 7     -2959.226          47.500  
                  23890943.461    97829385.837 9     -2305.896          41.800  
                                                                
  21997358.891                   115596913.079 8      2646.202          54.000  
                  21997358.711    90075531.975 9      2061.974          45.800  
                                                                
  20941760.984                   110049702.100 8     -1674.388          54.000  
                  20941762.703    85753011.280 9     -1304.718          49.800  
                                                                
  21558326.719                   115241609.281 7     -1860.783          46.800  
                  21558327.457    89632375.266 7     -1447.276          31.500  
                                                                
  20402686.422                   108872656.346 6       413.179          42.300  
                                                                                
                                                                
  23021721.727                   123237162.664 7      2146.740          48.500  
                  23021722.305    95851070.163 9      1669.680          41.800  
                                                                
  22232016.828                   118801176.235 7      -416.493          47.500  
                  22232020.906    92400933.189 8      -323.939          38.500  
                                                                
  21953791.195                   117273233.236 7      3185.830          46.000  
                  21953794.316    91212535.141 8      2477.868          40.500  
                                                                
  21799608.375                   116572280.395 7     -4065.997          47.000  
                  21799611.453    90667320.747 9     -3162.438          45.300  
                                                                
  20237217.367                   108293435.940 8      -711.191          52.800  
                  20237218.445    84228239.593 9      -553.146          48.800  
                                                                
  22868009.086                   122070987.473 7      3162.103          46.500  
                  22868012.164    94944113.742 9      2459.412          41.300  
                                                                
 18 07 01  0  4 55.0000000  0 19G01G08G10G11G14G18G20G22G27G31G32R05 0.000000000
                                R06R07R15R16R20R21R22       
  23645471.102                   124257795.560 7      3283.136          47.500  
                  23645473.703    96824268.338 9      2558.286          41.500  
                                                                
  23409179.563                   123016045.225 7     -2004.179          50.000  
                  23409181.863    95856658.445 9     -1561.700          42.800  
                                                                
  21903573.273                   115104048.857 8     -1581.852          52.500  
                  21903575.035    89691472.434 9     -1232.612          48.000  
                                                                
  23437271.305                   123163682.748 7      1813.479          50.800  
                  23437269.324    95971698.957 8      1413.100          41.000  
                                                                
  20074521.750                   105492333.890 7        28.367          50.500  
                  20074520.129    82201809.007 9        22.104          49.800  
                                                                
  21912466.852                   115150796.016 8      2211.442          53.300  
                  21912466.352    89727896.844 9      1723.206          45.000  
                                                                
  23570933.984                   123866074.499 7     -2287.230          48.000  
                  23570933.426    96519019.113 8     -1782.258          40.800  
                                                                
  23813906.102                   125142925.780 7      2746.965          47.500  
                  23813903.320    97513960.295 9      2140.488          41.300  
                                                                
  23893757.219                   125562514.868 7     -2959.184          47.800  
                  23893759.078    97840915.425 9     -2305.852          41.800  
                                                                
  21994842.133                   115583687.195 8      2644.589          53.800  
                  21994841.895    90065226.098 9      2060.716          45.800  
                                                                
  20943354.984                   110058078.501 8     -1675.776          54.300  
                  20943356.684    85759538.347 9     -1305.797          49.500  
                                                                
  21560067.320                   115250913.765 7     -1860.869          46.800  
                  21560068.102    89639612.074 7     -1447.338          31.800  
                                                                
  20402299.703                   108870592.966 6       412.466          42.000  
                                                                                
                                                                
  23019716.867                   123226430.545 7      2146.290          47.800  
                  23019717.406    95842722.976 9      1669.335          42.300  
                                                                
  22232408.852                   118803271.015 7      -420.493          47.800  
                  22232412.953    92402562.462 8      -327.050          38.500  
                                                                
  21950810.219                   117257309.635 7      3184.099          46.000  
                  21950813.379    91200150.139 8      2476.519          40.300  
                                                                
  21803411.078                   116592615.136 7     -4067.484          46.800  
                  21803414.156    90683136.654 9     -3163.603          45.500  
                                                                
  20237884.352                   108297005.050 8      -715.501          52.000  
                  20237885.410    84231015.569 9      -556.503          48.800  
                                                                
  22865048.852                   122055185.665 7      3159.309          46.800  
                  22865051.953    94931823.444 9      2457.244          41.300  
                                                                
 18 07 01  0  5  0.0000000  0 19G01G08G10G11G14G18G20G22G27G31G32R05 0.000000000
                                R06R07R15R16R20R21R22       
  23642347.805                   124241382.653 7      3282.072          47.300  
                  23642350.445    96811479.061 9      2557.463          41.500  
                                                                
  23411087.406                   123026070.934 7     -2005.923          49.800  
                  23411089.727    95864470.688 9     -1563.053          43.300  
                                                                
  21905078.852                   115111960.694 8     -1582.854          53.300  
                  21905080.590    89697637.494 9     -1233.390          47.000  
                                                                
  23435547.023                   123154621.435 7      1811.306          50.500  
                  23435545.004    95964638.200 9      1411.405          41.500  
                                                                
  20074496.148                   105492199.322 7        25.805          50.300  
                  20074494.547    82201704.142 9        20.110          49.500  
                                                                
  21910363.875                   115139744.395 8      2209.425          53.000  
                  21910363.336    89719285.190 9      1721.625          44.500  
                                                                
  23573110.586                   123877512.617 7     -2288.027          47.800  
                  23573110.008    96527931.930 8     -1782.878          40.300  
                                                                
  23811292.383                   125129190.749 6      2746.896          46.500  
                  23811289.703    97503257.680 9      2140.437          42.500  
                                                                
  23896572.820                   125577310.862 7     -2959.355          48.300  
                  23896574.680    97852444.754 9     -2305.987          42.000  
                                                                
  21992326.891                   115570469.257 8      2642.778          53.500  
                  21992326.590    90054926.414 9      2059.304          45.800  
                                                                
  20944950.266                   110066461.638 8     -1677.342          53.800  
                  20944951.926    85766070.662 9     -1307.021          49.500  
                                                                
  21561807.922                   115260218.376 7     -1861.117          46.300  
                  21561808.781    89646848.998 7     -1447.536          31.800  
                                                                
  20401913.602                   108868532.999 6       411.570          41.800  
                                                                                
                                                                
  23017712.352                   123215700.232 7      2145.744          47.300  
                  23017712.930    95834377.180 9      1668.910          42.300  
                                                                
  22232804.570                   118805385.609 7      -424.693          47.000  
                  22232808.691    92404207.136 8      -330.311          38.500  
                                                                
  21947830.938                   117241394.853 7      3182.085          45.800  
                  21947834.059    91187771.973 8      2474.957          40.500  
                                                                
  21807215.180                   116612957.095 7     -4069.136          46.500  
                  21807218.238    90698958.176 9     -3164.886          45.300  
                                                                
  20238555.266                   108300595.568 8      -719.985          52.800  
                  20238556.387    84233808.188 9      -559.982          48.800  
                                                                
  22862091.211                   122039397.478 7      3156.381          46.300  
                  22862094.313    94919543.744 8      2454.963          41.000  
                                                                
 18 07 01  0  5  5.0000000  0 19G01G08G10G11G14G18G20G22G27G31G32R05 0.000000000
                                R06R07R15R16R20R21R22       
  23639225.781                   124224976.411 7      3280.679          47.300  
                  23639228.441    96798694.981 9      2556.369          42.000  
                                                                
  23412997.188                   123036106.835 7     -2008.028          49.500  
                  23412999.527    95872290.860 9     -1564.697          43.500  
                                                                
  21906585.711                   115119878.958 8     -1584.191          53.500  
                  21906587.352    89703807.571 9     -1234.434          46.800  
                                                                
  23433825.086                   123145572.382 7      1808.791          50.500  
                  23433823.047    95957586.998 9      1409.450          41.500  
                                                                
  20074473.289                   105492079.058 7        22.888          50.300  
                  20074471.668    82201610.428 9        17.835          49.300  
                                                                
  21908263.094                   115128704.559 8      2207.005          52.800  
                  21908262.535    89710682.736 9      1719.742          44.300  
                                                                
  23575288.266                   123888956.276 7     -2289.185          47.800  
                  23575287.645    96536849.053 8     -1783.779          40.800  
                                                                
  23808678.984                   125115457.450 6      2746.508          46.800  
                  23808676.344    97492556.393 9      2140.138          41.800  
                                                                
  23899388.805                   125592109.015 7     -2959.823          47.500  
                  23899390.645    97863975.787 8     -2306.351          41.000  
                                                                
  21989813.633                   115557261.792 8      2640.624          53.500  
                  21989813.293    90044634.885 9      2057.629          45.800  
                                                                
  20946547.281                   110074854.069 8     -1679.241          54.000  
                  20946548.941    85772610.208 9     -1308.500          49.500  
                                                                
  21563549.063                   115269525.773 7     -1861.697          47.300  
                  21563549.902    89654088.080 7     -1447.989          31.800  
                                                                
  20401528.602                   108866478.805 6       410.358          41.800  
                                                                                
                                                                
  23015708.586                   123204974.288 7      2144.837          46.800  
                  23015709.285    95826034.785 9      1668.206          42.800  
                                                                
  22233204.469                   118807522.708 7      -429.240          47.300  
                  22233208.629    92405869.316 8      -333.850          38.500  
                                                                
  21944853.734                   117225491.284 7      3179.759          46.300  
                  21944856.855    91175402.541 8      2473.142          40.500  
                                                                
  21811021.094                   116633308.875 7     -4071.166          46.500  
                  21811024.113    90714787.334 9     -3166.460          45.300  
                                                                
  20239230.750                   108304210.074 8      -724.834          52.500  
                  20239231.852    84236619.471 9      -563.760          49.000  
                                                                
  22859136.570                   122023625.436 7      3153.093          46.000  
                  22859139.672    94907276.623 8      2452.401          40.800  
                                                                
 18 07 01  0  5 10.0000000  0 19G01G08G10G11G14G18G20G22G27G31G32R05 0.000000000
                                R06R07R15R16R20R21R22       
  23636104.641                   124208574.917 6      3280.017          47.000  
                  23636107.340    96785914.606 9      2555.851          41.800  
                                                                
  23414908.523                   123046150.979 7     -2009.371          49.500  
                  23414910.902    95880117.478 9     -1565.745          43.500  
                                                                
  21908093.375                   115127801.681 8     -1584.790          52.800  
                  21908094.977    89709981.109 9     -1234.901          46.800  
                                                                
  23432105.125                   123136533.608 7      1807.044          50.800  
                  23432103.004    95950543.783 8      1408.090          40.800  
                                                                
  20074452.750                   105491971.122 7        20.707          50.500  
                  20074451.129    82201526.326 9        16.134          49.500  
                                                                
  21906164.211                   115117674.452 8      2205.370          53.000  
                  21906163.609    89702087.826 9      1718.472          44.800  
                                                                
  23577466.625                   123900403.496 7     -2289.627          47.500  
                  23577465.965    96545768.964 8     -1784.123          40.500  
                                                                
  23806065.602                   125101723.919 7      2746.833          47.300  
                  23806062.902    97481854.965 9      2140.384          41.500  
                                                                
  23902204.820                   125606907.384 7     -2959.591          47.800  
                  23902206.719    97875506.969 9     -2306.171          41.500  
                                                                
  21987301.992                   115544062.822 8      2639.205          53.800  
                  21987301.594    90034349.977 9      2056.525          45.500  
                                                                
  20948145.742                   110083253.807 8     -1680.429          54.300  
                  20948147.363    85779155.465 9     -1309.425          49.300  
                                                                
  21565290.359                   115278833.934 7     -1861.596          46.800  
                  21565291.281    89661327.777 7     -1447.908          32.500  
                                                                
  20401144.406                   108864428.504 6       409.833          42.300  
                                                                                
                                                                
  23013705.289                   123194250.796 7      2144.639          46.500  
                  23013706.188    95817694.280 9      1668.052          43.000  
                                                                
  22233608.211                   118809680.282 7      -433.045          47.500  
                  22233612.449    92407547.427 8      -336.811          38.500  
                                                                
  21941878.273                   117209597.092 7      3178.242          46.300  
                  21941881.414    91163040.406 8      2471.964          40.300  
                                                                
  21814828.438                   116653668.211 7     -4072.385          46.800  
                  21814831.438    90730622.355 9     -3167.406          45.500  
                                                                
  20239910.266                   108307846.601 8      -728.957          52.000  
                  20239911.406    84239447.885 9      -566.968          49.000  
                                                                
  22856184.672                   122007867.702 7      3150.496          47.300  
                  22856187.652    94895020.598 8      2450.390          40.500  
                                                                
 18 07 01  0  5 15.0000000  0 19G01G08G10G11G14G18G20G22G27G31G32R05 0.000000000
                                R06R07R15R16R20R21R22       
  23632984.484                   124192178.502 7      3278.685          47.800  
                  23632987.164    96773138.179 9      2554.819          41.500  
                                                                
  23416821.461                   123056203.615 7     -2011.370          49.800  
                  23416823.883    95887950.699 9     -1567.303          43.000  
                                                                
  21909601.953                   115135729.175 8     -1586.056          53.500  
                  21909603.492    89716158.380 9     -1235.892          46.500  
                                                                
  23430387.141                   123127505.394 7      1804.603          50.800  
                  23430385.000    95943508.813 9      1406.182          41.500  
                                                                
  20074434.609                   105491875.769 7        17.878          50.300  
                  20074433.008    82201452.026 9        13.931          49.500  
                                                                
  21904067.195                   115106654.283 8      2203.055          52.300  
                  21904066.574    89693500.699 9      1716.662          44.500  
                                                                
  23579645.703                   123911854.610 7     -2290.707          47.500  
                  23579645.004    96554691.896 8     -1784.960          39.800  
                                                                
  23803452.180                   125087990.491 6      2746.502          46.500  
                  23803449.480    97471153.576 9      2140.138          41.300  
                                                                
  23905020.922                   125621706.211 7     -2960.001          47.800  
                  23905022.820    97887038.520 8     -2306.497          41.000  
                                                                
  21984792.031                   115530872.654 8      2637.150          54.000  
                  21984791.551    90024071.928 9      2054.922          45.800  
                                                                
  20949745.625                   110091661.117 8     -1682.237          54.300  
                  20949747.203    85785706.610 9     -1310.836          49.300  
                                                                
  21567031.844                   115288143.164 7     -1862.114          46.500  
                  21567032.824    89668568.277 7     -1448.313          31.800  
                                                                
  20400760.922                   108862382.459 6       408.678          42.800  
                                                                                
                                                                
  23011702.469                   123183530.020 7      2143.747          47.000  
                  23011703.570    95809355.905 9      1667.361          43.000  
                                                                
  22234015.813                   118811858.573 7      -437.502          47.500  
                  22234020.051    92409241.647 8      -340.279          38.000  
                                                                
  21938904.633                   117193712.604 7      3175.913          46.300  
                  21938907.793    91150685.819 8      2470.150          40.800  
                                                                
  21818637.273                   116674035.729 7     -4074.323          46.800  
                  21818640.273    90746463.751 9     -3168.914          45.800  
                                                                
  20240594.008                   108311505.381 9      -733.706          53.300  
                  20240595.148    84242293.596 9      -570.658          48.800  
                                                                
  22853235.469                   121992124.502 7      3147.280          46.300  
                  22853238.289    94882775.870 8      2447.888          40.500  
                                                                
 18 07 01  0  5 20.0000000  0 19G01G08G10G11G14G18G20G22G27G31G32R05 0.000000000
                                R06R07R15R16R20R21R22       
  23629865.367                   124175787.510 6      3278.073          47.000  
                  23629868.047    96760365.966 9      2554.346          42.300  
                                                                
  23418736.125                   123066265.119 7     -2012.702          49.800  
                  23418738.586    95895790.830 9     -1568.337          43.800  
                                                                
  21911111.531                   115143661.811 8     -1586.640          53.300  
                  21911112.953    89722339.655 9     -1236.337          46.500  
                                                                
  23428671.242                   123118488.148 7      1802.879          50.500  
                  23428669.102    95936482.379 9      1404.843          41.500  
                                                                
  20074418.930                   105491793.341 7        15.760          50.500  
                  20074417.309    82201387.788 9        12.284          49.000  
                                                                
  21901972.133                   115095644.566 8      2201.416          52.500  
                  21901971.492    89684921.707 9      1715.391          45.000  
                                                                
  23581825.602                   123923309.944 7     -2291.090          47.500  
                  23581824.883    96563618.128 8     -1785.265          40.800  
                                                                
  23800838.859                   125074257.504 6      2746.870          47.000  
                  23800836.121    97460452.549 9      2140.416          41.500  
                                                                
  23907837.203                   125636505.885 7     -2959.694          48.300  
                  23907839.102    97898570.726 8     -2306.253          40.500  
                                                                
  21982283.813                   115517691.709 8      2635.760          53.800  
                  21982283.293    90013801.064 9      2053.837          45.800  
                                                                
  20951346.984                   110100076.371 8     -1683.377          54.500  
                  20951348.586    85792263.946 9     -1311.724          49.500  
                                                                
  21568773.578                   115297453.770 7     -1861.933          46.800  
                  21568774.617    89675809.846 7     -1448.170          31.500  
                                                                
  20400378.320                   108860340.910 6       408.275          42.800  
                                                                                
                                                                
  23009700.227                   123172812.268 7      2143.589          47.800  
                  23009701.465    95801019.866 9      1667.234          42.800  
                                                                
  22234427.375                   118814058.018 7      -441.250          47.300  
                  22234431.637    92410952.309 8      -343.193          37.800  
                                                                
  21935932.898                   117177838.110 7      3174.401          46.500  
                  21935936.020    91138339.011 8      2468.974          40.300  
                                                                
  21822447.680                   116694411.597 7     -4075.521          46.800  
                  21822450.680    90762311.640 9     -3169.848          45.500  
                                                                
  20241282.008                   108315186.818 8      -737.794          53.000  
                  20241283.129    84245156.934 9      -573.836          48.800  
                                                                
  22850289.008                   121976396.202 7      3144.776          47.300  
                  22850291.727    94870542.746 8      2445.939          40.800  
                                                                
 18 07 01  0  5 25.0000000  0 19G01G08G10G11G14G18G20G22G27G31G32R05 0.000000000
                                R06R07R15R16R20R21R22       
  23626747.281                   124159402.013 7      3276.630          47.300  
                  23626749.941    96747598.064 8      2553.208          41.000  
                                                                
  23420652.461                   123076335.490 7     -2014.825          50.000  
                  23420654.941    95903637.876 9     -1569.994          42.300  
                                                                
  21912622.070                   115151599.616 8     -1588.006          53.300  
                  21912623.449    89728524.943 9     -1237.405          46.800  
                                                                
  23426957.422                   123109481.897 7      1800.346          50.800  
                  23426955.262    95929464.522 8      1402.865          41.000  
                                                                
  20074405.750                   105491723.920 7        12.822          50.800  
                  20074404.090    82201333.697 9         9.993          48.800  
                                                                
  21899879.094                   115084645.311 8      2199.014          52.800  
                  21899878.434    89676350.841 9      1713.520          45.300  
                                                                
  23584006.281                   123934769.531 6     -2292.291          47.000  
                  23584005.582    96572547.685 8     -1786.201          40.500  
                                                                
  23798225.625                   125060524.993 6      2746.437          47.000  
                  23798222.926    97449751.910 9      2140.074          42.300  
                                                                
  23910653.641                   125651306.435 7     -2960.217          47.800  
                  23910655.539    97910103.618 9     -2306.660          41.300  
                                                                
  21979777.352                   115504520.028 8      2633.569          54.000  
                  21979776.813    90003537.425 9      2052.127          45.800  
                                                                
  20952949.922                   110108499.588 8     -1685.313          55.000  
                  20952951.461    85798827.501 9     -1313.233          49.300  
                                                                
  21570515.617                   115306765.983 7     -1862.587          46.800  
                  21570516.676    89683052.674 7     -1448.683          31.500  
                                                                
  20399996.602                   108858303.733 6       407.047          42.800  
                                                                                
                                                                
  23007698.625                   123162097.600 7      2142.682          48.000  
                  23007699.887    95792686.238 9      1666.532          42.800  
                                                                
  22234842.891                   118816278.350 7      -445.766          48.000  
                  22234847.090    92412679.226 8      -346.707          37.800  
                                                                
  21932963.055                   117161973.806 7      3172.029          46.300  
                  21932966.113    91126000.120 8      2467.127          40.000  
                                                                
  21826259.656                   116714795.927 7     -4077.561          46.500  
                  21826262.656    90778166.113 9     -3171.441          45.300  
                                                                
  20241974.227                   108318890.942 8      -742.683          53.000  
                  20241975.348    84248037.911 9      -577.644          48.800  
                                                                
  22847345.430                   121960682.945 7      3141.410          47.300  
                  22847348.031    94858321.317 9      2443.321          41.300  
                                                                
