     2.11           OBSERVATION DATA    M (MIXED)           RINEX VERSION / TYPE
TPP                 Reference Data Shop 04-JUL-18 01:00     PGM / RUN BY / DATE 
NWCS                                                        MARKER NAME         
Newcastle                                                   MARKER NUMBER       
CORSnet-NSW         NSW                                     OBSERVER / AGENCY   
                    TRIMBLE NETR9                           REC # / TYPE / VERS 
CR6200323013        ASH701945E_M    SCIS                    ANT # / TYPE        
 -4721163.3790  2535155.7690 -3447435.5210                  APPROX POSITION XYZ 
        0.0000        0.0000        0.0000                  ANTENNA: DELTA H/E/N
     1     1     0                                          WAVELENGTH FACT L1/2
    14    C1    P1    L1    D1    S1    C2    P2    L2    D2# / TYPES OF OBSERV 
          S2    C5    L5    D5    S5                        # / TYPES OF OBSERV 
     5.000                                                  INTERVAL            
     0                                                      RCV CLOCK OFFS APPL 
    18                                                      LEAP SECONDS        
  2018    07    01    00    00   00.0000000     GPS         TIME OF FIRST OBS   
                                                            END OF HEADER       
 18 07 01  0  0  0.0000000  0 19G01G08G10G11G14G18G20G22G27G31G32R05 0.000000000
                                R06R07R15R16R20R21R22       
  23829609.164                   125225459.25914                        37.100  
                  23829620.680    97578310.94616                        24.100  
                                                                
  23297870.039                   122431098.38216                        43.300  
                  23297879.465    95400896.95617                        30.300  
                                                                
  21817810.633                   114653362.30617                        50.400  
                  21817819.887    89340330.68318                        40.600  
                                                                
  23540672.852                   123707089.12316                        43.900  
                  23540679.039    96395141.79017                        28.100  
                                                                
  20079871.883                   105520501.87317                        47.800  
                  20079878.418    82223763.09319                        43.900  
                                                                
  22038393.891                   115812503.95416                        45.000  
                  22038402.230    90243576.09318                        36.800  
                                                                
  23445953.984                   123209301.01315                        41.100  
                  23445961.066    96007282.45917                        26.100  
                                                                
  23966029.117                   125942290.56415                        39.500  
                  23966033.719    98136910.42016                        22.600  
                                                                
  23727186.547                   124687163.41914                        37.300  
                  23727197.715    97158865.85116                        22.600  
                                                                
  22147240.578                   116384532.14817                        50.000  
                  22147247.266    90689284.30718                        37.400  
                                                                
  20852096.703                   109578444.68617                        51.800  
                  20852105.770    85385889.50519                        45.700  
                                                                
  21458650.195    21458651.121   114708759.17014                        38.800  
  21458657.891    21458657.063    89217978.90017                        28.300  
                                                                
  20425324.281    20425323.551   108993462.76614                        39.000  
                                                                                
                                                                
  23136758.063    23136758.027   123852848.61613                        35.200  
  23136766.805    23136766.883    96330055.91518                        37.900  
                                                                
  22217373.195    22217372.754   118722907.93515                        39.100  
  22217379.555    22217379.852    92340092.31618                        33.700  
                                                                
  22131601.938    22131602.398   118223017.12613                        36.900  
  22131608.555    22131609.238    91951295.08718                        37.200  
                                                                
  21581765.133    21581765.090   115407396.18615                        39.500  
  21581774.883    21581774.184    89761323.56319                        42.600  
                                                                
  20204364.922    20204364.488   108117612.06117                        46.000  
  20204370.184    20204371.105    84091511.77719                        45.300  
                                                                
  23042719.883    23042719.223   123003625.03014                        38.600  
  23042724.320    23042726.250    95669496.65918                        39.100  
                                                                
 18 07 01  0  0  5.0000000  0 19G01G08G10G11G14G18G20G22G27G31G32R05 0.000000000
                                R06R07R15R16R20R21R22       
  23826433.125                   125208760.785 4      3339.282          37.500  
                  23826442.375    97565299.169 6      2602.039          24.700  
                                                                
  23299675.352                   122440588.049 6     -1898.739          43.200  
                  23299685.258    95408291.495 7     -1479.543          29.600  
                                                                
  21819261.977                   114660990.513 7     -1526.064          49.600  
                  21819271.254    89346274.734 8     -1189.136          40.700  
                                                                
  23538829.719                   123697405.940 6      1935.770          43.400  
                  23538836.484    96387596.438 7      1508.389          28.700  
                                                                
  20079701.305                   105519605.739 7       178.148          48.100  
                  20079707.453    82223064.811 9       138.817          43.700  
                                                                
  22036180.859                   115800871.941 6      2325.612          46.400  
                  22036188.816    90234512.188 8      1812.163          36.400  
                                                                
  23448085.438                   123220502.899 5     -2240.740          41.300  
                  23448092.230    96016011.177 6     -1746.016          25.800  
                                                                
  23963413.914                   125928547.061 5      2748.656          40.200  
                  23963418.578    98126201.217 6      2141.809          23.300  
                                                                
  23729990.695                   124701896.388 4     -2946.745          37.100  
                  23730001.328    97170346.073 6     -2296.167          23.000  
                                                                
  22144628.328                   116370805.119 7      2744.715          50.500  
                  22144635.496    90678587.921 8      2138.742          38.300  
                                                                
  20853601.836                   109586355.699 7     -1582.908          51.000  
                  20853611.352    85392053.930 9     -1233.438          45.300  
                                                                
  21460379.406    21460378.457   114717994.913 4     -1847.276          38.800  
  21460386.098    21460385.293    89225162.244 7     -1436.788          28.000  
                                                                
  20424889.734    20424889.238   108991145.711 4       463.039          38.300  
                                                                                
                                                                
  23134719.273    23134720.320   123841941.675 3      2181.074          35.500  
  23134730.023    23134728.145    96321572.741 8      1696.397          37.300  
                                                                
  22217536.844    22217535.793   118723783.766 4      -176.850          38.800  
  22217545.516    22217544.453    92340773.520 8      -137.549          33.100  
                                                                
  22128522.148    22128521.180   118206559.058 4      3290.894          37.100  
  22128526.281    22128528.477    91938494.374 8      2559.585          36.700  
                                                                
  21585471.078    21585471.223   115427215.129 5     -3964.604          39.700  
  21585480.250    21585480.676    89776738.291 9     -3083.578          42.300  
                                                                
  20204785.703    20204785.762   108119866.347 7      -452.715          45.800  
  20204791.852    20204792.012    84093265.108 9      -352.116          45.100  
                                                                
  23039605.211    23039604.316   122986998.493 5      3324.200          39.300  
  23039610.922    23039611.570    95656564.922 8      2585.485          39.300  
                                                                
 18 07 01  0  0 10.0000000  0 19G01G08G10G11G14G18G20G22G27G31G32R05 0.000000000
                                R06R07R15R16R20R21R22       
  23823255.820                   125192066.817 4      3338.459          38.100  
                  23823265.645    97552290.867 6      2601.388          25.300  
                                                                
  23301483.289                   122450087.215 6     -1900.573          43.600  
                  23301493.219    95415693.439 7     -1480.963          30.200  
                                                                
  21820714.883                   114668623.552 7     -1526.983          49.800  
                  21820724.148    89352222.560 8     -1189.857          40.800  
                                                                
  23536989.063                   123687733.006 6      1933.784          43.600  
                  23536995.348    96380059.093 7      1506.842          27.700  
                                                                
  20079533.094                   105518722.623 7       175.603          49.100  
                  20079539.586    82222376.666 9       136.832          43.500  
                                                                
  22033968.859                   115789249.498 6      2323.733          44.600  
                  22033976.773    90225455.727 8      1810.697          36.000  
                                                                
  23450217.391                   123231708.778 5     -2241.460          40.800  
                  23450225.074    96024743.025 6     -1746.582          25.000  
                                                                
  23960798.320                   125914803.627 5      2748.685          40.300  
                  23960803.461    98115492.029 6      2141.859          22.600  
                                                                
  23732794.992                   124716630.843 3     -2946.979          36.900  
                  23732804.902    97181827.450 6     -2296.340          22.900  
                                                                
  22142017.422                   116357086.282 7      2743.115          49.900  
                  22142024.469    90667897.926 8      2137.494          38.200  
                                                                
  20855109.148                   109594275.008 7     -1584.509          51.000  
                  20855118.617    85398224.815 9     -1234.679          45.500  
                                                                
  21462108.031    21462107.059   114727231.880 5     -1847.469          39.500  
  21462112.348    21462113.000    89232346.549 7     -1436.928          27.300  
                                                                
  20424457.055    20424455.457   108988833.252 4       462.090          38.600  
                                                                                
                                                                
  23132683.758    23132684.238   123831037.834 3      2180.542          35.900  
  23132691.543    23132692.059    96313091.986 8      1695.970          37.500  
                                                                
  22217702.930    22217704.227   118724680.386 4      -180.945          38.400  
  22217711.625    22217712.074    92341470.887 8      -140.734          34.000  
                                                                
  22125442.711    22125442.328   118190109.740 3      3289.223          36.900  
  22125446.516    22125449.172    91925700.457 8      2558.285          37.400  
                                                                
  21589179.039    21589178.762   115447043.539 5     -3966.412          39.900  
  21589188.371    21589188.227    89792160.384 9     -3084.985          42.700  
                                                                
  20205212.273    20205211.863   108122143.426 7      -457.217          45.400  
  20205217.230    20205217.484    84095036.165 9      -355.612          45.900  
                                                                
  23036493.703    23036492.832   122970385.633 5      3321.464          39.600  
  23036498.914    23036499.859    95643643.804 8      2583.353          39.700  
                                                                
 18 07 01  0  0 15.0000000  0 19G01G08G10G11G14G18G20G22G27G31G32R05 0.000000000
                                R06R07R15R16R20R21R22       
  23820079.680                   125175377.399 4      3337.496          37.400  
                  23820090.191    97539286.132 6      2600.628          24.200  
                                                                
  23303292.508                   122459595.935 6     -1902.527          43.200  
                  23303302.344    95423102.831 7     -1482.500          30.300  
                                                                
  21822168.273                   114676261.478 7     -1527.983          50.700  
                  21822177.395    89358174.187 8     -1190.641          40.800  
                                                                
  23535150.789                   123678070.483 6      1931.667          43.400  
                  23535156.414    96372529.856 7      1505.203          28.900  
                                                                
  20079367.484                   105517852.643 7       172.934          48.100  
                  20079374.242    82221698.760 9       134.751          43.200  
                                                                
  22031758.813                   115777636.600 6      2321.795          45.500  
                  22031766.512    90216406.728 8      1809.187          36.600  
                                                                
  23452350.961                   123242918.723 5     -2242.339          41.600  
                  23452358.402    96033478.056 6     -1747.280          25.600  
                                                                
  23958183.320                   125901060.297 5      2748.654          40.200  
                  23958187.809    98104782.964 6      2141.801          22.300  
                                                                
  23735598.227                   124731366.885 4     -2947.313          37.100  
                  23735609.945    97193310.069 6     -2296.585          22.900  
                                                                
  22139408.602                   116343375.739 7      2741.436          50.500  
                  22139415.422    90657214.394 8      2136.181          38.600  
                                                                
  20856618.055                   109602202.699 7     -1586.217          50.900  
                  20856626.980    85404402.235 9     -1236.009          45.800  
                                                                
  21463837.070    21463835.672   114736470.178 4     -1847.751          38.600  
  21463843.566    21463841.023    89239531.891 7     -1437.151          26.900  
                                                                
  20424024.719    20424023.332   108986525.524 4       461.186          38.300  
                                                                                
                                                                
  23130647.438    23130647.777   123820137.117 3      2179.906          35.200  
  23130654.926    23130655.438    96304613.639 8      1695.483          37.800  
                                                                
  22217876.352    22217876.332   118725597.766 5      -185.159          39.200  
  22217881.777    22217883.750    92342184.405 8      -144.009          34.700  
                                                                
  22122364.664    22122364.492   118173668.982 4      3287.422          37.400  
  22122368.684    22122371.492    91912913.206 8      2556.878          37.000  
                                                                
  21592890.094    21592889.418   115466881.426 5     -3968.330          39.700  
  21592898.484    21592898.371    89807589.849 9     -3086.469          43.000  
                                                                
  20205641.688    20205641.582   108124443.314 7      -461.816          45.400  
  20205647.168    20205647.434    84096824.967 9      -359.192          45.400  
                                                                
  23033384.711    23033383.840   122953786.485 5      3318.733          39.900  
  23033389.508    23033390.633    95630733.357 8      2581.229          39.300  
                                                                
 18 07 01  0  0 20.0000000  0 19G01G08G10G11G14G18G20G22G27G31G32R05 0.000000000
                                R06R07R15R16R20R21R22       
  23816905.555                   125158692.534 4      3336.588          37.300  
                  23816915.027    97526284.947 6      2599.930          24.700  
                                                                
  23305103.617                   122469114.180 6     -1904.431          44.200  
                  23305113.570    95430519.637 7     -1483.976          31.200  
                                                                
  21823622.633                   114683904.271 7     -1528.957          50.000  
                  21823631.969    89364129.604 8     -1191.393          40.700  
                                                                
  23533313.547                   123668418.263 6      1929.585          44.100  
                  23533320.422    96365008.645 7      1503.569          28.600  
                                                                
  20079204.609                   105516995.695 7       170.325          49.000  
                  20079211.129    82221031.006 9       132.724          43.700  
                                                                
  22029551.492                   115766033.370 6      2319.852          45.500  
                  22029558.930    90207365.245 8      1807.677          36.400  
                                                                
  23454485.281                   123254132.685 5     -2243.139          41.300  
                  23454492.211    96042216.195 7     -1747.884          26.300  
                                                                
  23955567.625                   125887317.104 5      2748.625          40.000  
                  23955572.168    98094073.975 6      2141.786          24.000  
                                                                
  23738403.016                   124746104.483 4     -2947.656          37.300  
                  23738413.473    97204793.932 6     -2296.879          22.800  
                                                                
  22136801.109                   116329673.470 7      2739.762          50.100  
                  22136808.230    90646537.308 8      2134.879          37.900  
                                                                
  20858128.023                   109610138.688 7     -1587.885          50.500  
                  20858136.996    85410586.125 9     -1237.313          45.600  
                                                                
  21465564.664    21465564.277   114745709.755 4     -1848.028          38.200  
  21465570.320    21465569.727    89246718.220 7     -1437.363          27.300  
                                                                
  20423591.969    20423592.039   108984222.170 4       460.277          37.900  
                                                                                
                                                                
  23128611.969    23128612.590   123809239.420 2      2179.261          34.600  
  23128619.238    23128619.926    96296137.666 8      1694.981          38.200  
                                                                
  22218052.039    22218051.293   118726535.902 5      -189.313          39.400  
  22218058.348    22218059.188    92342914.069 7      -147.253          32.900  
                                                                
  22119287.156    22119287.852   118157236.771 4      3285.766          37.200  
  22119292.410    22119294.754    91900132.598 8      2555.599          37.300  
                                                                
  21596600.484    21596600.652   115486728.763 5     -3970.250          39.200  
  21596609.133    21596609.465    89823026.665 9     -3087.973          42.200  
                                                                
  20206076.039    20206075.887   108126765.998 7      -466.391          45.300  
  20206080.594    20206081.539    84098631.488 9      -362.746          45.800  
                                                                
  23030278.414    23030277.047   122937200.964 6      3315.965          41.100  
  23030281.734    23030283.980    95617833.507 8      2579.086          39.900  
                                                                
 18 07 01  0  0 25.0000000  0 19G01G08G10G11G14G18G20G22G27G31G32R05 0.000000000
                                R06R07R15R16R20R21R22       
  23813731.109                   125142012.239 4      3335.670          37.300  
                  23813741.215    97513287.309 6      2599.222          25.700  
                                                                
  23306916.781                   122478641.942 6     -1906.324          43.900  
                  23306926.793    95437943.861 7     -1485.448          31.400  
                                                                
  21825077.695                   114691551.965 7     -1529.954          50.000  
                  21825086.648    89370088.844 8     -1192.165          40.600  
                                                                
  23531479.281                   123658776.420 6      1927.520          43.900  
                  23531485.535    96357495.513 7      1501.966          28.400  
                                                                
  20079044.219                   105516151.866 7       167.712          48.700  
                  20079050.680    82220373.477 9       130.686          43.700  
                                                                
  22027344.961                   115754439.746 6      2317.935          45.300  
                  22027352.313    90198331.247 8      1806.177          36.400  
                                                                
  23456619.820                   123265350.705 5     -2243.941          41.500  
                  23456626.285    96050957.522 6     -1748.524          24.500  
                                                                
  23952952.930                   125873574.094 5      2748.579          40.200  
                  23952957.309    98083365.137 6      2141.760          25.600  
                                                                
  23741207.023                   124760843.650 4     -2948.006          37.500  
                  23741218.184    97216278.963 6     -2297.158          23.000  
                                                                
  22134195.375                   116315979.520 7      2738.109          50.500  
                  22134202.492    90635866.701 8      2133.592          37.900  
                                                                
  20859639.992                   109618083.030 7     -1589.566          51.000  
                  20859648.785    85416776.522 9     -1238.627          45.600  
                                                                
  21467293.438    21467292.488   114754950.848 4     -1848.376          38.400  
  21467299.473    21467298.340    89253905.727 7     -1437.627          27.200  
                                                                
  20423161.445    20423160.574   108981923.449 4       459.355          38.700  
                                                                                
                                                                
  23126577.313    23126576.879   123798344.913 3      2178.619          35.700  
  23126584.555    23126584.621    96287664.150 8      1694.479          38.000  
                                                                
  22218231.039    22218231.207   118727494.856 5      -193.507          39.900  
  22218238.836    22218238.922    92343659.918 7      -150.501          32.900  
                                                                
  22116213.773    22116213.180   118140813.345 4      3284.000          37.200  
  22116217.824    22116220.188    91887358.824 8      2554.228          36.600  
                                                                
  21600313.781    21600314.113   115506585.688 5     -3972.144          39.100  
  21600323.801    21600322.867    89838470.939 9     -3089.441          42.700  
                                                                
  20206514.422    20206514.152   108129111.505 7      -470.935          45.200  
  20206519.262    20206520.211    84100455.765 9      -366.283          45.500  
                                                                
  23027174.063    23027171.992   122920629.197 5      3313.204          40.400  
  23027177.641    23027179.660    95604944.367 8      2576.929          39.800  
                                                                
 18 07 01  0  0 30.0000000  0 19G01G08G10G11G14G18G20G22G27G31G32R05 0.000000000
                                R06R07R15R16R20R21R22       
  23810557.531                   125125336.484 4      3334.775          37.100  
                  23810568.070    97500293.224 7      2598.515          26.200  
                                                                
  23308732.141                   122488179.105 6     -1908.178          44.300  
                  23308741.871    95445375.410 7     -1486.891          30.800  
                                                                
  21826534.570                   114699204.507 7     -1530.882          50.200  
                  21826543.445    89376051.856 8     -1192.891          40.500  
                                                                
  23529646.250                   123649144.955 6      1925.474          43.800  
                  23529653.563    96349990.478 7      1500.377          30.000  
                                                                
  20078885.766                   105515321.110 7       165.119          49.000  
                  20078892.758    82219726.139 9       128.664          43.600  
                                                                
  22025140.641                   115742855.625 6      2316.074          45.500  
                  22025148.199    90189304.664 8      1804.734          35.700  
                                                                
  23458754.844                   123276572.769 5     -2244.733          41.400  
                  23458762.355    96059701.968 6     -1749.150          25.400  
                                                                
  23950337.570                   125859831.164 5      2748.600          40.400  
                  23950342.414    98072656.373 6      2141.753          24.400  
                                                                
  23744012.938                   124775584.248 3     -2948.224          36.700  
                  23744023.520    97227765.131 6     -2297.318          22.500  
                                                                
  22131590.586                   116302293.836 7      2736.488          50.300  
                  22131598.023    90625202.538 8      2132.329          38.600  
                                                                
  20861153.273                   109626035.632 8     -1591.163          52.100  
                  20861161.992    85422973.358 9     -1239.868          45.300  
                                                                
  21469022.078    21469021.270   114764193.120 4     -1848.542          37.900  
  21469026.375    21469027.516    89261094.171 7     -1437.749          27.200  
                                                                
  20422731.570    20422730.957   108979629.277 4       458.445          38.400  
                                                                                
                                                                
  23124542.883    23124542.168   123787453.514 3      2178.048          36.600  
  23124551.527    23124550.180    96279193.060 8      1694.051          37.200  
                                                                
  22218414.273    22218413.879   118728474.673 5      -197.621          40.400  
  22218421.926    22218422.492    92344422.000 8      -153.707          33.100  
                                                                
  22113140.477    22113140.586   118124398.507 4      3282.226          37.300  
  22113145.629    22113147.445    91874591.733 8      2552.847          37.100  
                                                                
  21604028.930    21604028.887   115526451.971 5     -3973.995          39.200  
  21604038.406    21604037.879    89853922.497 9     -3090.890          42.400  
                                                                
  20206956.773    20206956.574   108131479.822 7      -475.481          45.300  
  20206961.910    20206962.324    84102297.790 9      -369.818          46.200  
                                                                
  23024071.680    23024069.820   122904071.163 5      3310.537          40.200  
  23024076.250    23024077.445    95592065.902 8      2574.858          40.500  
                                                                
 18 07 01  0  0 35.0000000  0 19G01G08G10G11G14G18G20G22G27G31G32R05 0.000000000
                                R06R07R15R16R20R21R22       
  23807383.805                   125108665.356 3      3333.831          36.600  
                  23807395.535    97487302.741 6      2597.771          24.600  
                                                                
  23310548.266                   122497725.859 6     -1910.135          43.700  
                  23310558.359    95452814.430 7     -1488.410          30.800  
                                                                
  21827991.352                   114706861.971 7     -1531.900          50.200  
                  21828000.309    89382018.715 8     -1193.689          40.400  
                                                                
  23527815.766                   123639523.866 6      1923.363          43.600  
                  23527822.398    96342493.527 7      1498.727          28.300  
                                                                
  20078730.445                   105514503.434 7       162.476          48.300  
                  20078736.781    82219088.990 9       126.600          43.800  
                                                                
  22022937.492                   115731281.256 6      2314.086          45.600  
                  22022945.582    90180285.676 8      1803.185          36.100  
                                                                
  23460891.469                   123287798.947 5     -2245.605          41.200  
                  23460898.465    96068449.626 6     -1749.814          25.600  
                                                                
  23947722.141                   125846088.487 5      2748.504          41.300  
                  23947727.992    98061947.802 6      2141.695          24.500  
                                                                
  23746818.266                   124790326.407 3     -2948.546          36.900  
                  23746828.438    97239252.516 6     -2297.563          22.600  
                                                                
  22128988.258                   116288616.524 7      2734.778          50.500  
                  22128995.484    90614544.897 8      2130.997          39.200  
                                                                
  20862668.406                   109633996.619 7     -1592.881          51.600  
                  20862676.949    85429176.721 9     -1241.207          46.000  
                                                                
  21470750.984    21470750.691   114773436.907 4     -1848.860          37.900  
  21470757.320    21470756.539    89268283.786 7     -1438.002          27.400  
                                                                
  20422302.633    20422301.668   108977339.815 4       457.492          38.100  
                                                                                
                                                                
  23122508.844    23122508.363   123776565.013 3      2177.414          35.900  
  23122516.797    23122516.227    96270724.233 8      1693.546          37.900  
                                                                
  22218601.695    22218601.676   118729475.464 5      -201.872          39.400  
  22218607.625    22218609.254    92345200.403 8      -157.014          33.500  
                                                                
  22110070.773    22110069.875   118107992.511 4      3280.526          37.900  
  22110074.391    22110076.254    91861831.515 8      2551.527          37.200  
                                                                
  21607746.461    21607745.691   115546327.705 4     -3975.927          38.800  
  21607755.395    21607754.934    89869381.394 9     -3092.384          42.400  
                                                                
  20207403.398    20207402.707   108133870.924 7      -480.071          46.000  
  20207407.559    20207409.176    84104157.538 9      -373.388          45.600  
                                                                
  23020970.953    23020970.691   122887526.877 5      3307.724          40.200  
  23020976.137    23020978.145    95579198.123 8      2572.680          38.500  
                                                                
 18 07 01  0  0 40.0000000  0 19G01G08G10G11G14G18G20G22G27G31G32R05 0.000000000
                                R06R07R15R16R20R21R22       
  23804213.664                   125091998.773 4      3332.928          37.400  
                  23804223.645    97474315.795 6      2597.087          23.900  
                                                                
  23312366.750                   122507281.998 6     -1912.006          43.000  
                  23312376.738    95460260.774 7     -1489.867          30.900  
                                                                
  21829449.281                   114714524.315 7     -1532.889          49.600  
                  21829458.457    89387989.367 8     -1194.461          40.900  
                                                                
  23525986.828                   123629913.135 6      1921.288          43.400  
                  23525993.055    96335004.646 7      1497.111          29.600  
                                                                
  20078577.258                   105513698.814 7       159.860          48.800  
                  20078584.063    82218462.013 9       124.567          44.100  
                                                                
  22020737.008                   115719716.478 6      2312.157          45.400  
                  22020744.859    90171274.164 8      1801.680          36.200  
                                                                
  23463028.016                   123299029.118 5     -2246.380          40.900  
                  23463035.441    96077200.410 6     -1750.447          25.800  
                                                                
  23945107.555                   125832345.883 5      2748.483          40.800  
                  23945112.539    98051239.279 6      2141.684          24.200  
                                                                
  23749623.438                   124805070.059 3     -2948.866          36.600  
                  23749634.094    97250741.081 6     -2297.826          22.800  
                                                                
  22126386.922                   116274947.525 7      2733.105          50.600  
                  22126394.223    90603893.738 8      2129.691          39.200  
                                                                
  20864184.445                   109641965.850 7     -1594.536          51.300  
                  20864193.527    85435386.511 9     -1242.496          45.500  
                                                                
  21472480.547    21472480.348   114782681.941 4     -1849.177          38.300  
  21472485.406    21472486.316    89275474.376 7     -1438.257          28.000  
                                                                
  20421874.305    20421873.832   108975054.775 4       456.608          38.400  
                                                                                
                                                                
  23120474.695    23120475.578   123765679.650 3      2176.826          36.300  
  23120482.777    23120481.543    96262257.842 8      1693.086          37.500  
                                                                
  22218792.719    22218792.793   118730497.323 4      -206.065          38.900  
  22218800.805    22218800.855    92345995.177 8      -160.279          33.900  
                                                                
  22107000.211    22106999.688   118091595.079 4      3278.809          37.700  
  22107004.684    22107006.348    91849077.964 8      2550.195          36.800  
                                                                
  21611464.406    21611464.340   115566212.817 4     -3977.821          38.600  
  21611473.660    21611473.605    89884847.594 9     -3093.864          42.100  
                                                                
  20207854.289    20207854.090   108136284.853 7      -484.650          46.000  
  20207859.484    20207860.301    84106035.035 9      -376.950          46.000  
                                                                
  23017875.523    23017874.980   122870996.350 5      3304.989          39.800  
  23017879.902    23017880.922    95566341.046 8      2570.545          39.200  
                                                                
 18 07 01  0  0 45.0000000  0 19G01G08G10G11G14G18G20G22G27G31G32R05 0.000000000
                                R06R07R15R16R20R21R22       
  23801042.648                   125075336.916 3      3331.956          37.000  
                  23801053.027    97461332.531 6      2596.321          24.000  
                                                                
  23314187.281                   122516847.620 6     -1913.944          42.600  
                  23314197.121    95467714.511 7     -1491.385          31.100  
                                                                
  21830908.578                   114722191.613 7     -1533.894          50.300  
                  21830917.395    89393963.882 8     -1195.244          40.300  
                                                                
  23524159.828                   123620312.905 6      1919.168          44.300  
                  23524166.172    96327523.959 7      1495.452          28.900  
                                                                
  20078426.711                   105512907.351 7       157.219          48.900  
                  20078432.832    82217845.283 9       122.514          43.400  
                                                                
  22018538.461                   115708161.455 6      2310.179          46.500  
                  22018545.836    90162270.250 8      1800.140          35.900  
                                                                
  23465166.344                   123310263.431 5     -2247.212          41.100  
                  23465173.027    96085954.418 6     -1751.077          25.400  
                                                                
  23942491.578                   125818603.509 5      2748.437          40.100  
                  23942498.180    98040530.933 6      2141.631          22.900  
                                                                
  23752429.063                   124819815.274 3     -2949.191          37.000  
                  23752440.488    97262230.862 6     -2298.084          22.800  
                                                                
  22123787.836                   116261287.023 7      2731.405          50.800  
                  22123794.707    90593249.196 8      2128.367          38.400  
                                                                
  20865702.539                   109649943.475 7     -1596.217          50.700  
                  20865711.836    85441602.844 9     -1243.804          45.700  
                                                                
  21474210.352    21474209.871   114791928.398 5     -1849.406          39.300  
  21474216.016    21474215.305    89282666.064 7     -1438.433          27.500  
                                                                
  20421446.836    20421446.293   108972774.544 4       455.665          38.300  
                                                                                
                                                                
  23118441.906    23118442.672   123754797.505 3      2176.209          35.700  
  23118449.727    23118448.859    96253793.951 8      1692.602          37.800  
                                                                
  22218988.039    22218988.512   118731540.058 5      -210.241          39.100  
  22218996.074    22218996.102    92346806.187 8      -163.515          34.500  
                                                                
  22103933.336    22103931.547   118075206.556 4      3276.972          37.700  
  22103936.340    22103938.293    91836331.351 8      2548.744          37.500  
                                                                
  21615184.875    21615184.879   115586107.400 4     -3979.672          38.300  
  21615194.508    21615193.852    89900321.147 9     -3095.292          42.100  
                                                                
  20208309.805    20208309.277   108138721.629 7      -489.212          45.200  
  20208315.453    20208316.043    84107930.302 9      -380.494          45.600  
                                                                
  23014781.328    23014780.668   122854479.728 5      3302.180          40.000  
  23014785.984    23014786.664    95553494.778 8      2568.364          39.500  
                                                                
 18 07 01  0  0 50.0000000  0 19G01G08G10G11G14G18G20G22G27G31G32R05 0.000000000
                                R06R07R15R16R20R21R22       
  23797873.055                   125058679.669 3      3331.064          36.700  
                  23797883.289    97448352.845 6      2595.642          25.500  
                                                                
  23316009.234                   122526422.679 6     -1915.767          42.600  
                  23316019.063    95475175.592 7     -1492.809          31.100  
                                                                
  21832368.477                   114729863.799 7     -1534.839          50.500  
                  21832377.414    89399942.203 8     -1195.980          40.100  
                                                                
  23522334.609                   123610723.041 6      1917.117          44.500  
                  23522341.371    96320051.328 7      1493.856          28.900  
                                                                
  20078278.844                   105512128.954 7       154.617          48.800  
                  20078284.984    82217238.745 9       120.478          43.800  
                                                                
  22016341.531                   115696616.117 6      2308.281          46.100  
                  22016349.066    90153273.884 8      1798.657          36.300  
                                                                
  23467304.992                   123321501.807 5     -2248.007          41.100  
                  23467311.820    96094711.591 6     -1751.686          25.700  
                                                                
  23939876.367                   125804861.252 5      2748.432          39.400  
                  23939883.031    98029822.693 6      2141.626          24.000  
                                                                
  23755235.992                   124834561.945 4     -2949.472          37.900  
                  23755246.246    97273721.741 6     -2298.285          22.800  
                                                                
  22121189.766                   116247634.854 7      2729.752          50.900  
                  22121196.832    90582611.146 8      2127.080          38.400  
                                                                
  20867222.359                   109657929.370 7     -1597.871          51.100  
                  20867231.281    85447825.614 9     -1245.095          45.100  
                                                                
  21475939.969    21475939.395   114801176.230 4     -1849.694          38.600  
  21475945.852    21475946.219    89289858.807 7     -1438.647          27.400  
                                                                
  20421020.695    20421020.059   108970498.725 4       454.800          38.700  
                                                                                
                                                                
  23116410.602    23116410.871   123743918.474 3      2175.509          35.900  
  23116417.742    23116417.215    96245332.490 8      1692.066          37.300  
                                                                
  22219187.289    22219186.660   118732603.496 5      -214.378          39.200  
  22219194.406    22219195.086    92347633.314 8      -166.744          34.200  
                                                                
  22100865.969    22100865.188   118058826.713 4      3275.273          38.600  
  22100871.063    22100871.953    91823591.476 8      2547.423          37.000  
                                                                
  21618907.781    21618907.129   115606011.368 4     -3981.579          38.200  
  21618915.391    21618916.469    89915802.005 9     -3096.769          41.800  
                                                                
  20208769.664    20208768.902   108141181.169 7      -493.729          45.300  
  20208775.129    20208774.813    84109843.281 9      -384.011          45.900  
                                                                
  23011690.484    23011688.906   122837976.878 5      3299.428          40.100  
  23011693.840    23011696.445    95540659.231 8      2566.213          39.900  
                                                                
 18 07 01  0  0 55.0000000  0 19G01G08G10G11G14G18G20G22G27G31G32R05 0.000000000
                                R06R07R15R16R20R21R22       
  23794704.031                   125042027.101 4      3330.162          37.500  
                  23794713.656    97435376.810 6      2594.948          24.100  
                                                                
  23317833.211                   122536007.169 6     -1917.635          43.200  
                  23317842.914    95482644.027 7     -1494.268          30.700  
                                                                
  21833829.508                   114737540.915 7     -1535.801          50.500  
                  21833838.633    89405924.369 8     -1196.726          40.700  
                                                                
  23520511.391                   123601143.642 6      1915.048          44.300  
                  23520518.605    96312586.865 7      1492.245          29.200  
                                                                
  20078132.688                   105511363.627 7       152.030          49.300  
                  20078139.578    82216642.387 9       118.464          43.600  
                                                                
  22014146.406                   115685080.393 6      2306.371          46.100  
                  22014153.590    90144285.009 8      1797.167          36.100  
                                                                
  23469444.898                   123332744.292 6     -2248.802          42.400  
                  23469451.109    96103471.953 6     -1752.307          25.300  
                                                                
  23937261.633                   125791119.187 5      2748.404          40.000  
                  23937267.781    98019114.595 6      2141.620          25.100  
                                                                
  23758041.852                   124849310.068 4     -2949.719          37.300  
                  23758052.629    97285213.790 6     -2298.483          22.600  
                                                                
  22118593.211                   116233991.081 7      2728.098          50.800  
                  22118600.590    90571979.646 8      2125.790          38.500  
                                                                
  20868743.625                   109665923.565 7     -1599.482          51.300  
                  20868752.773    85454054.860 9     -1246.349          45.600  
                                                                
  21477670.688    21477669.762   114810425.458 5     -1849.943          39.300  
  21477674.840    21477676.191    89297052.645 7     -1438.836          27.400  
                                                                
  20420594.875    20420594.051   108968227.711 4       453.864          38.500  
                                                                                
                                                                
  23114378.102    23114378.723   123733042.451 3      2174.969          36.500  
  23114386.078    23114384.816    96236873.349 8      1691.639          37.400  
                                                                
  22219389.758    22219389.691   118733687.942 5      -218.542          39.200  
  22219397.309    22219397.723    92348476.762 8      -169.967          34.400  
                                                                
  22097801.016    22097800.422   118042455.729 4      3273.522          37.900  
  22097805.082    22097807.391    91810858.497 8      2546.073          37.000  
                                                                
  21622631.789    21622631.137   115625924.686 4     -3983.371          38.200  
  21622639.230    21622639.887    89931290.142 9     -3098.177          41.800  
                                                                
  20209233.164    20209233.012   108143663.533 7      -498.271          45.300  
  20209239.152    20209239.426    84111774.009 9      -387.548          45.900  
                                                                
  23008600.508    23008599.473   122821487.817 6      3296.720          41.400  
  23008605.746    23008606.664    95527834.414 8      2564.117          39.800  
                                                                
 18 07 01  0  1  0.0000000  0 19G01G08G10G11G14G18G20G22G27G31G32R05 0.000000000
                                R06R07R15R16R20R21R22       
  23791536.359                   125025379.052 3      3329.171          36.900  
                  23791545.816    97422404.316 6      2594.162          25.700  
                                                                
  23319659.195                   122545600.989 6     -1919.567          42.400  
                  23319668.582    95490119.728 7     -1495.771          30.800  
                                                                
  21835291.156                   114745222.806 7     -1536.810          50.100  
                  21835299.793    89411910.257 8     -1197.509          39.800  
                                                                
  23518691.078                   123591574.568 6      1912.937          44.100  
                  23518697.461    96305130.440 7      1490.596          29.200  
                                                                
  20077989.625                   105510611.273 7       149.382          48.800  
                  20077995.953    82216056.136 9       116.402          43.400  
                                                                
  22011952.836                   115673554.306 6      2304.425          47.000  
                  22011960.301    90135303.644 8      1795.654          35.900  
                                                                
  23471584.203                   123343990.688 5     -2249.632          41.800  
                  23471591.133    96112235.379 7     -1752.955          26.500  
                                                                
  23934647.188                   125777377.154 5      2748.372          40.000  
                  23934652.137    98008406.509 6      2141.591          21.700  
                                                                
  23760849.234                   124864059.536 3     -2950.038          36.800  
                  23760859.691    97296706.891 6     -2298.733          22.800  
                                                                
  22115998.445                   116220355.637 7      2726.381          50.600  
                  22116005.625    90561354.629 8      2124.450          38.700  
                                                                
  20870266.266                   109673925.922 7     -1601.169          51.900  
                  20870275.043    85460290.461 9     -1247.667          45.700  
                                                                
  21479401.023    21479400.027   114819675.863 4     -1850.232          38.800  
  21479405.023    21479406.590    89304247.416 7     -1439.063          28.400  
                                                                
  20420170.234    20420169.480   108965960.951 4       452.962          38.100  
                                                                                
                                                                
  23112348.305    23112348.199   123722169.392 2      2174.333          35.000  
  23112353.887    23112354.348    96228416.527 8      1691.155          36.900  
                                                                
  22219596.086    22219596.277   118734793.063 5      -222.716          39.500  
  22219604.332    22219604.586    92349336.314 8      -173.231          34.300  
                                                                
  22094738.016    22094737.023   118026093.516 4      3271.731          38.200  
  22094742.922    22094743.461    91798132.337 8      2544.682          37.700  
                                                                
  21626357.852    21626356.355   115645847.257 4     -3985.265          37.400  
  21626365.316    21626365.426    89946785.472 9     -3099.653          41.600  
                                                                
  20209701.500    20209700.902   108146168.589 7      -502.863          45.200  
  20209706.711    20209707.781    84113722.376 9      -391.114          46.100  
                                                                
  23005514.297    23005513.707   122805012.606 5      3293.916          40.400  
  23005519.328    23005520.184    95515020.355 8      2561.937          39.100  
                                                                
 18 07 01  0  1  5.0000000  0 19G01G08G10G11G14G18G20G22G27G31G32R05 0.000000000
                                R06R07R15R16R20R21R22       
  23788369.086                   125008735.746 4      3328.332          37.400  
                  23788378.703    97409435.492 6      2593.512          22.900  
                                                                
  23321486.430                   122555204.328 6     -1921.371          42.600  
                  23321495.828    95497602.851 7     -1497.177          30.500  
                                                                
  21836753.820                   114752909.703 7     -1537.726          50.200  
                  21836763.102    89417900.041 8     -1198.228          40.200  
                                                                
  23516871.914                   123582015.998 6      1910.921          43.700  
                  23516878.676    96297682.198 7      1489.030          27.400  
                                                                
  20077849.211                   105509872.072 7       146.830          48.600  
                  20077855.797    82215480.137 9       114.411          44.100  
                                                                
  22009761.953                   115662038.033 6      2302.531          46.000  
                  22009769.305    90126329.920 8      1794.183          36.700  
                                                                
  23473725.656                   123355241.235 6     -2250.406          42.100  
                  23473732.352    96121002.035 7     -1753.570          26.800  
                                                                
  23932032.211                   125763635.390 5      2748.393          40.300  
                  23932036.781    97997698.645 6      2141.607          22.300  
                                                                
  23763655.984                   124878810.518 3     -2950.245          36.900  
                  23763667.027    97308201.136 6     -2298.879          24.700  
                                                                
  22113405.281                   116206728.695 7      2724.750          51.000  
                  22113412.258    90550736.239 8      2123.181          39.000  
                                                                
  20871790.945                   109681936.617 7     -1602.754          51.300  
                  20871799.621    85466532.555 9     -1248.898          45.700  
                                                                
  21481130.945    21481131.262   114828927.798 5     -1850.462          39.200  
  21481136.617    21481137.363    89311443.371 7     -1439.255          27.400  
                                                                
  20419746.414    20419745.965   108963699.048 4       452.031          38.600  
                                                                                
                                                                
  23110317.625    23110317.191   123711299.531 2      2173.781          35.000  
  23110325.086    23110323.691    96219962.186 8      1690.719          37.000  
                                                                
  22219806.914    22219807.621   118735919.197 4      -226.860          38.600  
  22219813.883    22219815.367    92350212.189 8      -176.450          33.400  
                                                                
  22091677.617    22091676.367   118009740.122 4      3270.038          38.700  
  22091681.480    22091682.500    91785413.040 8      2543.364          37.100  
                                                                
  21630084.633    21630084.168   115665779.131 3     -3987.054          37.000  
  21630093.418    21630092.703    89962288.039 9     -3101.039          41.300  
                                                                
  20210174.313    20210173.879   108148696.545 7      -507.413          45.700  
  20210179.477    20210180.051    84115688.559 9      -394.657          46.100  
                                                                
  23002431.156    23002430.402   122788551.292 5      3291.215          39.900  
  23002435.363    23002437.043    95502217.124 8      2559.829          38.800  
                                                                
 18 07 01  0  1 10.0000000  0 19G01G08G10G11G14G18G20G22G27G31G32R05 0.000000000
                                R06R07R15R16R20R21R22       
  23785202.578                   124992097.078 3      3327.437          36.800  
                  23785212.617    97396470.300 6      2592.811          22.600  
                                                                
  23323315.805                   122564816.918 6     -1923.215          42.500  
                  23323325.191    95505093.181 7     -1498.608          30.200  
                                                                
  21838217.414                   114760601.418 7     -1538.683          50.100  
                  21838226.512    89423893.583 8     -1198.968          40.200  
                                                                
  23515055.391                   123572467.833 6      1908.833          43.800  
                  23515061.383    96290242.076 7      1487.412          28.300  
                                                                
  20077710.633                   105509145.838 7       144.247          49.900  
                  20077717.461    82214914.239 9       112.402          43.400  
                                                                
  22007572.313                   115650531.380 6      2300.592          45.700  
                  22007579.148    90117363.703 8      1792.663          37.100  
                                                                
  23475867.133                   123366495.776 5     -2251.160          42.000  
                  23475874.078    96129771.805 7     -1754.166          26.300  
                                                                
  23929417.242                   125749893.700 5      2748.374          40.200  
                  23929421.266    97986990.843 6      2141.574          25.300  
                                                                
  23766464.086                   124893562.838 4     -2950.529          38.300  
                  23766473.832    97319696.461 6     -2299.110          25.500  
                                                                
  22110813.914                   116193110.086 7      2723.082          50.900  
                  22110820.852    90540124.341 8      2121.885          38.700  
                                                                
  20873316.813                   109689955.511 7     -1604.390          51.800  
                  20873325.977    85472781.049 9     -1250.176          45.700  
                                                                
  21482862.336    21482862.137   114838180.904 5     -1850.652          39.200  
  21482868.297    21482868.195    89318640.236 7     -1439.411          28.300  
                                                                
  20419324.859    20419322.652   108961441.635 4       451.182          38.600  
                                                                                
                                                                
  23108286.320    23108286.918   123700432.636 2      2173.178          34.700  
  23108293.457    23108293.840    96211510.181 8      1690.242          37.000  
                                                                
  22220022.055    22220022.457   118737066.199 4      -230.987          39.000  
  22220029.168    22220030.504    92351104.288 8      -179.651          34.000  
                                                                
  22088615.508    22088616.250   117993395.558 4      3268.290          38.800  
  22088620.012    22088622.254    91772700.616 8      2542.006          37.000  
                                                                
  21633813.531    21633813.020   115685720.453 4     -3988.976          37.500  
  21633822.074    21633821.711    89977797.948 9     -3102.534          41.800  
                                                                
  20210650.859    20210650.543   108151247.147 7      -511.898          45.500  
  20210656.020    20210657.180    84117672.353 9      -398.143          45.700  
                                                                
  22999350.438    22999349.047   122772103.809 5      3288.443          40.000  
  22999353.469    22999355.238    95489424.628 8      2557.680          39.200  
                                                                
 18 07 01  0  1 15.0000000  0 19G01G08G10G11G14G18G20G22G27G31G32R05 0.000000000
                                R06R07R15R16R20R21R22       
  23782037.125                   124975463.098 3      3326.468          36.700  
                  23782047.313    97383508.775 6      2592.049          25.100  
                                                                
  23325146.586                   122574438.990 6     -1925.163          42.100  
                  23325155.680    95512590.894 7     -1500.125          29.900  
                                                                
  21839682.109                   114768298.102 7     -1539.733          50.300  
                  21839691.559    89429891.001 8     -1199.791          40.300  
                                                                
  23513240.266                   123562930.147 6      1906.698          43.400  
                  23513246.840    96282810.114 7      1485.740          28.500  
                                                                
  20077575.203                   105508432.689 7       141.585          49.500  
                  20077581.539    82214358.539 9       110.331          43.600  
                                                                
  22005384.055                   115639034.522 6      2298.584          46.400  
                  22005391.480    90108405.111 8      1791.103          36.700  
                                                                
  23478009.219                   123377754.406 5     -2252.042          42.000  
                  23478016.395    96138544.756 6     -1754.837          25.800  
                                                                
  23926801.211                   125736152.185 5      2748.305          40.500  
                  23926806.750    97976283.162 6      2141.539          24.100  
                                                                
  23769271.539                   124908316.592 4     -2950.850          37.500  
                  23769281.746    97331192.887 6     -2299.377          22.900  
                                                                
  22108223.797                   116179499.972 7      2721.340          51.000  
                  22108231.035    90529519.070 8      2120.525          39.100  
                                                                
  20874844.266                   109697982.670 8     -1606.083          52.100  
                  20874853.035    85479035.971 9     -1251.486          45.800  
                                                                
  21484594.641    21484593.195   114847435.466 4     -1851.039          38.700  
  21484601.016    21484599.906    89325838.203 7     -1439.685          27.400  
                                                                
  20418901.188    20418900.293   108959188.652 4       450.259          38.500  
                                                                                
                                                                
  23106257.398    23106257.387   123689568.919 3      2172.495          36.100  
  23106263.930    23106263.863    96203060.617 8      1689.718          36.800  
                                                                
  22220240.086    22220240.980   118738234.018 4      -235.216          38.600  
  22220247.180    22220248.402    92352012.599 8      -182.948          33.800  
                                                                
  22085558.047    22085558.109   117977059.755 4      3266.449          38.700  
  22085563.059    22085564.367    91759995.003 8      2540.570          37.100  
                                                                
  21637545.164    21637543.996   115705670.875 3     -3990.788          36.700  
  21637552.660    21637552.766    89993314.939 9     -3103.948          41.800  
                                                                
  20211131.961    20211131.035   108153820.583 7      -516.537          45.500  
  20211136.855    20211137.398    84119673.918 9      -401.750          46.000  
                                                                
  22996271.570    22996270.273   122755670.258 5      3285.576          39.200  
  22996275.262    22996277.125    95476642.969 8      2555.455          39.300  
                                                                
 18 07 01  0  1 20.0000000  0 19G01G08G10G11G14G18G20G22G27G31G32R05 0.000000000
                                R06R07R15R16R20R21R22       
  23778872.500                   124958833.935 3      3325.431          36.800  
                  23778883.504    97370550.979 6      2591.236          24.200  
                                                                
  23326979.328                   122584070.486 6     -1927.087          42.500  
                  23326989.164    95520095.955 7     -1501.628          29.100  
                                                                
  21841148.172                   114775999.753 7     -1540.763          49.900  
                  21841156.957    89435892.281 8     -1200.594          40.600  
                                                                
  23511426.930                   123553403.011 6      1904.541          43.500  
                  23511433.637    96275386.384 7      1484.049          28.900  
                                                                
  20077442.375                   105507732.648 7       138.927          48.700  
                  20077448.824    82213813.053 9       108.257          43.400  
                                                                
  22003198.406                   115627547.452 6      2296.598          45.400  
                  22003205.742    90099454.140 8      1789.561          36.500  
                                                                
  23480152.875                   123389017.180 5     -2252.902          41.500  
                  23480160.129    96147320.942 6     -1755.511          25.800  
                                                                
  23924186.438                   125722410.850 5      2748.215          40.300  
                  23924192.461    97965575.630 6      2141.459          23.400  
                                                                
  23772078.664                   124923071.848 4     -2951.208          38.000  
                  23772089.297    97342690.460 6     -2299.624          22.800  
                                                                
  22105635.602                   116165898.383 7      2719.602          51.400  
                  22105642.668    90518920.435 8      2119.171          39.300  
                                                                
  20876373.461                   109706018.146 7     -1607.788          50.800  
                  20876382.445    85485297.382 9     -1252.823          45.800  
                                                                
  21486325.203    21486324.840   114856691.436 5     -1851.334          39.300  
  21486331.664    21486331.211    89333037.298 7     -1439.932          28.100  
                                                                
  20418481.109    20418479.230   108956940.221 4       449.272          38.100  
                                                                                
                                                                
  23104227.703    23104228.254   123678708.259 3      2171.886          35.200  
  23104234.934    23104235.082    96194613.441 8      1689.241          37.100  
                                                                
  22220464.602    22220463.738   118739422.898 4      -239.512          38.700  
  22220470.945    22220470.715    92352937.280 8      -186.285          34.800  
                                                                
  22082501.500    22082501.328   117960733.171 4      3264.595          37.900  
  22082506.848    22082507.457    91747296.555 8      2539.136          37.300  
                                                                
  21641276.625    21641277.238   115725630.602 3     -3992.718          36.300  
  21641285.309    21641285.191    90008839.161 9     -3105.444          41.600  
                                                                
  20211616.352    20211615.895   108156416.834 7      -521.124          45.600  
  20211621.707    20211622.887    84121693.226 9      -405.320          46.000  
                                                                
  22993194.633    22993194.582   122739250.610 4      3282.779          38.300  
  22993199.820    22993200.891    95463872.157 8      2553.271          39.500  
                                                                
 18 07 01  0  1 25.0000000  0 19G01G08G10G11G14G18G20G22G27G31G32R05 0.000000000
                                R06R07R15R16R20R21R22       
  23775708.742                   124942209.399 3      3324.516          36.800  
                  23775719.965    97357596.810 6      2590.535          24.700  
                                                                
  23328814.273                   122593711.196 5     -1928.902          41.200  
                  23328823.766    95527608.184 7     -1503.027          29.400  
                                                                
  21842614.461                   114783706.219 7     -1541.693          49.900  
                  21842623.105    89441897.320 8     -1201.321          39.900  
                                                                
  23509615.703                   123543886.229 6      1902.519          43.700  
                  23509622.945    96267970.692 7      1482.488          29.000  
                                                                
  20077311.313                   105507045.555 7       136.385          48.600  
                  20077317.969    82213277.654 9       106.278          43.400  
                                                                
  22001014.430                   115616070.090 6      2294.683          46.900  
                  22001021.512    90090510.745 8      1788.063          37.300  
                                                                
  23482296.891                   123400283.918 5     -2253.679          41.300  
                  23482304.031    96156100.212 7     -1756.108          27.200  
                                                                
  23921572.563                   125708669.620 5      2748.240          39.700  
                  23921578.059    97954868.208 6      2141.462          23.200  
                                                                
  23774887.047                   124937828.304 4     -2951.397          37.400  
                  23774897.574    97354189.015 6     -2299.796          24.100  
                                                                
  22103048.805                   116152305.121 7      2717.979          51.000  
                  22103055.973    90508328.291 8      2117.900          39.000  
                                                                
  20877904.008                   109714061.748 7     -1609.381          51.500  
                  20877913.121    85491565.124 9     -1254.064          45.600  
                                                                
  21488057.398    21488056.332   114865948.644 5     -1851.548          39.400  
  21488064.910    21488063.188    89340237.345 7     -1440.094          27.600  
                                                                
  20418059.867    20418058.785   108954696.373 4       448.367          38.400  
                                                                                
                                                                
  23102199.234    23102199.785   123667850.676 3      2171.223          35.500  
  23102207.699    23102206.793    96186168.660 8      1688.729          36.800  
                                                                
  22220689.398    22220689.660   118740632.555 4      -243.578          38.000  
  22220696.824    22220697.328    92353878.134 8      -189.449          34.100  
                                                                
  22079447.227    22079446.820   117944415.276 4      3262.875          38.100  
  22079453.238    22079453.207    91734604.873 8      2537.783          37.500  
                                                                
  21645012.484    21645011.926   115745599.510 3     -3994.549          36.300  
  21645019.566    21645018.770    90024370.534 9     -3106.871          41.300  
                                                                
  20212105.359    20212105.324   108159035.719 7      -525.592          45.200  
  20212111.410    20212111.992    84123730.132 9      -408.790          45.900  
                                                                
  22990120.375    22990121.051   122722844.897 4      3280.041          38.100  
  22990127.008    22990127.742    95451112.168 8      2551.134          38.900  
                                                                
 18 07 01  0  1 30.0000000  0 19G01G08G10G11G14G18G20G22G27G31G32R05 0.000000000
                                R06R07R15R16R20R21R22       
  23772546.328                   124925589.548 3      3323.581          36.900  
                  23772557.305    97344646.289 6      2589.791          24.300  
                                                                
  23330650.016                   122603361.300 5     -1930.802          41.500  
                  23330659.918    95535127.752 7     -1504.517          30.200  
                                                                
  21844081.836                   114791417.605 7     -1542.702          50.000  
                  21844090.879    89447906.194 8     -1202.109          40.700  
                                                                
  23507807.273                   123534379.923 6      1900.391          44.100  
                  23507813.875    96260563.201 7      1480.815          28.200  
                                                                
  20077183.156                   105506371.513 7       133.730          49.300  
                  20077189.652    82212752.430 9       104.206          44.100  
                                                                
  21998832.211                   115604602.504 7      2292.691          47.200  
                  21998839.074    90081574.959 8      1786.514          36.700  
                                                                
  23484441.570                   123411554.719 5     -2254.529          41.000  
                  23484448.852    96164882.653 7     -1756.782          27.000  
                                                                
  23918956.813                   125694928.522 5      2748.162          40.900  
                  23918963.289    97944160.854 6      2141.422          24.100  
                                                                
  23777695.078                   124952586.141 4     -2951.691          37.600  
                  23777705.844    97365688.602 6     -2300.023          23.300  
                                                                
  22100464.039                   116138720.346 7      2716.242          51.300  
                  22100470.988    90497742.758 8      2116.553          39.200  
                                                                
  20879436.406                   109722113.568 8     -1611.054          52.300  
                  20879445.102    85497839.279 9     -1255.367          45.300  
                                                                
  21489788.813    21489788.379   114875207.167 5     -1851.815          39.900  
  21489795.332    21489795.090    89347438.414 7     -1440.297          27.600  
                                                                
  20417641.211    20417639.215   108952457.059 4       447.472          37.900  
                                                                                
                                                                
  23100171.930    23100171.754   123656996.094 3      2170.634          37.000  
  23100179.293    23100178.754    96177726.201 8      1688.268          37.000  
                                                                
  22220919.570    22220920.559   118741863.039 4      -247.783          38.300  
  22220927.980    22220927.402    92354835.168 8      -192.718          34.600  
                                                                
  22076394.820    22076393.641   117928106.257 4      3261.067          37.700  
  22076398.109    22076399.813    91721920.089 8      2536.381          37.600  
                                                                
  21648748.063    21648747.668   115765577.584 3     -3996.347          36.500  
  21648755.281    21648755.520    90039909.030 9     -3108.269          41.600  
                                                                
  20212599.414    20212599.121   108161677.399 6      -530.174          45.000  
  20212604.633    20212605.953    84125784.769 9      -412.353          45.700  
                                                                
  22987049.844    22987050.145   122706453.125 4      3277.202          37.900  
  22987054.512    22987056.711    95438363.002 8      2548.939          38.500  
                                                                
 18 07 01  0  1 35.0000000  0 19G01G08G10G11G14G18G20G22G27G31G32R05 0.000000000
                                R06R07R15R16R20R21R22       
  23769384.656                   124908974.453 3      3322.658          36.900  
                  23769395.430    97331699.464 6      2589.083          24.400  
                                                                
  23332487.836                   122613020.797 5     -1932.619          41.600  
                  23332498.039    95542654.625 7     -1505.936          28.100  
                                                                
  21845549.875                   114799133.888 7     -1543.631          49.900  
                  21845559.168    89453918.872 8     -1202.828          39.900  
                                                                
  23506000.352                   123524884.066 6      1898.362          43.700  
                  23506006.664    96253163.829 7      1479.239          29.500  
                                                                
  20077056.781                   105505710.486 7       131.184          48.600  
                  20077063.402    82212237.344 9       102.223          43.900  
                                                                
  21996651.719                   115593144.653 7      2290.827          47.200  
                  21996658.957    90072646.769 8      1785.058          36.900  
                                                                
  23486586.836                   123422829.575 5     -2255.269          41.400  
                  23486594.449    96173668.254 7     -1757.355          27.000  
                                                                
  23916342.594                   125681187.617 5      2748.191          40.900  
                  23916348.352    97933453.658 6      2141.452          24.700  
                                                                
  23780503.625                   124967345.309 4     -2951.899          38.000  
                  23780514.977    97377189.242 6     -2300.175          24.700  
                                                                
  22097880.141                   116125144.053 7      2714.596          51.700  
                  22097887.055    90487163.839 8      2115.268          39.300  
                                                                
  20880970.180                   109730173.559 7     -1612.633          51.300  
                  20880979.016    85504119.787 9     -1256.601          45.500  
                                                                
  21491522.211    21491520.531   114884467.036 5     -1852.061          39.900  
  21491526.559    21491527.305    89354640.530 7     -1440.485          28.100  
                                                                
  20417221.609    20417220.129   108950222.175 5       446.641          39.200  
                                                                                
                                                                
  23098145.391    23098145.074   123646144.533 3      2170.077          35.800  
  23098151.613    23098151.832    96169286.095 8      1687.834          36.700  
                                                                
  22221153.578    22221154.215   118743114.490 4      -251.966          38.200  
  22221161.574    22221161.648    92355808.521 8      -195.968          34.100  
                                                                
  22073342.430    22073342.258   117911806.341 3      3259.265          37.000  
  22073347.418    22073349.090    91709242.377 8      2534.991          37.300  
                                                                
  21652484.547    21652485.066   115785564.815 3     -3998.135          36.200  
  21652493.117    21652493.539    90055454.641 9     -3109.660          41.100  
                                                                
  20213097.664    20213097.301   108164341.794 6      -534.656          44.400  
  20213103.008    20213104.082    84127857.077 9      -415.842          45.700  
                                                                
  22983982.703    22983982.020   122690075.292 4      3274.477          37.800  
  22983987.039    22983988.367    95425624.699 8      2546.813          38.100  
                                                                
 18 07 01  0  1 40.0000000  0 19G01G08G10G11G14G18G20G22G27G31G32R05 0.000000000
                                R06R07R15R16R20R21R22       
  23766223.938                   124892364.029 4      3321.776          37.300  
                  23766234.301    97318756.288 6      2588.387          23.400  
                                                                
  23334327.852                   122622689.476 5     -1934.443          40.500  
                  23334337.992    95550188.664 7     -1507.365          28.600  
                                                                
  21847019.211                   114806855.039 7     -1544.576          50.500  
                  21847028.508    89459935.347 8     -1203.567          40.300  
                                                                
  23504194.852                   123515398.670 6      1896.284          43.900  
                  23504201.613    96245772.600 7      1477.627          28.000  
                                                                
  20076933.773                   105505062.451 7       128.617          49.100  
                  20076940.688    82211732.384 9       100.219          43.500  
                                                                
  21994472.938                   115581696.533 7      2288.892          47.400  
                  21994480.363    90063726.154 8      1783.551          36.900  
                                                                
  23488733.492                   123434108.477 5     -2256.072          41.500  
                  23488740.961    96182457.012 7     -1757.984          26.100  
                                                                
  23913728.102                   125667446.877 5      2748.162          41.200  
                  23913733.348    97922746.589 6      2141.441          24.900  
                                                                
  23783313.055                   124982105.770 4     -2952.159          38.800  
                  23783323.414    97388690.907 6     -2300.364          24.000  
                                                                
  22095298.234                   116111576.213 7      2712.936          51.400  
                  22095305.387    90476591.504 8      2113.971          39.400  
                                                                
  20882505.516                   109738241.737 7     -1614.245          51.700  
                  20882514.574    85510406.672 9     -1257.852          45.400  
                                                                
  21493253.469    21493253.246   114893728.211 5     -1852.286          39.900  
  21493259.246    21493260.039    89361843.678 7     -1440.670          28.500  
                                                                
  20416803.445    20416802.551   108947991.949 4       445.730          38.600  
                                                                                
                                                                
  23096117.102    23096117.820   123635296.042 3      2169.547          36.600  
  23096126.992    23096125.563    96160848.397 8      1687.429          36.700  
                                                                
  22221392.680    22221393.059   118744386.845 4      -256.138          38.300  
  22221401.371    22221399.816    92356798.122 8      -199.219          34.100  
                                                                
  22070294.406    22070292.875   117895515.197 3      3257.531          36.100  
  22070297.711    22070299.371    91696571.495 8      2533.635          37.600  
                                                                
  21656224.953    21656224.840   115805561.266 3     -3999.971          36.100  
  21656232.734    21656232.875    90071007.424 8     -3111.082          40.500  
                                                                
  20213599.609    20213599.762   108167028.951 6      -539.189          44.100  
  20213605.195    20213605.617    84129947.082 9      -419.366          45.600  
                                                                
  22980918.297    22980917.168   122673711.422 4      3271.676          37.900  
  22980921.445    22980922.820    95412897.236 8      2544.635          37.500  
                                                                
 18 07 01  0  1 45.0000000  0 19G01G08G10G11G14G18G20G22G27G31G32R05 0.000000000
                                R06R07R15R16R20R21R22       
  23763063.844                   124875758.506 4      3320.690          37.200  
                  23763074.215    97305816.917 7      2587.546          26.200  
                                                                
  23336169.547                   122632367.486 5     -1936.383          40.900  
                  23336179.805    95557729.951 7     -1508.870          28.600  
                                                                
  21848489.430                   114814581.193 7     -1545.653          50.300  
                  21848498.625    89465955.732 8     -1204.409          40.300  
                                                                
  23502392.039                   123505923.845 6      1894.099          43.800  
                  23502398.539    96238389.621 7      1475.918          29.200  
                                                                
  20076812.742                   105504427.492 7       125.935          48.700  
                  20076819.250    82211237.612 9        98.128          44.100  
                                                                
  21992296.578                   115570258.242 6      2286.879          46.600  
                  21992303.824    90054813.203 8      1781.979          36.700  
                                                                
  23490880.227                   123445391.484 5     -2256.958          41.800  
                  23490887.695    96191248.963 6     -1758.669          25.800  
                                                                
  23911113.469                   125653706.402 5      2748.056          40.700  
                  23911118.277    97912039.732 6      2141.337          23.900  
                                                                
  23786122.375                   124996867.619 4     -2952.492          38.900  
                  23786132.418    97400193.643 6     -2300.665          23.200  
                                                                
  22092718.063                   116098016.988 7      2711.144          50.600  
                  22092725.059    90466025.880 8      2112.574          39.500  
                                                                
  20884042.305                   109746318.169 7     -1615.958          51.500  
                  20884051.438    85516699.998 9     -1259.188          45.500  
                                                                
  21494987.422    21494986.402   114902990.843 5     -1852.652          39.900  
  21494993.781    21494993.094    89369047.923 7     -1440.943          28.300  
                                                                
  20416387.758    20416385.176   108945766.198 4       444.731          38.700  
                                                                                
                                                                
  23094092.805    23094092.465   123624450.641 3      2168.832          36.900  
  23094100.156    23094099.625    96152413.089 8      1686.866          36.700  
                                                                
  22221633.406    22221634.324   118745680.242 4      -260.389          38.100  
  22221641.988    22221641.570    92357804.097 8      -202.527          33.900  
                                                                
  22067245.188    22067245.461   117879233.239 4      3255.665          37.100  
  22067250.547    22067251.711    91683907.757 8      2532.188          36.900  
                                                                
  21659964.984    21659966.352   115825566.961 3     -4001.903          36.000  
  21659973.887    21659973.039    90086567.404 8     -3112.595          40.900  
                                                                
  20214106.477    20214106.137   108169738.955 6      -543.851          44.700  
  20214111.727    20214111.969    84132054.855 9      -422.989          45.500  
                                                                
  22977854.117    22977853.457   122657361.586 3      3268.818          36.100  
  22977857.652    22977859.434    95400180.709 8      2542.396          37.900  
                                                                
 18 07 01  0  1 50.0000000  0 19G01G08G10G11G14G18G20G22G27G31G32R05 0.000000000
                                R06R07R15R16R20R21R22       
  23759904.047                   124859157.683 3      3319.776          36.700  
                  23759915.012    97292881.201 6      2586.841          25.600  
                                                                
  23338012.375                   122642054.780 5     -1938.212          41.300  
                  23338023.516    95565278.473 7     -1510.283          28.800  
                                                                
  21849960.906                   114822312.206 7     -1546.590          50.000  
                  21849969.875    89471979.888 8     -1205.136          40.000  
                                                                
  23500590.906                   123496459.480 6      1892.019          44.300  
                  23500597.445    96231014.791 7      1474.288          28.000  
                                                                
  20076694.711                   105503805.556 7       123.338          48.100  
                  20076701.184    82210752.979 9        96.108          43.500  
                                                                
  21990122.156                   115558829.752 7      2284.921          47.900  
                  21990129.055    90045907.882 8      1780.457          36.300  
                                                                
  23493028.867                   123456678.555 5     -2257.746          41.200  
                  23493035.816    96200044.064 7     -1759.278          26.300  
                                                                
  23908497.813                   125639966.055 5      2748.055          40.300  
                  23908503.473    97901332.963 6      2141.347          24.800  
                                                                
  23788930.891                   125011630.724 4     -2952.722          39.000  
                  23788941.813    97411697.355 6     -2300.816          24.800  
                                                                
  22090139.914                   116084466.263 7      2709.457          51.000  
                  22090146.703    90455466.877 8      2111.265          39.000  
                                                                
  20885580.414                   109754402.730 7     -1617.572          52.000  
                  20885589.758    85522999.657 9     -1260.450          45.700  
                                                                
  21496720.039    21496719.699   114912254.740 5     -1852.898          39.800  
  21496725.945    21496725.234    89376253.185 7     -1441.150          27.300  
                                                                
  20415971.648    20415969.254   108943545.002 4       443.832          38.300  
                                                                                
                                                                
  23092068.438    23092067.629   123613608.237 3      2168.199          36.100  
  23092074.574    23092073.816    96143980.100 8      1686.382          36.300  
                                                                
  22221880.969    22221880.691   118746994.389 4      -264.480          37.500  
  22221887.305    22221887.969    92358826.210 8      -205.709          34.300  
                                                                
  22064198.258    22064198.508   117862960.279 4      3253.865          37.200  
  22064204.555    22064205.086    91671251.011 8      2530.780          37.600  
                                                                
  21663709.492    21663709.215   115845581.622 3     -4003.651          36.000  
  21663716.953    21663716.227    90102134.355 9     -3113.952          41.200  
                                                                
  20214616.961    20214616.855   108172471.584 7      -548.348          45.500  
  20214622.141    20214622.355    84134180.231 9      -426.492          45.600  
                                                                
  22974793.578    22974793.082   122641025.838 3      3266.078          36.700  
  22974798.129    22974800.008    95387475.131 8      2540.285          38.100  
                                                                
 18 07 01  0  1 55.0000000  0 19G01G08G10G11G14G18G20G22G27G31G32R05 0.000000000
                                R06R07R15R16R20R21R22       
  23756746.750                   124842561.723 3      3318.819          36.300  
                  23756757.270    97279949.318 6      2586.082          23.900  
                                                                
  23339857.430                   122651751.294 5     -1940.041          41.400  
                  23339868.469    95572834.202 7     -1511.714          28.300  
                                                                
  21851433.055                   114830048.251 7     -1547.596          49.400  
                  21851442.156    89478007.976 8     -1205.918          40.200  
                                                                
  23498791.867                   123487005.748 6      1889.912          43.500  
                  23498798.441    96223648.252 7      1472.647          27.900  
                                                                
  20076578.602                   105503196.737 7       120.733          49.100  
                  20076585.043    82210278.576 9        94.079          43.500  
                                                                
  21987949.195                   115547411.172 7      2282.945          47.900  
                  21987956.461    90037010.281 8      1778.919          36.000  
                                                                
  23495176.961                   123467969.783 5     -2258.572          40.900  
                  23495183.953    96208842.420 7     -1759.927          27.400  
                                                                
  23905883.109                   125626226.031 5      2747.996          40.600  
                  23905888.570    97890626.447 6      2141.309          23.500  
                                                                
  23791741.313                   125026395.195 4     -2953.004          37.700  
                  23791751.270    97423202.144 6     -2301.049          24.300  
                                                                
  22087562.719                   116070924.162 7      2707.735          51.700  
                  22087569.625    90444914.604 8      2109.914          39.300  
                                                                
  20887120.898                   109762495.578 7     -1619.217          51.600  
                  20887129.563    85529305.768 9     -1261.726          45.800  
                                                                
  21498454.344    21498452.805   114921520.068 5     -1853.190          39.400  
  21498457.797    21498458.563    89383459.556 7     -1441.371          27.200  
                                                                
  20415554.016    20415553.402   108941328.374 4       442.970          38.600  
                                                                                
                                                                
  23090042.711    23090043.027   123602768.981 2      2167.585          34.700  
  23090048.758    23090048.645    96135549.564 8      1685.912          36.400  
                                                                
  22222130.383    22222130.621   118748329.510 4      -268.697          38.300  
  22222137.250    22222137.371    92359864.631 8      -208.984          34.500  
                                                                
  22061154.328    22061154.063   117846696.345 3      3252.070          36.600  
  22061158.926    22061160.480    91658601.287 8      2529.380          37.700  
                                                                
  21667453.609    21667453.730   115865605.541 3     -4005.500          35.400  
  21667461.504    21667461.191    90117708.497 8     -3115.387          41.000  
                                                                
  20215131.602    20215131.379   108175227.061 7      -552.914          45.500  
  20215137.176    20215137.039    84136323.380 9      -430.050          45.100  
                                                                
  22971734.297    22971734.387   122624704.155 4      3263.250          37.900  
  22971740.156    22971741.914    95374780.484 8      2538.087          38.100  
                                                                
 18 07 01  0  2  0.0000000  0 19G01G08G10G11G14G18G20G22G27G31G32R05 0.000000000
                                R06R07R15R16R20R21R22       
  23753590.211                   124825970.521 4      3317.881          37.800  
                  23753600.309    97267021.117 6      2585.347          24.800  
                                                                
  23341705.031                   122661457.039 5     -1941.880          40.600  
                  23341715.500    95580397.108 7     -1513.158          27.400  
                                                                
  21852906.352                   114837789.122 7     -1548.550          49.900  
                  21852915.195    89484039.815 8     -1206.661          40.300  
                                                                
  23496994.844                   123477562.455 6      1887.830          43.500  
                  23497001.301    96216289.843 7      1471.030          27.900  
                                                                
  20076465.492                   105502600.819 7       118.162          48.600  
                  20076471.781    82209814.229 9        92.074          43.300  
                                                                
  21985778.008                   115536002.365 7      2281.010          47.800  
                  21985785.008    90028120.298 8      1777.412          37.500  
                                                                
  23497326.469                   123479264.999 5     -2259.357          40.500  
                  23497333.984    96217643.884 6     -1760.536          24.700  
                                                                
  23903269.148                   125612486.102 5      2747.993          39.300  
                  23903274.352    97879920.027 6      2141.262          24.900  
                                                                
  23794550.813                   125041160.852 4     -2953.204          38.300  
                  23794560.668    97434707.835 6     -2301.188          23.200  
                                                                
  22084987.063                   116057390.509 7      2706.067          51.500  
                  22084993.883    90434368.903 8      2108.626          39.700  
                                                                
  20888662.375                   109770596.501 7     -1620.818          51.400  
                  20888671.039    85535618.179 9     -1262.978          45.400  
                                                                
  21500186.422    21500185.590   114930786.624 5     -1853.390          39.300  
  21500192.516    21500192.297    89390666.861 7     -1441.511          28.400  
                                                                
  20415140.688    20415139.160   108939116.157 4       442.104          38.300  
                                                                                
                                                                
  23088017.461    23088018.012   123591932.661 2      2167.048          35.000  
  23088025.227    23088024.191    96127121.338 8      1685.473          36.000  
                                                                
  22222384.820    22222384.004   118749685.574 5      -272.854          39.200  
  22222391.691    22222391.605    92360919.341 8      -212.222          34.800  
                                                                
  22058112.297    22058110.930   117830441.519 3      3250.269          36.900  
  22058116.691    22058117.953    91645958.641 8      2527.990          37.300  
                                                                
  21671199.867    21671199.426   115885638.397 3     -4007.287          35.800  
  21671208.074    21671206.965    90133289.599 8     -3116.777          40.800  
                                                                
  20215650.570    20215650.559   108178005.239 7      -557.442          45.300  
  20215656.313    20215656.570    84138484.183 9      -433.570          45.700  
                                                                
  22968680.383    22968679.418   122608396.440 4      3260.489          38.100  
  22968685.746    22968687.324    95362096.735 8      2535.923          38.900  
                                                                
 18 07 01  0  2  5.0000000  0 19G01G08G10G11G14G18G20G22G27G31G32R05 0.000000000
                                R06R07R15R16R20R21R22       
  23750434.305                   124809384.163 4      3316.920          37.600  
                  23750444.402    97254096.670 7      2584.620          26.300  
                                                                
  23343553.070                   122671172.068 5     -1943.705          39.700  
                  23343564.184    95587967.255 7     -1514.574          27.200  
                                                                
  21854379.844                   114845534.923 7     -1549.519          50.400  
                  21854388.340    89490075.509 8     -1207.422          40.500  
                                                                
  23495199.563                   123468129.699 6      1885.737          43.300  
                  23495206.348    96208939.640 7      1469.401          29.300  
                                                                
  20076354.359                   105502017.921 7       115.572          48.800  
                  20076360.820    82209360.022 9        90.051          43.700  
                                                                
  21983609.211                   115524603.404 7      2279.054          47.600  
                  21983615.770    90019237.997 8      1775.894          36.900  
                                                                
  23499476.586                   123490564.284 5     -2260.143          40.400  
                  23499484.207    96226448.513 6     -1761.147          25.600  
                                                                
  23900654.125                   125598746.405 5      2747.957          39.200  
                  23900659.926    97869213.765 6      2141.243          23.900  
                                                                
  23797360.711                   125055927.797 4     -2953.413          38.100  
                  23797370.848    97446214.528 6     -2301.342          22.900  
                                                                
  22082413.523                   116043865.439 7      2704.372          51.400  
                  22082420.199    90423829.895 8      2107.306          39.200  
                                                                
  20890205.148                   109778705.577 7     -1622.424          51.500  
                  20890214.336    85541936.937 9     -1264.228          45.700  
                                                                
  21501920.438    21501920.402   114940054.583 5     -1853.651          39.100  
  21501926.547    21501925.977    89397875.281 7     -1441.728          29.200  
                                                                
  20414726.281    20414725.059   108936908.566 4       441.183          38.700  
                                                                                
                                                                
  23085993.250    23085994.273   123581099.351 3      2166.448          35.200  
  23086001.215    23086000.695    96118695.433 8      1685.021          36.400  
                                                                
  22222641.492    22222641.988   118751062.461 4      -276.976          38.100  
  22222649.836    22222649.051    92361990.259 8      -215.428          34.600  
                                                                
  22055071.641    22055070.227   117814195.708 4      3248.477          37.100  
  22055075.051    22055075.887    91633323.011 8      2526.593          37.000  
                                                                
  21674947.281    21674947.848   115905680.418 3     -4009.102          35.400  
  21674955.492    21674955.438    90148877.820 8     -3118.186          41.000  
                                                                
  20216174.219    20216173.973   108180806.115 7      -561.983          45.400  
  20216179.852    20216180.520    84140662.643 9      -437.100          45.200  
                                                                
  22965628.125    22965627.863   122592102.895 4      3257.625          37.900  
  22965633.031    22965635.012    95349423.972 8      2533.708          38.300  
                                                                
 18 07 01  0  2 10.0000000  0 19G01G08G10G11G14G18G20G22G27G31G32R05 0.000000000
                                R06R07R15R16R20R21R22       
  23747277.805                   124792802.532 4      3315.948          37.300  
                  23747288.441    97241175.916 6      2583.874          24.600  
                                                                
  23345404.258                   122680896.277 5     -1945.550          39.500  
                  23345414.770    95595544.545 7     -1516.017          26.800  
                                                                
  21855855.250                   114853285.626 7     -1550.511          50.200  
                  21855863.688    89496115.010 8     -1208.192          40.200  
                                                                
  23493406.813                   123458707.454 6      1883.620          42.800  
                  23493413.352    96201597.635 7      1467.753          28.500  
                                                                
  20076246.172                   105501447.973 7       112.966          48.700  
                  20076252.617    82208915.907 9        88.023          43.700  
                                                                
  21981441.516                   115513214.226 7      2277.081          47.200  
                  21981448.219    90010363.313 8      1774.348          36.800  
                                                                
  23501627.617                   123501867.651 5     -2260.981          40.800  
                  23501635.293    96235256.333 7     -1761.808          26.500  
                                                                
  23898039.695                   125585006.827 4      2747.976          38.300  
                  23898045.094    97858507.594 6      2141.305          24.700  
                                                                
  23800171.570                   125070695.953 4     -2953.713          38.600  
                  23800181.512    97457722.195 6     -2301.596          24.100  
                                                                
  22079841.406                   116030348.911 7      2702.637          51.300  
                  22079848.539    90413297.545 8      2105.951          39.600  
                                                                
  20891750.070                   109786822.762 7     -1624.056          50.600  
                  20891758.980    85548262.011 9     -1265.494          45.800  
                                                                
  21503654.680    21503653.777   114949323.842 5     -1853.929          39.400  
  21503661.039    21503660.305    89405084.701 7     -1441.935          26.700  
                                                                
  20414312.508    20414312.391   108934705.407 4       440.277          38.100  
                                                                                
                                                                
  23083969.680    23083970.207   123570269.048 3      2165.858          35.700  
  23083977.625    23083977.613    96110271.869 8      1684.561          36.300  
                                                                
  22222903.336    22222903.996   118752460.052 4      -281.156          38.200  
  22222910.395    22222910.293    92363077.276 8      -218.687          33.600  
                                                                
  22052031.047    22052030.570   117797958.946 3      3246.619          36.900  
  22052035.660    22052037.203    91620694.418 8      2525.151          37.100  
                                                                
  21678697.563    21678697.871   115925731.382 3     -4010.887          35.300  
  21678705.227    21678704.637    90164473.013 8     -3119.575          40.700  
                                                                
  20216701.664    20216701.582   108183629.704 6      -566.512          44.400  
  20216707.066    20216707.750    84142858.762 9      -440.617          45.600  
                                                                
  22962579.195    22962577.922   122575823.472 4      3254.779          38.500  
  22962583.547    22962585.543    95336762.202 8      2531.485          39.200  
                                                                
 18 07 01  0  2 15.0000000  0 19G01G08G10G11G14G18G20G22G27G31G32R05 0.000000000
                                R06R07R15R16R20R21R22       
  23744123.664                   124776225.800 4      3314.955          37.400  
                  23744134.355    97228258.997 6      2583.072          24.800  
                                                                
  23347255.500                   122690629.777 5     -1947.432          39.900  
                  23347266.824    95603129.078 7     -1517.479          26.500  
                                                                
  21857330.734                   114861041.256 7     -1551.499          50.200  
                  21857339.766    89502158.353 8     -1208.958          40.300  
                                                                
  23491616.289                   123449295.724 6      1881.521          43.900  
                  23491622.344    96194263.814 7      1466.128          27.900  
                                                                
  20076139.930                   105500891.002 7       110.378          49.200  
                  20076146.520    82208481.897 9        86.014          42.900  
                                                                
  21979276.570                   115501834.894 6      2275.082          46.000  
                  21979283.371    90001496.298 8      1772.792          37.300  
                                                                
  23503779.875                   123513175.087 5     -2261.814          40.400  
                  23503787.078    96244067.314 6     -1762.446          26.000  
                                                                
  23895425.898                   125571267.513 4      2747.839          37.700  
                  23895431.125    97847801.670 6      2141.181          25.200  
                                                                
  23802981.484                   125085465.304 5     -2953.970          39.800  
                  23802991.379    97469230.771 6     -2301.790          24.700  
                                                                
  22077270.977                   116016840.964 7      2700.918          51.300  
                  22077278.031    90402771.875 8      2104.617          39.500  
                                                                
  20893296.273                   109794948.102 8     -1625.705          52.100  
                  20893305.027    85554593.442 9     -1266.781          46.000  
                                                                
  21505388.750    21505388.176   114958594.371 5     -1854.203          39.200  
  21505393.602    21505394.250    89412295.107 7     -1442.145          28.000  
                                                                
  20413901.461    20413900.121   108932506.866 4       439.347          38.600  
                                                                                
                                                                
  23081946.141    23081947.492   123559441.816 3      2165.231          35.500  
  23081955.266    23081954.746    96101850.704 8      1684.076          36.400  
                                                                
  22223170.313    22223169.238   118753878.739 4      -285.422          38.600  
  22223175.754    22223176.605    92364180.689 8      -221.992          34.300  
                                                                
  22048993.656    22048992.945   117781731.429 4      3244.757          37.100  
  22048998.273    22048999.684    91608073.029 8      2523.702          36.700  
                                                                
  21682449.820    21682448.723   115945791.275 3     -4012.710          35.400  
  21682456.219    21682456.402    90180075.141 8     -3120.994          40.400  
                                                                
  20217233.852    20217233.840   108186475.976 6      -571.054          44.300  
  20217238.906    20217239.613    84145072.529 9      -444.151          45.500  
                                                                
  22959532.922    22959531.109   122559558.064 5      3251.960          39.400  
  22959537.367    22959539.383    95324111.333 8      2529.303          39.100  
                                                                
 18 07 01  0  2 20.0000000  0 19G01G08G10G11G14G18G20G22G27G31G32R05 0.000000000
                                R06R07R15R16R20R21R22       
  23740969.727                   124759653.843 3      3314.000          36.700  
                  23740980.289    97215345.784 6      2582.337          25.300  
                                                                
  23349109.344                   122700372.321 4     -1949.250          38.500  
                  23349120.621    95610720.665 7     -1518.882          27.300  
                                                                
  21858807.539                   114868801.757 7     -1552.504          50.300  
                  21858816.844    89508205.496 8     -1209.743          40.100  
                                                                
  23489826.477                   123439894.455 6      1879.416          44.100  
                  23489833.941    96186938.152 7      1464.474          28.400  
                                                                
  20076036.594                   105500346.956 7       107.773          48.700  
                  20076043.156    82208057.967 9        83.976          43.600  
                                                                
  21977112.836                   115490465.384 7      2273.111          47.400  
                  21977119.375    89992636.944 8      1771.252          37.800  
                                                                
  23505931.898                   123524486.544 5     -2262.603          39.900  
                  23505938.957    96252881.431 7     -1763.078          27.300  
                                                                
  23892811.734                   125557528.344 4      2747.764          38.000  
                  23892816.484    97837095.828 6      2141.106          24.700  
                                                                
  23805792.641                   125100235.837 4     -2954.211          38.500  
                  23805802.793    97480740.272 6     -2301.989          25.300  
                                                                
  22074702.164                   116003341.567 7      2699.196          51.400  
                  22074709.219    90392252.878 8      2103.267          39.000  
                                                                
  20894844.188                   109803081.502 7     -1627.318          51.900  
                  20894852.910    85560931.161 9     -1268.045          45.500  
                                                                
  21507122.781    21507122.207   114967866.341 4     -1854.501          38.700  
  21507129.836    21507128.703    89419506.650 7     -1442.392          27.000  
                                                                
  20413490.664    20413488.926   108930312.681 4       438.473          38.800  
                                                                                
                                                                
  23079927.148    23079925.660   123548617.546 3      2164.604          35.900  
  23079932.379    23079932.781    96093431.835 8      1683.570          36.800  
                                                                
  22223438.523    22223437.871   118755318.188 5      -289.561          39.100  
  22223445.684    22223445.789    92365300.269 8      -225.213          34.400  
                                                                
  22045957.695    22045956.445   117765512.852 4      3242.970          37.600  
  22045961.434    22045963.484    91595458.583 8      2522.306          37.300  
                                                                
  21686202.297    21686201.785   115965860.207 3     -4014.484          35.400  
  21686209.512    21686209.473    90195684.301 8     -3122.367          40.900  
                                                                
  20217769.875    20217770.098   108189344.920 6      -575.595          44.700  
  20217775.453    20217775.840    84147303.930 9      -447.685          45.700  
                                                                
  22956486.906    22956486.762   122543306.789 4      3249.117          38.800  
  22956492.672    22956494.395    95311471.466 8      2527.090          38.800  
                                                                
 18 07 01  0  2 25.0000000  0 19G01G08G10G11G14G18G20G22G27G31G32R05 0.000000000
                                R06R07R15R16R20R21R22       
  23737817.039                   124743086.716 4      3313.025          38.200  
                  23737827.723    97202436.341 6      2581.574          23.800  
                                                                
  23350965.516                   122710124.060 5     -1951.101          39.400  
                  23350975.770    95618319.439 7     -1520.346          27.400  
                                                                
  21860285.063                   114876567.186 7     -1553.491          50.200  
                  21860294.453    89514256.482 8     -1210.518          39.900  
                                                                
  23488039.852                   123430503.757 6      1877.297          43.900  
                  23488047.016    96179620.730 7      1462.816          29.400  
                                                                
  20075935.633                   105499815.882 7       105.169          48.600  
                  20075941.996    82207644.146 9        81.947          43.500  
                                                                
  21974951.063                   115479105.798 7      2271.119          47.200  
                  21974958.266    89983785.315 8      1769.702          36.500  
                                                                
  23508084.523                   123535802.067 5     -2263.442          39.400  
                  23508092.105    96261698.698 7     -1763.701          26.400  
                                                                
  23890196.578                   125543789.363 4      2747.768          38.200  
                  23890201.730    97826390.113 6      2141.102          24.500  
                                                                
  23808603.234                   125115007.513 5     -2954.420          39.600  
                  23808614.055    97492250.677 6     -2302.156          25.500  
                                                                
  22072134.875                   115989850.790 7      2697.453          51.200  
                  22072141.934    90381740.590 8      2101.913          39.200  
                                                                
  20896393.313                   109811223.010 8     -1628.968          52.300  
                  20896402.309    85567275.190 9     -1269.322          45.600  
                                                                
  21508857.984    21508857.410   114977139.482 4     -1854.699          38.100  
  21508864.336    21508863.156    89426719.081 7     -1442.537          28.100  
                                                                
  20413079.102    20413078.160   108928122.940 4       437.549          38.500  
                                                                                
                                                                
  23077904.586    23077905.020   123537796.292 3      2163.989          35.500  
  23077912.832    23077911.250    96085015.304 8      1683.103          36.800  
                                                                
  22223711.477    22223710.824   118756778.614 4      -293.804          38.700  
  22223718.910    22223718.980    92366436.157 8      -228.508          35.000  
                                                                
  22042922.539    22042921.617   117749303.572 4      3241.114          37.700  
  22042925.496    22042929.234    91582851.374 8      2520.862          37.300  
                                                                
  21689958.195    21689957.098   115985938.082 3     -4016.292          35.700  
  21689964.098    21689963.988    90211300.411 8     -3123.779          40.600  
                                                                
  20218310.664    20218310.441   108192236.539 6      -580.141          44.700  
  20218315.988    20218317.113    84149552.965 9      -451.218          45.700  
                                                                
  22953445.445    22953445.113   122527069.587 5      3246.284          39.400  
  22953450.887    22953452.230    95298842.538 8      2524.883          38.700  
                                                                
 18 07 01  0  2 30.0000000  0 19G01G08G10G11G14G18G20G22G27G31G32R05 0.000000000
                                R06R07R15R16R20R21R22       
  23734666.336                   124726524.445 4      3312.164          37.300  
                  23734676.133    97189530.691 6      2580.905          25.300  
                                                                
  23352822.898                   122719884.994 4     -1952.859          38.900  
                  23352833.035    95625925.346 7     -1521.696          27.200  
                                                                
  21861763.969                   114884337.513 7     -1554.396          50.000  
                  21861772.957    89520311.276 8     -1211.217          39.900  
                                                                
  23486254.859                   123421123.594 6      1875.254          43.200  
                  23486262.004    96172311.505 7      1461.238          28.700  
                                                                
  20075836.898                   105499297.804 7       102.623          48.200  
                  20075843.012    82207240.443 9        79.969          43.700  
                                                                
  21972791.570                   115467756.071 7      2269.197          47.200  
                  21972798.184    89974941.371 8      1768.202          36.400  
                                                                
  23510239.172                   123547121.673 5     -2264.188          39.200  
                  23510245.984    96270519.178 6     -1764.300          25.200  
                                                                
  23887581.648                   125530050.589 4      2747.815          38.300  
                  23887586.914    97815684.554 6      2141.163          24.200  
                                                                
  23811414.297                   125129780.394 5     -2954.618          39.600  
                  23811425.590    97503762.010 6     -2302.296          25.100  
                                                                
  22069569.008                   115976368.635 7      2695.794          51.400  
                  22069576.184    90371235.022 8      2100.615          38.900  
                                                                
  20897944.234                   109819372.619 7     -1630.525          51.900  
                  20897952.809    85573625.534 9     -1270.538          45.600  
                                                                
  21510593.414    21510592.746   114986413.950 4     -1854.957          38.500  
  21510598.391    21510598.289    89433932.563 7     -1442.746          26.900  
                                                                
  20412670.242    20412669.629   108925937.747 4       436.730          38.400  
                                                                                
                                                                
  23075882.813    23075884.258   123526978.120 2      2163.438          34.600  
  23075891.563    23075890.324    96076601.167 8      1682.678          36.700  
                                                                
  22223989.438    22223988.949   118758259.954 4      -297.886          39.000  
  22223996.332    22223996.266    92367588.307 8      -231.689          34.500  
                                                                
  22039888.508    22039888.805   117733103.376 4      3239.315          38.300  
  22039893.496    22039896.137    91570251.218 8      2519.475          36.700  
                                                                
  21693713.758    21693713.246   116006024.931 2     -4018.001          34.800  
  21693721.293    21693720.473    90226923.512 8     -3125.104          40.400  
                                                                
  20218855.469    20218854.848   108195150.852 6      -584.621          44.700  
  20218860.715    20218861.516    84151819.647 9      -454.703          45.600  
                                                                
  22950407.203    22950405.578   122510846.596 5      3243.503          40.200  
  22950411.598    22950413.453    95286224.648 8      2522.729          39.200  
                                                                
 18 07 01  0  2 35.0000000  0 19G01G08G10G11G14G18G20G22G27G31G32R05 0.000000000
                                R06R07R15R16R20R21R22       
  23731515.031                   124709967.126 4      3311.085          37.700  
                  23731525.102    97176628.888 6      2580.068          24.400  
                                                                
  23354681.805                   122729655.111 5     -1954.756          40.500  
                  23354692.910    95633538.437 6     -1523.190          25.300  
                                                                
  21863243.688                   114892112.830 7     -1555.470          49.100  
                  21863252.297    89526369.965 8     -1212.055          39.600  
                                                                
  23484472.320                   123411754.060 6      1873.044          43.800  
                  23484478.770    96165010.577 7      1459.523          28.900  
                                                                
  20075740.648                   105498792.734 7        99.959          48.900  
                  20075747.188    82206846.880 9        77.892          44.000  
                                                                
  21970633.398                   115456416.319 6      2267.145          46.000  
                  21970640.352    89966105.199 8      1766.608          37.000  
                                                                
  23512394.195                   123558445.384 5     -2265.067          40.100  
                  23512401.254    96279342.852 7     -1764.979          26.200  
                                                                
  23884967.719                   125516312.069 5      2747.654          39.500  
                  23884972.090    97804979.243 6      2141.017          22.600  
                                                                
  23814225.961                   125144554.472 5     -2954.936          39.900  
                  23814236.879    97515274.254 6     -2302.546          22.900  
                                                                
  22067005.375                   115962895.156 7      2693.981          51.300  
                  22067012.453    90360736.210 8      2099.210          39.000  
                                                                
  20899496.508                   109827530.355 7     -1632.211          50.400  
                  20899505.297    85579982.212 9     -1271.854          45.700  
                                                                
  21512327.383    21512327.418   114995689.748 4     -1855.253          37.800  
  21512333.004    21512334.074    89441147.074 7     -1442.979          27.300  
                                                                
  20412262.695    20412260.465   108923757.168 4       435.747          38.600  
                                                                                
                                                                
  23073862.648    23073863.906   123516162.985 2      2162.738          34.500  
  23073870.375    23073870.453    96068189.404 8      1682.128          37.300  
                                                                
  22224269.406    22224269.574   118759762.335 5      -302.201          39.100  
  22224276.906    22224277.328    92368756.829 8      -235.043          34.500  
                                                                
  22036859.055    22036858.438   117716912.504 4      3237.438          38.700  
  22036862.664    22036864.902    91557658.328 8      2518.012          37.400  
                                                                
  21697471.859    21697471.582   116026120.725 3     -4019.921          35.100  
  21697479.492    21697478.051    90242553.561 8     -3126.598          40.700  
                                                                
  20219403.781    20219403.957   108198087.914 6      -589.218          44.700  
  20219409.109    20219410.164    84154104.035 9      -458.285          45.300  
                                                                
  22947370.234    22947369.527   122494637.815 5      3240.606          40.800  
  22947375.234    22947376.371    95273617.826 8      2520.472          38.900  
                                                                
 18 07 01  0  2 40.0000000  0 19G01G08G10G11G14G18G20G22G27G31G32R05 0.000000000
                                R06R07R15R16R20R21R22       
  23728365.758                   124693414.649 4      3310.092          38.000  
                  23728375.789    97163730.845 6      2579.294          26.000  
                                                                
  23356543.648                   122739434.223 5     -1956.568          40.900  
                  23356553.926    95641158.519 7     -1524.599          26.700  
                                                                
  21864724.305                   114899892.963 7     -1556.445          47.400  
                  21864733.434    89532432.405 8     -1212.817          39.500  
                                                                
  23482691.398                   123402394.978 6      1870.940          43.500  
                  23482697.957    96157717.792 7      1457.883          28.600  
                                                                
  20075647.367                   105498300.533 7        97.398          48.800  
                  20075653.730    82206463.351 9        75.895          43.700  
                                                                
  21968477.461                   115445086.370 6      2265.202          45.700  
                  21968484.301    89957276.663 8      1765.093          37.100  
                                                                
  23514550.016                   123569773.092 5     -2265.882          40.100  
                  23514556.824    96288169.630 6     -1765.617          25.800  
                                                                
  23882352.602                   125502573.609 5      2747.655          39.800  
                  23882357.277    97794273.943 6      2141.042          22.900  
                                                                
  23817038.602                   125159329.585 5     -2955.122          39.400  
                  23817048.324    97526787.351 6     -2302.697          24.800  
                                                                
  22064442.961                   115949430.246 7      2692.262          51.700  
                  22064449.879    90350244.081 8      2097.867          39.200  
                                                                
  20901050.422                   109835696.073 7     -1633.804          50.100  
                  20901059.109    85586345.112 9     -1273.092          45.200  
                                                                
  21514063.289    21514062.996   115004966.890 4     -1855.578          37.700  
  21514069.703    21514069.508    89448362.624 7     -1443.217          27.800  
                                                                
  20411853.461    20411852.004   108921580.861 5       434.876          39.200  
                                                                                
                                                                
  23071844.891    23071844.715   123505350.676 2      2162.204          34.800  
  23071850.000    23071850.609    96059779.826 8      1681.721          37.100  
                                                                
  22224554.719    22224554.629   118761285.561 4      -306.329          39.000  
  22224562.352    22224562.117    92369941.557 8      -238.251          34.500  
                                                                
  22033828.750    22033828.297   117700730.705 4      3235.619          39.000  
  22033831.480    22033835.418    91545072.501 8      2516.594          36.600  
                                                                
  21701230.625    21701230.699   116046225.237 3     -4021.631          35.500  
  21701238.234    21701238.281    90258190.395 8     -3127.931          40.900  
                                                                
  20219957.250    20219956.395   108201047.521 7      -593.727          45.300  
  20219962.098    20219963.398    84156405.938 9      -461.782          45.800  
                                                                
  22944336.750    22944336.066   122478443.232 5      3237.766          40.900  
  22944341.074    22944341.797    95261022.027 8      2518.266          38.100  
                                                                
 18 07 01  0  2 45.0000000  0 19G01G08G10G11G14G18G20G22G27G31G32R05 0.000000000
                                R06R07R15R16R20R21R22       
  23725216.102                   124676867.092 4      3309.103          38.400  
                  23725226.645    97150836.641 7      2578.511          26.800  
                                                                
  23358406.398                   122749222.546 5     -1958.427          41.600  
                  23358416.461    95648785.786 7     -1526.033          28.100  
                                                                
  21866205.719                   114907678.104 6     -1557.422          46.500  
                  21866214.523    89538498.743 8     -1213.570          39.400  
                                                                
  23480911.797                   123393046.578 6      1868.811          43.000  
                  23480918.898    96150433.327 7      1456.217          28.500  
                                                                
  20075555.969                   105497821.365 7        94.786          48.900  
                  20075562.371    82206089.969 9        73.860          43.800  
                                                                
  21966322.859                   115433766.359 7      2263.194          47.100  
                  21966330.219    89948455.878 8      1763.524          36.900  
                                                                
  23516705.828                   123581104.915 5     -2266.701          40.200  
                  23516712.832    96296999.607 6     -1766.259          25.800  
                                                                
  23879739.039                   125488835.485 4      2747.571          38.800  
                  23879743.266    97783568.922 6      2140.968          24.500  
                                                                
  23819849.609                   125174105.933 5     -2955.352          39.200  
                  23819859.871    97538301.357 6     -2302.850          25.600  
                                                                
  22061882.242                   115935974.092 7      2690.517          51.600  
                  22061889.262    90339758.776 8      2096.500          39.300  
                                                                
  20902605.750                   109843869.951 7     -1635.431          50.200  
                  20902614.484    85592714.372 9     -1274.367          45.400  
                                                                
  21515798.445    21515798.316   115014245.310 4     -1855.796          37.900  
  21515804.535    21515804.691    89455579.182 7     -1443.397          26.900  
                                                                
  20411447.266    20411445.293   108919409.186 4       433.987          39.000  
                                                                                
                                                                
  23069824.656    23069825.445   123494541.506 2      2161.615          34.600  
  23069831.063    23069830.668    96051372.704 8      1681.253          37.400  
                                                                
  22224843.773    22224843.637   118762829.634 4      -310.462          38.600  
  22224850.902    22224851.484    92371142.503 8      -241.470          34.900  
                                                                
  22030800.852    22030800.563   117684558.185 4      3233.751          38.500  
  22030804.730    22030807.887    91532493.891 8      2515.132          37.300  
                                                                
  21704991.805    21704992.066   116066338.708 2     -4023.433          35.000  
  21705000.457    21704998.719    90273834.195 9     -3129.340          41.200  
                                                                
  20220514.672    20220513.746   108204029.910 7      -598.286          45.400  
  20220520.105    20220520.461    84158725.574 9      -465.333          45.900  
                                                                
  22941306.938    22941305.055   122462262.913 5      3234.912          40.200  
  22941310.543    22941311.094    95248437.323 8      2516.044          39.400  
                                                                
 18 07 01  0  2 50.0000000  0 19G01G08G10G11G14G18G20G22G27G31G32R05 0.000000000
                                R06R07R15R16R20R21R22       
  23722068.867                   124660324.450 4      3308.155          37.500  
                  23722078.641    97137946.287 7      2577.760          26.400  
                                                                
  23360270.664                   122759019.920 5     -1960.179          40.800  
                  23360280.598    95656420.114 7     -1527.427          26.800  
                                                                
  21867687.680                   114915468.191 6     -1558.399          46.500  
                  21867696.750    89544568.936 8     -1214.334          39.700  
                                                                
  23479135.391                   123383708.764 6      1866.749          43.200  
                  23479141.875    96143157.106 7      1454.611          28.000  
                                                                
  20075467.039                   105497355.127 7        92.230          49.700  
                  20075473.594    82205726.671 9        71.867          43.700  
                                                                
  21964171.281                   115422456.294 6      2261.220          46.900  
                  21964177.641    89939642.843 8      1761.991          37.600  
                                                                
  23518862.867                   123592440.748 5     -2267.467          39.400  
                  23518869.813    96305832.722 6     -1766.852          25.100  
                                                                
  23877124.672                   125475097.524 4      2747.562          37.300  
                  23877129.777    97772864.011 6      2140.956          24.700  
                                                                
  23822660.531                   125188883.370 5     -2955.551          40.100  
                  23822671.938    97549816.243 6     -2303.029          24.900  
                                                                
  22059323.313                   115922526.570 7      2688.823          50.800  
                  22059330.105    90329280.194 8      2095.182          39.400  
                                                                
  20904162.914                   109852051.878 7     -1637.020          50.300  
                  20904171.547    85599089.894 9     -1275.594          45.700  
                                                                
  21517535.547    21517534.242   115023525.118 4     -1856.078          38.500  
  21517541.137    21517540.586    89462796.805 7     -1443.615          28.100  
                                                                
  20411040.570    20411039.605   108917241.933 4       433.081          38.700  
                                                                                
                                                                
  23067807.258    23067807.223   123483735.289 2      2161.001          33.700  
  23067812.418    23067812.238    96042967.882 8      1680.774          37.400  
                                                                
  22225136.383    22225136.363   118764394.513 5      -314.615          39.700  
  22225144.617    22225144.480    92372359.635 8      -244.696          34.100  
                                                                
  22027774.414    22027774.828   117668394.944 4      3231.957          37.900  
  22027780.059    22027782.277    91519922.489 8      2513.742          37.400  
                                                                
  21708755.039    21708754.996   116086461.062 2     -4025.161          34.900  
  21708762.477    21708762.531    90289484.906 9     -3130.677          41.400  
                                                                
  20221075.281    20221075.785   108207034.944 6      -602.784          45.000  
  20221081.613    20221081.781    84161062.820 9      -468.837          45.200  
                                                                
  22938277.141    22938276.293   122446096.829 6      3232.100          41.700  
  22938281.836    22938282.789    95235863.709 8      2513.856          39.300  
                                                                
 18 07 01  0  2 55.0000000  0 19G01G08G10G11G14G18G20G22G27G31G32R05 0.000000000
                                R06R07R15R16R20R21R22       
  23718921.297                   124643786.723 4      3307.157          38.100  
                  23718932.152    97125059.743 7      2577.000          26.800  
                                                                
  23362136.156                   122768826.426 5     -1962.003          40.500  
                  23362146.898    95664061.534 7     -1528.843          27.900  
                                                                
  21869171.742                   114923263.156 6     -1559.404          46.600  
                  21869180.434    89550642.932 8     -1215.113          39.400  
                                                                
  23477360.375                   123374381.542 6      1864.601          43.600  
                  23477366.859    96135889.145 7      1452.934          28.300  
                                                                
  20075380.984                   105496901.815 7        89.619          49.400  
                  20075387.344    82205373.439 9        69.831          43.600  
                                                                
  21962020.719                   115411156.167 6      2259.201          47.000  
                  21962027.512    89930837.535 8      1760.422          36.800  
                                                                
  23521020.609                   123603780.661 5     -2268.316          40.300  
                  23521027.434    96314669.007 6     -1767.516          26.000  
                                                                
  23874510.867                   125461359.780 4      2747.491          37.500  
                  23874516.258    97762159.285 6      2140.917          24.500  
                                                                
  23825473.852                   125203661.897 5     -2955.815          39.800  
                  23825484.156    97561331.960 7     -2303.217          26.700  
                                                                
  22056766.188                   115909087.736 7      2687.051          50.400  
                  22056773.094    90318808.383 8      2093.801          39.200  
                                                                
  20905721.414                   109860241.838 7     -1638.641          50.200  
                  20905730.230    85605471.683 9     -1276.862          45.600  
                                                                
  21519270.734    21519270.512   115032806.232 4     -1856.334          38.700  
  21519278.246    21519276.902    89470015.453 7     -1443.817          28.600  
                                                                
  20410635.477    20410634.230   108915079.187 4       432.141          38.700  
                                                                                
                                                                
  23065787.414    23065787.449   123472932.111 2      2160.474          33.800  
  23065796.152    23065794.121    96034565.420 8      1680.363          36.600  
                                                                
  22225432.430    22225432.527   118765980.333 5      -318.831          39.200  
  22225441.078    22225441.391    92373593.063 8      -247.987          34.300  
                                                                
  22024751.555    22024751.172   117652240.974 4      3230.071          37.600  
  22024755.852    22024758.191    91507358.304 8      2512.267          37.300  
                                                                
  21712519.523    21712519.668   116106592.262 2     -4026.918          34.900  
  21712526.441    21712526.969    90305142.504 8     -3132.048          40.700  
                                                                
  20221640.867    20221640.902   108210062.594 7      -607.353          45.200  
  20221647.480    20221647.430    84163417.653 9      -472.383          45.800  
                                                                
  22935252.555    22935251.234   122429944.961 5      3229.232          40.600  
  22935256.367    22935257.301    95223301.138 8      2511.624          39.100  
                                                                
 18 07 01  0  3  0.0000000  0 19G01G08G10G11G14G18G20G22G27G31G32R05 0.000000000
                                R06R07R15R16R20R21R22       
  23715775.344                   124627253.942 5      3306.142          39.400  
                  23715785.754    97112177.060 6      2576.229          26.000  
                                                                
  23364004.602                   122778642.017 5     -1963.882          41.100  
                  23364014.563    95671710.034 7     -1530.293          27.700  
                                                                
  21870655.336                   114931063.068 6     -1560.378          46.900  
                  21870664.660    89556720.784 8     -1215.881          39.900  
                                                                
  23475587.383                   123365064.944 6      1862.445          43.200  
                  23475593.660    96128629.459 7      1451.257          28.100  
                                                                
  20075297.109                   105496461.460 7        87.006          49.200  
                  20075303.398    82205030.306 9        67.795          43.600  
                                                                
  21959871.961                   115399865.999 7      2257.215          47.800  
                  21959879.414    89922040.009 8      1758.870          37.100  
                                                                
  23523179.430                   123615124.598 5     -2269.126          39.300  
                  23523186.023    96323508.437 6     -1768.160          25.200  
                                                                
  23871896.805                   125447622.269 4      2747.467          38.100  
                  23871902.000    97751454.756 6      2140.869          25.600  
                                                                
  23828286.313                   125218441.487 5     -2956.050          39.500  
                  23828296.465    97572848.540 7     -2303.414          26.500  
                                                                
  22054210.359                   115895657.557 7      2685.318          50.500  
                  22054217.520    90308343.311 8      2092.449          38.900  
                                                                
  20907281.391                   109868439.850 7     -1640.284          50.700  
                  20907290.070    85611859.742 9     -1278.146          45.500  
                                                                
  21521007.148    21521006.949   115042088.607 4     -1856.600          38.300  
  21521012.895    21521013.430    89477235.076 7     -1444.028          28.100  
                                                                
  20410230.766    20410229.496   108912920.969 4       431.239          38.700  
                                                                                
                                                                
  23063770.156    23063771.250   123462131.971 2      2159.803          33.300  
  23063777.105    23063776.793    96026165.334 8      1679.842          37.000  
                                                                
  22225734.578    22225733.855   118767587.029 4      -323.018          38.400  
  22225741.309    22225741.926    92374842.706 8      -251.241          34.300  
                                                                
  22021729.016    22021728.633   117636096.349 4      3228.130          38.100  
  22021734.234    22021735.703    91494801.382 8      2510.767          37.400  
                                                                
  21716285.055    21716285.906   116126732.235 3     -4028.720          35.800  
  21716294.285    21716293.488    90320806.919 9     -3133.452          41.900  
                                                                
  20222211.656    20222211.035   108213112.990 6      -611.920          44.900  
  20222217.156    20222217.805    84165790.178 9      -475.935          45.200  
                                                                
  22932228.492    22932227.691   122413807.361 6      3226.353          41.300  
  22932233.051    22932234.203    95210749.674 8      2509.386          39.500  
                                                                
 18 07 01  0  3  5.0000000  0 19G01G08G10G11G14G18G20G22G27G31G32R05 0.000000000
                                R06R07R15R16R20R21R22       
  23712630.398                   124610726.096 4      3305.138          37.400  
                  23712640.980    97099298.221 6      2575.431          25.100  
                                                                
  23365874.797                   122788466.763 5     -1965.698          41.800  
                  23365884.492    95679365.677 7     -1531.720          28.200  
                                                                
  21872140.625                   114938867.926 7     -1561.400          48.400  
                  21872149.691    89562802.484 8     -1216.674          39.800  
                                                                
  23473816.133                   123355758.933 6      1860.313          43.600  
                  23473823.234    96121378.025 7      1449.587          28.500  
                                                                
  20075215.836                   105496034.042 7        84.401          49.300  
                  20075222.059    82204697.253 9        65.764          43.800  
                                                                
  21957725.703                   115388585.748 7      2255.231          48.700  
                  21957732.387    89913250.200 8      1757.325          36.900  
                                                                
  23525338.836                   123626472.640 5     -2269.969          39.700  
                  23525345.957    96332351.061 6     -1768.817          25.300  
                                                                
  23869282.422                   125433884.937 4      2747.414          38.600  
                  23869288.309    97740750.331 6      2140.842          25.300  
                                                                
  23831099.102                   125233222.151 5     -2956.246          40.300  
                  23831108.832    97584365.939 6     -2303.579          25.100  
                                                                
  22051656.195                   115882236.091 7      2683.543          51.300  
                  22051663.285    90297885.034 8      2091.074          39.700  
                                                                
  20908842.797                   109876645.913 7     -1641.906          50.900  
                  20908851.523    85618254.079 9     -1279.410          45.300  
                                                                
  21522744.148    21522743.387   115051372.401 4     -1856.906          38.700  
  21522750.652    21522750.527    89484455.789 7     -1444.254          28.500  
                                                                
  20409827.000    20409826.551   108910767.278 4       430.352          38.600  
                                                                                
                                                                
  23061753.992    23061753.488   123451334.896 2      2159.131          34.800  
  23061760.301    23061759.523    96017767.608 8      1679.325          36.200  
                                                                
  22226038.523    22226038.012   118769214.587 4      -327.200          38.800  
  22226046.203    22226047.000    92376108.573 8      -254.478          34.500  
                                                                
  22018707.867    22018707.602   117619961.017 4      3226.288          38.000  
  22018714.930    22018714.602    91482251.685 8      2509.335          37.200  
                                                                
  21720053.094    21720053.496   116146881.092 3     -4030.487          36.100  
  21720061.965    21720061.457    90336478.245 9     -3134.818          41.600  
                                                                
  20222786.086    20222785.957   108216186.039 6      -616.480          44.700  
  20222791.105    20222792.000    84168180.326 9      -479.489          45.300  
                                                                
  22929208.188    22929207.387   122397684.172 6      3223.453          42.200  
  22929212.313    22929213.371    95198209.411 8      2507.132          39.800  
                                                                
 18 07 01  0  3 10.0000000  0 19G01G08G10G11G14G18G20G22G27G31G32R05 0.000000000
                                R06R07R15R16R20R21R22       
  23709486.656                   124594203.166 4      3304.207          38.400  
                  23709496.051    97086423.226 7      2574.692          26.300  
                                                                
  23367744.984                   122798300.482 6     -1967.476          42.500  
                  23367755.676    95687028.310 7     -1533.097          27.600  
                                                                
  21873626.609                   114946677.669 7     -1562.363          49.300  
                  21873636.258    89568887.994 8     -1217.429          39.300  
                                                                
  23472047.898                   123346463.498 6      1858.226          43.600  
                  23472054.938    96114134.832 7      1447.966          28.400  
                                                                
  20075136.844                   105495619.485 7        81.867          49.200  
                  20075143.137    82204374.215 9        63.795          43.600  
                                                                
  21955580.625                   115377315.485 7      2253.241          47.800  
                  21955588.199    89904468.177 8      1755.768          37.300  
                                                                
  23527499.055                   123637824.740 5     -2270.745          39.800  
                  23527506.578    96341196.826 6     -1769.394          25.300  
                                                                
  23866668.211                   125420147.816 4      2747.405          38.900  
                  23866673.898    97730046.102 6      2140.817          23.300  
                                                                
  23833911.938                   125248003.814 5     -2956.410          39.500  
                  23833922.547    97595884.107 6     -2303.692          25.300  
                                                                
  22049104.000                   115868823.315 7      2681.836          51.400  
                  22049111.105    90287433.529 8      2089.739          39.400  
                                                                
  20910405.758                   109884859.911 8     -1643.441          52.300  
                  20910414.578    85624654.594 9     -1280.610          45.300  
                                                                
  21524481.141    21524480.074   115060657.396 4     -1857.104          38.300  
  21524486.156    21524487.512    89491677.457 7     -1444.414          27.700  
                                                                
  20409424.445    20409423.574   108908617.765 4       429.569          38.700  
                                                                                
                                                                
  23059736.555    23059735.980   123440540.651 2      2158.572          34.600  
  23059743.848    23059742.840    96009372.100 8      1678.887          37.000  
                                                                
  22226346.898    22226346.645   118770862.973 4      -331.364          38.800  
  22226354.152    22226354.563    92377390.666 8      -257.727          34.800  
                                                                
  22015688.313    22015688.539   117603835.034 4      3224.451          38.100  
  22015695.617    22015696.109    91469709.270 8      2507.900          37.700  
                                                                
  21723823.711    21723823.223   116167038.647 3     -4032.218          36.300  
  21723831.086    21723830.910    90352156.343 9     -3136.168          41.400  
                                                                
  20223364.484    20223364.449   108219281.593 6      -620.945          44.900  
  20223370.441    20223370.648    84170587.980 9      -482.956          45.200  
                                                                
  22926190.945    22926190.285   122381575.134 6      3220.632          41.300  
  22926194.383    22926195.750    95185680.160 8      2504.929          40.300  
                                                                
 18 07 01  0  3 15.0000000  0 19G01G08G10G11G14G18G20G22G27G31G32R05 0.000000000
                                R06R07R15R16R20R21R22       
  23706343.273                   124577685.279 5      3303.182          39.600  
                  23706352.508    97073552.139 7      2573.909          26.400  
                                                                
  23369617.875                   122808143.249 6     -1969.275          42.700  
                  23369628.441    95694697.999 7     -1534.509          29.700  
                                                                
  21875114.227                   114954492.353 7     -1563.344          48.100  
                  21875123.137    89574977.360 8     -1218.191          39.700  
                                                                
  23470280.344                   123337178.692 6      1856.099          43.600  
                  23470287.961    96106899.916 7      1446.306          28.800  
                                                                
  20075060.648                   105495217.871 7        79.289          49.300  
                  20075066.457    82204061.269 9        61.786          44.000  
                                                                
  21953438.055                   115366055.267 6      2251.222          46.700  
                  21953445.129    89895693.984 8      1754.191          37.200  
                                                                
  23529660.242                   123649180.890 5     -2271.560          40.200  
                  23529667.285    96350045.787 6     -1770.034          25.000  
                                                                
  23864053.945                   125406410.945 5      2747.339          40.200  
                  23864059.570    97719342.045 6      2140.769          24.400  
                                                                
  23836725.398                   125262786.590 5     -2956.603          39.200  
                  23836735.332    97607403.163 6     -2303.853          25.500  
                                                                
  22046553.250                   115855419.260 7      2680.113          51.100  
                  22046560.293    90276988.818 8      2088.401          40.200  
                                                                
  20911970.555                   109893081.975 7     -1645.036          51.300  
                  20911979.301    85631061.396 9     -1281.845          45.500  
                                                                
  21526217.938    21526217.012   115069943.828 4     -1857.406          37.900  
  21526225.188    21526224.664    89498900.225 7     -1444.634          27.900  
                                                                
  20409021.391    20409021.836   108906472.828 4       428.624          38.800  
                                                                                
                                                                
  23057720.680    23057720.410   123429749.461 3      2157.993          35.400  
  23057727.656    23057726.371    96000978.954 8      1678.431          36.800  
                                                                
  22226657.633    22226658.766   118772532.361 4      -335.526          38.700  
  22226666.902    22226666.707    92378689.080 8      -260.968          34.800  
                                                                
  22012672.742    22012672.148   117587718.376 4      3222.568          38.200  
  22012677.984    22012678.801    91457174.097 8      2506.445          37.700  
                                                                
  21727594.648    21727594.441   116187204.949 3     -4033.944          35.800  
  21727603.043    21727602.324    90367841.238 8     -3137.505          41.000  
                                                                
  20223946.648    20223946.941   108222399.862 7      -625.494          45.300  
  20223952.848    20223953.207    84173013.296 9      -486.498          46.100  
                                                                
  22923175.320    22923175.059   122365480.471 5      3217.771          40.900  
  22923180.383    22923181.207    95173162.094 8      2502.712          40.400  
                                                                
 18 07 01  0  3 20.0000000  0 19G01G08G10G11G14G18G20G22G27G31G32R05 0.000000000
                                R06R07R15R16R20R21R22       
  23703200.328                   124561172.358 5      3302.184          39.200  
                  23703210.637    97060684.921 7      2573.141          26.100  
                                                                
  23371493.352                   122817995.020 6     -1971.067          42.900  
                  23371503.590    95702374.689 7     -1535.884          28.900  
                                                                
  21876602.070                   114962311.992 6     -1564.335          46.500  
                  21876611.445    89581070.579 8     -1218.954          39.400  
                                                                
  23468515.992                   123327904.531 6      1853.969          43.900  
                  23468523.121    96099673.303 7      1444.654          29.700  
                                                                
  20074986.422                   105494829.215 7        76.679          48.900  
                  20074992.566    82203758.420 9        59.752          43.400  
                                                                
  21951297.375                   115354804.952 7      2249.258          47.300  
                  21951304.500    89886927.502 8      1752.670          37.100  
                                                                
  23531821.367                   123660541.128 5     -2272.386          40.000  
                  23531829.008    96358897.918 6     -1770.678          24.600  
                                                                
  23861440.680                   125392674.292 5      2747.302          39.900  
                  23861444.852    97708638.156 6      2140.761          24.100  
                                                                
  23839538.008                   125277570.405 5     -2956.849          39.800  
                  23839548.918    97618923.011 6     -2304.055          25.200  
                                                                
  22044004.008                   115842024.002 7      2678.345          51.000  
                  22044011.070    90266550.960 8      2087.023          39.500  
                                                                
  20913536.430                   109901312.070 7     -1646.671          50.500  
                  20913545.145    85637474.456 9     -1283.125          45.900  
                                                                
  21527957.602    21527955.594   115079231.316 4     -1857.644          37.900  
  21527960.785    21527962.281    89506123.822 7     -1444.824          27.900  
                                                                
  20408620.617    20408620.426   108904332.403 4       427.676          38.400  
                                                                                
                                                                
  23055704.711    23055704.957   123418961.259 2      2157.395          34.300  
  23055712.637    23055712.066    95992588.134 8      1677.976          37.200  
                                                                
  22226975.641    22226976.090   118774222.790 4      -339.771          37.800  
  22226985.313    22226983.652    92380003.849 8      -264.270          35.000  
                                                                
  22009657.258    22009656.898   117571611.151 4      3220.660          37.600  
  22009661.805    22009663.363    91444646.266 8      2504.956          37.400  
                                                                
  21731368.039    21731366.895   116207379.975 3     -4035.748          36.400  
  21731375.160    21731374.859    90383532.920 9     -3138.911          41.500  
                                                                
  20224533.977    20224533.848   108225540.748 7      -629.988          45.600  
  20224539.375    20224539.852    84175456.202 9      -489.991          45.600  
                                                                
  22920162.266    22920162.777   122349400.150 5      3214.891          40.200  
  22920169.430    22920168.750    95160655.181 8      2500.468          40.900  
                                                                
 18 07 01  0  3 25.0000000  0 19G01G08G10G11G14G18G20G22G27G31G32R05 0.000000000
                                R06R07R15R16R20R21R22       
  23700058.727                   124544664.416 4      3301.240          37.900  
                  23700068.785    97047821.571 6      2572.391          26.000  
                                                                
  23373370.055                   122827855.685 6     -1972.845          43.000  
                  23373379.832    95710058.332 7     -1537.286          29.200  
                                                                
  21878091.406                   114970136.556 6     -1565.305          46.200  
                  21878100.277    89587167.641 8     -1219.722          39.500  
                                                                
  23466753.477                   123318640.985 6      1851.864          44.700  
                  23466759.633    96092454.944 7      1443.012          28.400  
                                                                
  20074915.156                   105494453.426 7        74.142          48.800  
                  20074921.301    82203465.597 9        57.776          43.100  
                                                                
  21949158.391                   115343564.689 7      2247.273          48.100  
                  21949165.691    89878168.851 8      1751.132          37.500  
                                                                
  23533984.383                   123671905.414 5     -2273.180          40.500  
                  23533992.094    96367753.205 6     -1771.297          23.900  
                                                                
  23858826.188                   125378937.870 5      2747.287          40.000  
                  23858830.441    97697934.429 6      2140.768          24.100  
                                                                
  23842351.992                   125292355.174 5     -2956.998          40.300  
                  23842362.449    97630443.588 7     -2304.159          26.900  
                                                                
  22041456.648                   115828637.471 7      2676.611          51.100  
                  22041463.906    90256119.905 8      2085.671          39.500  
                                                                
  20915104.367                   109909550.107 7     -1648.239          50.300  
                  20915113.141    85643893.706 9     -1284.342          45.100  
                                                                
  21529693.641    21529693.324   115088520.280 4     -1857.895          38.300  
  21529699.332    21529700.051    89513348.585 7     -1445.034          28.000  
                                                                
  20408220.852    20408220.734   108902196.538 5       426.853          39.200  
                                                                                
                                                                
  23053691.305    23053690.355   123408175.985 2      2156.810          34.300  
  23053696.508    23053696.813    95984199.588 8      1677.524          36.500  
                                                                
  22227295.766    22227296.074   118775934.124 4      -343.901          38.100  
  22227303.707    22227303.512    92381334.889 8      -267.478          34.200  
                                                                
  22006643.039    22006643.031   117555513.364 4      3218.851          37.500  
  22006649.098    22006650.262    91432125.769 8      2503.552          36.800  
                                                                
  21735140.945    21735141.184   116227563.646 4     -4037.420          37.100  
  21735149.871    21735149.910    90399231.323 9     -3140.217          41.700  
                                                                
  20225125.070    20225124.801   108228704.278 7      -634.500          45.200  
  20225130.289    20225131.055    84177916.728 9      -493.502          45.300  
                                                                
  22917153.594    22917153.215   122333334.131 5      3212.065          40.900  
  22917157.246    22917159.582    95148159.391 8      2498.269          40.400  
                                                                
 18 07 01  0  3 30.0000000  0 19G01G08G10G11G14G18G20G22G27G31G32R05 0.000000000
                                R06R07R15R16R20R21R22       
  23696918.977                   124528161.529 4      3300.156          37.800  
                  23696928.355    97034962.185 6      2571.547          25.800  
                                                                
  23375247.828                   122837725.387 6     -1974.677          42.400  
                  23375257.840    95717748.991 7     -1538.711          28.300  
                                                                
  21879581.102                   114977966.059 6     -1566.330          46.400  
                  21879589.891    89593268.543 8     -1220.513          39.500  
                                                                
  23464992.430                   123309388.082 6      1849.707          44.100  
                  23464999.219    96085244.897 7      1441.326          29.000  
                                                                
  20074846.047                   105494090.590 7        71.518          49.600  
                  20074852.395    82203182.863 9        55.736          43.600  
                                                                
  21947020.781                   115332334.465 6      2245.231          47.000  
                  21947028.676    89869418.028 8      1749.525          36.800  
                                                                
  23536147.680                   123683273.807 5     -2274.059          39.400  
                  23536154.723    96376611.683 6     -1771.989          25.300  
                                                                
  23856212.117                   125365201.742 5      2747.190          40.800  
                  23856216.445    97687230.976 6      2140.657          23.000  
                                                                
  23845164.992                   125307140.972 5     -2957.253          40.400  
                  23845176.023    97641964.992 7     -2304.353          26.800  
                                                                
  22038911.188                   115815259.712 7      2674.817          51.600  
                  22038918.512    90245695.690 8      2084.265          39.500  
                                                                
  20916673.500                   109917796.173 7     -1649.872          50.600  
                  20916682.141    85650319.208 9     -1285.607          45.400  
                                                                
  21531432.266    21531430.773   115097810.533 4     -1858.169          37.900  
  21531438.387    21531437.367    89520574.320 7     -1445.253          28.900  
                                                                
  20407821.578    20407820.637   108900065.060 4       425.904          38.800  
                                                                                
                                                                
  23051676.680    23051677.348   123397393.777 2      2156.205          34.000  
  23051684.008    23051682.352    95975813.445 8      1677.051          37.100  
                                                                
  22227619.984    22227619.402   118777666.225 4      -348.092          38.400  
  22227626.695    22227628.211    92382682.078 8      -270.743          34.600  
                                                                
  22003631.852    22003631.820   117539425.050 3      3216.855          37.000  
  22003637.363    22003638.109    91419612.648 8      2501.999          37.500  
                                                                
  21738917.250    21738917.465   116247756.136 4     -4039.226          37.600  
  21738926.055    21738926.250    90414936.589 9     -3141.617          41.900  
                                                                
  20225720.578    20225720.520   108231890.472 6      -639.056          44.300  
  20225726.730    20225726.883    84180394.877 9      -497.042          46.000  
                                                                
  22914145.914    22914145.723   122317282.555 5      3209.106          39.900  
  22914150.613    22914153.285    95135674.844 8      2495.967          40.900  
                                                                
 18 07 01  0  3 35.0000000  0 19G01G08G10G11G14G18G20G22G27G31G32R05 0.000000000
                                R06R07R15R16R20R21R22       
  23693779.688                   124511663.627 4      3299.203          38.300  
                  23693788.918    97022106.706 6      2570.793          24.700  
                                                                
  23377127.758                   122847604.166 6     -1976.462          43.000  
                  23377137.688    95725446.746 7     -1540.088          28.700  
                                                                
  21881071.641                   114985800.531 7     -1567.270          47.500  
                  21881080.840    89599373.323 8     -1221.245          40.200  
                                                                
  23463233.703                   123300145.837 6      1847.637          43.400  
                  23463240.473    96078043.150 7      1439.715          29.100  
                                                                
  20074779.328                   105493740.684 7        68.988          50.000  
                  20074786.152    82202910.209 9        53.757          43.900  
                                                                
  21944886.219                   115321114.189 6      2243.289          46.700  
                  21944893.316    89860674.961 8      1748.017          37.000  
                                                                
  23538311.570                   123694646.255 4     -2274.805          38.600  
                  23538318.949    96385473.323 6     -1772.563          24.000  
                                                                
  23853598.789                   125351465.867 5      2747.197          41.100  
                  23853602.605    97676527.675 6      2140.675          24.700  
                                                                
  23847979.016                   125321927.749 5     -2957.372          40.200  
                  23847989.664    97653487.143 6     -2304.442          25.800  
                                                                
  22036366.672                   115801890.762 7      2673.120          50.900  
                  22036373.719    90235278.328 8      2082.957          39.900  
                                                                
  20918244.172                   109926050.228 7     -1651.410          51.400  
                  20918252.871    85656750.945 9     -1286.812          45.400  
                                                                
  21533170.516    21533169.188   115107102.161 4     -1858.377          38.400  
  21533177.031    21533176.156    89527801.132 7     -1445.404          28.500  
                                                                
  20407422.758    20407421.676   108897938.096 5       425.045          39.300  
                                                                                
                                                                
  23049663.836    23049662.676   123386614.570 2      2155.610          34.600  
  23049669.656    23049668.828    95967429.626 8      1676.587          36.800  
                                                                
  22227947.422    22227947.051   118779419.377 4      -352.267          38.600  
  22227954.414    22227955.770    92384045.631 8      -273.979          34.400  
                                                                
  22000622.406    22000622.117   117523346.170 3      3215.072          36.700  
  22000626.801    22000628.391    91407106.852 8      2500.615          37.100  
                                                                
  21742695.766    21742694.855   116267957.281 4     -4040.899          37.300  
  21742704.078    21742703.422    90430648.585 9     -3142.912          41.700  
                                                                
  20226320.227    20226320.520   108235099.184 6      -643.497          44.700  
  20226326.563    20226326.340    84182890.537 9      -500.495          46.400  
                                                                
  22911142.859    22911141.586   122301245.393 5      3206.318          39.200  
  22911146.031    22911148.125    95123201.503 8      2493.800          40.400  
                                                                
 18 07 01  0  3 40.0000000  0 19G01G08G10G11G14G18G20G22G27G31G32R05 0.000000000
                                R06R07R15R16R20R21R22       
  23690640.680                   124495170.746 4      3298.177          38.100  
                  23690650.637    97009255.094 6      2570.020          25.500  
                                                                
  23379009.188                   122857491.923 6     -1978.270          42.800  
                  23379019.207    95733151.494 7     -1541.515          28.600  
                                                                
  21882563.484                   114993639.889 7     -1568.266          48.000  
                  21882572.730    89605481.912 8     -1222.024          39.600  
                                                                
  23461476.648                   123290914.217 6      1845.476          43.600  
                  23461483.281    96070849.681 7      1438.030          29.400  
                                                                
  20074715.664                   105493403.621 7        66.374          49.200  
                  20074721.684    82202647.567 9        51.720          43.800  
                                                                
  21942753.055                   115309903.950 7      2241.249          47.200  
                  21942760.398    89851939.703 8      1746.426          37.400  
                                                                
  23540476.742                   123706022.748 5     -2275.626          39.700  
                  23540483.852    96394338.128 6     -1773.218          24.900  
                                                                
  23850984.117                   125337730.183 5      2747.109          40.500  
                  23850989.465    97665824.539 6      2140.605          24.100  
                                                                
  23850793.047                   125336715.484 5     -2957.634          40.800  
                  23850803.504    97665010.053 6     -2304.646          25.600  
                                                                
  22033824.508                   115788530.557 7      2671.336          51.000  
                  22033831.871    90224867.788 8      2081.556          39.200  
                                                                
  20919816.352                   109934312.195 7     -1653.018          51.300  
                  20919825.340    85663188.843 9     -1288.073          45.400  
                                                                
  21534907.516    21534907.152   115116394.955 4     -1858.655          38.100  
  21534913.574    21534914.410    89535028.861 7     -1445.633          27.700  
                                                                
  20407025.000    20407024.598   108895815.480 4       424.171          39.000  
                                                                                
                                                                
  23047648.313    23047649.664   123375838.264 2      2155.017          33.300  
  23047656.699    23047655.781    95959048.081 8      1676.108          36.700  
                                                                
  22228279.000    22228279.684   118781193.481 4      -356.529          37.800  
  22228287.953    22228288.512    92385425.500 8      -277.297          34.700  
                                                                
  21997613.586    21997613.719   117507276.697 3      3213.116          36.800  
  21997618.910    21997620.414    91394608.381 8      2499.082          37.100  
                                                                
  21746474.930    21746474.348   116288167.084 3     -4042.682          36.900  
  21746483.496    21746483.348    90446367.322 9     -3144.318          41.800  
                                                                
  20226924.453    20226924.230   108238330.539 6      -648.067          44.300  
  20226928.941    20226930.438    84185403.799 9      -504.046          45.500  
                                                                
  22908140.555    22908139.520   122285222.602 5      3203.385          40.100  
  22908144.563    22908145.930    95110739.324 8      2491.520          40.000  
                                                                
 18 07 01  0  3 45.0000000  0 19G01G08G10G11G14G18G20G22G27G31G32R05 0.000000000
                                R06R07R15R16R20R21R22       
  23687504.203                   124478682.948 4      3297.207          38.100  
                  23687513.633    96996407.470 6      2569.243          25.800  
                                                                
  23380892.336                   122867388.637 6     -1980.026          42.600  
                  23380902.398    95740863.222 7     -1542.878          28.900  
                                                                
  21884056.266                   115001484.237 6     -1569.235          46.300  
                  21884065.727    89611594.387 8     -1222.786          39.200  
                                                                
  23459722.195                   123281693.312 6      1843.355          43.700  
                  23459728.852    96063664.565 7      1436.384          29.700  
                                                                
  20074653.422                   105493079.517 7        63.816          50.200  
                  20074659.855    82202395.020 9        49.723          43.400  
                                                                
  21940621.461                   115298703.821 7      2239.271          48.100  
                  21940628.836    89843212.333 8      1744.883          36.800  
                                                                
  23542642.625                   123717403.360 5     -2276.414          40.300  
                  23542649.832    96403206.129 6     -1773.842          23.800  
                                                                
  23848370.781                   125323994.759 5      2747.097          39.700  
                  23848375.852    97655121.615 6      2140.592          24.300  
                                                                
  23853607.883                   125351504.180 5     -2957.758          41.600  
                  23853617.938    97676533.710 7     -2304.749          27.000  
                                                                
  22031284.031                   115775179.214 7      2669.592          51.300  
                  22031290.977    90214464.156 8      2080.201          39.800  
                                                                
  20921390.180                   109942582.174 7     -1654.596          50.200  
                  20921398.770    85669632.976 9     -1289.289          45.500  
                                                                
  21536647.359    21536646.172   115125689.142 4     -1858.911          38.000  
  21536652.883    21536652.805    89542257.670 7     -1445.819          28.300  
                                                                
  20406628.344    20406627.684   108893697.328 4       423.300          38.900  
                                                                                
                                                                
  23045637.234    23045637.645   123365064.878 2      2154.487          33.800  
  23045643.742    23045643.777    95950668.769 8      1675.711          36.800  
                                                                
  22228615.891    22228616.691   118782988.382 4      -360.592          37.500  
  22228624.285    22228624.180    92386821.531 8      -280.456          34.900  
                                                                
  21994608.125    21994607.180   117491216.767 3      3211.261          36.700  
  21994610.969    21994613.813    91382117.329 8      2497.651          37.800  
                                                                
  21750255.094    21750255.473   116308385.384 3     -4044.296          36.900  
  21750265.078    21750264.551    90462092.658 9     -3145.560          41.900  
                                                                
  20227532.594    20227532.582   108241584.545 6      -652.559          44.100  
  20227537.801    20227538.383    84187934.699 9      -507.547          46.000  
                                                                
  22905141.523    22905140.039   122269214.241 4      3200.570          38.900  
  22905145.684    22905146.953    95098288.376 8      2489.329          39.800  
                                                                
 18 07 01  0  3 50.0000000  0 19G01G08G10G11G14G18G20G22G27G31G32R05 0.000000000
                                R06R07R15R16R20R21R22       
  23684367.117                   124462200.236 4      3296.138          37.600  
                  23684376.855    96983563.806 6      2568.414          25.500  
                                                                
  23382778.078                   122877294.366 6     -1981.878          42.700  
                  23382787.484    95748581.971 7     -1544.316          29.200  
                                                                
  21885549.859                   115009333.553 6     -1570.271          46.300  
                  21885559.074    89617710.730 8     -1223.587          39.600  
                                                                
  23457968.672                   123272483.094 6      1841.164          43.200  
                  23457976.551    96056487.767 7      1434.669          28.100  
                                                                
  20074594.016                   105492768.364 7        61.184          49.800  
                  20074600.980    82202152.562 9        47.671          43.500  
                                                                
  21938492.008                   115287513.789 7      2237.177          47.500  
                  21938499.133    89834492.822 8      1743.257          37.600  
                                                                
  23544809.406                   123728788.104 5     -2277.301          39.600  
                  23544816.145    96412077.363 6     -1774.531          24.700  
                                                                
  23845756.906                   125310259.601 5      2747.018          39.400  
                  23845762.703    97644418.907 6      2140.527          24.200  
                                                                
  23856421.367                   125366293.876 5     -2958.021          41.100  
                  23856431.930    97688058.143 7     -2304.952          26.400  
                                                                
  22028745.109                   115761836.724 7      2667.767          51.000  
                  22028752.031    90204067.415 8      2078.778          40.100  
                                                                
  20922965.625                   109950860.147 7     -1656.242          50.400  
                  20922973.949    85676083.346 9     -1290.580          45.400  
                                                                
  21538386.359    21538385.480   115134984.670 4     -1859.236          38.000  
  21538391.063    21538392.063    89549487.513 7     -1446.081          29.000  
                                                                
  20406232.570    20406231.746   108891583.769 4       422.360          39.000  
                                                                                
                                                                
  23043624.758    23043624.910   123354294.623 2      2153.825          33.900  
  23043631.875    23043631.602    95942291.909 8      1675.193          37.100  
                                                                
  22228956.070    22228956.145   118784804.402 3      -364.922          36.900  
  22228962.875    22228963.750    92388233.987 8      -283.825          34.900  
                                                                
  21991603.594    21991602.672   117475166.356 3      3209.292          37.000  
  21991606.789    21991609.230    91369633.686 8      2496.121          38.300  
                                                                
  21754038.734    21754037.871   116328612.398 4     -4046.114          37.100  
  21754047.965    21754046.875    90477824.776 9     -3146.970          41.900  
                                                                
  20228145.492    20228144.613   108244861.186 6      -657.144          44.900  
  20228149.875    20228150.711    84190483.196 9      -511.111          46.200  
                                                                
  22902144.797    22902144.629   122253220.443 5      3197.568          39.600  
  22902149.859    22902151.352    95085848.769 8      2486.992          39.700  
                                                                
 18 07 01  0  3 55.0000000  0 19G01G08G10G11G14G18G20G22G27G31G32R05 0.000000000
                                R06R07R15R16R20R21R22       
  23681231.227                   124445722.564 4      3295.110          38.500  
                  23681241.359    96970724.066 6      2567.616          24.400  
                                                                
  23384664.773                   122887208.869 6     -1983.616          42.300  
                  23384674.363    95756307.562 7     -1545.676          29.500  
                                                                
  21887044.359                   115017187.743 6     -1571.216          46.100  
                  21887053.758    89623830.878 8     -1224.326          39.600  
                                                                
  23456218.781                   123263283.487 6      1839.076          43.700  
                  23456226.113    96049319.241 7      1433.053          28.500  
                                                                
  20074537.680                   105492470.048 7        58.631          49.600  
                  20074544.309    82201920.103 9        45.686          43.400  
                                                                
  21936364.586                   115276333.772 6      2235.188          47.000  
                  21936371.922    89825781.122 8      1741.710          37.500  
                                                                
  23546976.156                   123740176.816 5     -2278.055          39.500  
                  23546983.223    96420951.659 6     -1775.102          25.900  
                                                                
  23843143.781                   125296524.649 5      2746.959          39.400  
                  23843148.965    97633716.384 6      2140.467          23.900  
                                                                
  23859235.984                   125381084.419 5     -2958.168          40.900  
                  23859246.508    97699583.228 6     -2305.074          25.800  
                                                                
  22026207.961                   115748503.021 7      2666.031          51.600  
                  22026214.605    90193677.523 8      2077.425          39.000  
                                                                
  20924542.063                   109959145.976 7     -1657.805          51.400  
                  20924550.922    85682539.840 9     -1291.798          45.400  
                                                                
  21540125.203    21540124.301   115144281.440 4     -1859.448          38.100  
  21540130.746    21540131.863    89556718.316 7     -1446.237          28.300  
                                                                
  20405837.164    20405835.707   108889474.472 4       421.529          39.000  
                                                                                
                                                                
  23041614.648    23041614.637   123343527.225 1      2153.245          33.000  
  23041621.320    23041619.848    95933917.273 8      1674.744          36.800  
                                                                
  22229300.352    22229299.840   118786641.298 4      -369.049          37.400  
  22229305.949    22229307.488    92389662.681 8      -287.041          34.800  
                                                                
  21988600.695    21988599.422   117459125.337 4      3207.439          37.400  
  21988604.848    21988606.566    91357157.351 8      2494.673          37.400  
                                                                
  21757822.648    21757821.855   116348847.939 4     -4047.802          37.600  
  21757831.480    21757831.332    90493563.521 9     -3148.288          42.100  
                                                                
  20228761.016    20228761.285   108248160.372 7      -661.639          45.200  
  20228766.496    20228766.961    84193049.226 9      -514.614          45.700  
                                                                
  22899151.328    22899150.410   122237241.005 4      3194.723          38.300  
  22899156.676    22899157.176    95073420.313 8      2484.783          40.000  
                                                                
 18 07 01  0  4  0.0000000  0 19G01G08G10G11G14G18G20G22G27G31G32R05 0.000000000
                                R06R07R15R16R20R21R22       
  23678096.125                   124429249.979 4      3294.145          38.900  
                  23678106.281    96957888.280 6      2566.863          25.100  
                                                                
  23386553.719                   122897132.400 6     -1985.390          43.000  
                  23386563.000    95764040.184 7     -1547.050          29.200  
                                                                
  21888540.234                   115025046.966 7     -1572.233          47.200  
                  21888549.496    89629954.943 8     -1225.117          39.200  
                                                                
  23454470.625                   123254094.658 6      1836.919          43.400  
                  23454477.168    96042159.120 7      1431.360          28.900  
                                                                
  20074483.211                   105492184.649 7        56.048          49.100  
                  20074489.758    82201697.718 9        43.674          43.700  
                                                                
  21934238.922                   115265163.878 7      2233.195          47.300  
                  21934246.434    89817077.307 8      1740.157          37.300  
                                                                
  23549144.125                   123751569.619 5     -2278.854          39.600  
                  23549151.738    96429829.155 6     -1775.715          25.600  
                                                                
  23840530.484                   125282789.984 5      2746.910          40.200  
                  23840534.754    97623014.062 6      2140.443          24.900  
                                                                
  23862051.086                   125395875.922 5     -2958.377          41.200  
                  23862061.199    97711109.076 7     -2305.238          27.600  
                                                                
  22023672.445                   115735178.198 7      2664.262          50.800  
                  22023678.918    90183294.552 8      2076.046          39.800  
                                                                
  20926120.516                   109967439.801 7     -1659.396          51.700  
                  20926129.148    85689002.557 9     -1293.036          45.300  
                                                                
  21541863.813    21541864.762   115153579.513 4     -1859.688          37.800  
  21541868.289    21541870.418    89563950.160 7     -1446.427          28.800  
                                                                
  20405443.336    20405441.785   108887369.557 4       420.601          39.000  
                                                                                
                                                                
  23039601.984    23039601.996   123332762.817 2      2152.652          34.200  
  23039609.926    23039608.824    95925544.979 8      1674.278          37.200  
                                                                
  22229648.047    22229647.746   118788499.114 4      -373.226          38.000  
  22229655.371    22229655.336    92391107.658 8      -290.299          34.200  
                                                                
  21985599.703    21985598.477   117443093.966 4      3205.549          37.100  
  21985603.137    21985605.613    91344688.518 8      2493.202          37.400  
                                                                
  21761608.563    21761607.512   116369091.950 4     -4049.459          38.100  
  21761616.820    21761616.715    90509308.868 9     -3149.576          42.300  
                                                                
  20229381.469    20229381.973   108251482.179 6      -666.173          44.900  
  20229387.367    20229388.152    84195632.847 9      -518.133          46.300  
                                                                
  22896159.195    22896159.660   122221276.099 4      3191.820          37.400  
  22896165.547    22896166.391    95061003.203 8      2482.516          40.200  
                                                                
 18 07 01  0  4  5.0000000  0 19G01G08G10G11G14G18G20G22G27G31G32R05 0.000000000
                                R06R07R15R16R20R21R22       
  23674962.664                   124412782.433 4      3293.117          37.700  
                  23674972.680    96945056.409 6      2566.064          23.900  
                                                                
  23388442.930                   122907064.678 6     -1987.155          42.900  
                  23388453.039    95771779.616 7     -1548.429          29.800  
                                                                
  21890036.477                   115032911.029 7     -1573.214          48.900  
                  21890046.031    89636082.781 8     -1225.880          39.400  
                                                                
  23452723.633                   123244916.407 6      1834.796          44.300  
                  23452730.754    96035007.234 7      1429.721          28.900  
                                                                
  20074431.352                   105491912.047 7        53.487          49.300  
                  20074437.969    82201485.296 9        41.677          43.600  
                                                                
  21932115.477                   115254004.011 6      2231.163          46.900  
                  21932122.730    89808381.306 8      1738.568          37.400  
                                                                
  23551313.203                   123762966.503 5     -2279.702          40.100  
                  23551320.238    96438709.860 7     -1776.399          27.000  
                                                                
  23837916.719                   125269055.470 5      2746.889          40.900  
                  23837920.555    97612311.826 6      2140.435          25.000  
                                                                
  23864865.805                   125410668.261 5     -2958.532          40.900  
                  23864876.211    97722635.562 6     -2305.345          25.200  
                                                                
  22021138.133                   115721862.163 7      2662.505          50.500  
                  22021145.047    90172918.425 8      2074.675          39.800  
                                                                
  20927700.148                   109975741.464 7     -1660.967          52.000  
                  20927708.547    85695471.384 9     -1294.257          45.700  
                                                                
  21543604.508    21543604.238   115162878.914 4     -1859.991          38.600  
  21543610.820    21543609.828    89571183.020 7     -1446.656          27.800  
                                                                
  20405048.906    20405048.621   108885269.177 4       419.734          38.600  
                                                                                
                                                                
  23037592.297    23037591.887   123322001.223 2      2152.052          33.600  
  23037599.992    23037598.418    95917174.874 8      1673.810          37.300  
                                                                
  22229998.383    22229999.230   118790377.962 4      -377.448          37.700  
  22230005.871    22230006.535    92392568.971 8      -293.575          34.300  
                                                                
  21982600.828    21982600.023   117427072.129 4      3203.638          38.000  
  21982605.094    21982605.910    91332227.092 8      2491.719          37.700  
                                                                
  21765394.820    21765394.707   116389344.515 4     -4051.208          38.100  
  21765404.094    21765404.297    90525060.857 9     -3150.937          42.300  
                                                                
  20230006.961    20230006.504   108254826.494 6      -670.675          45.000  
  20230012.660    20230013.500    84198233.980 9      -521.632          46.000  
                                                                
  22893172.180    22893170.180   122205325.701 4      3188.939          38.700  
  22893177.793    22893178.641    95048597.346 8      2480.290          39.900  
                                                                
 18 07 01  0  4 10.0000000  0 19G01G08G10G11G14G18G20G22G27G31G32R05 0.000000000
                                R06R07R15R16R20R21R22       
  23671830.164                   124396320.059 4      3292.063          37.100  
                  23671840.223    96932228.589 7      2565.233          26.400  
                                                                
  23390334.766                   122917005.896 5     -1988.971          41.600  
                  23390344.895    95779526.029 7     -1549.854          29.200  
                                                                
  21891534.219                   115040780.099 7     -1574.241          49.800  
                  21891543.391    89642214.519 8     -1226.675          38.900  
                                                                
  23450979.484                   123235748.875 6      1832.633          43.800  
                  23450986.277    96027863.719 7      1428.019          28.900  
                                                                
  20074381.836                   105491652.348 7        50.885          47.400  
                  20074388.414    82201282.928 9        39.655          43.400  
                                                                
  21929993.219                   115242854.223 6      2229.112          46.300  
                  21930001.043    89799693.156 8      1736.970          36.900  
                                                                
  23553483.172                   123774367.442 5     -2280.512          39.400  
                  23553489.879    96447593.682 6     -1777.018          24.400  
                                                                
  23835303.156                   125255321.236 5      2746.795          41.700  
                  23835306.738    97601609.800 6      2140.363          24.700  
                                                                
  23867681.336                   125425461.481 5     -2958.715          40.600  
                  23867691.504    97734162.744 7     -2305.491          27.400  
                                                                
  22018605.750                   115708555.033 7      2660.702          51.100  
                  22018613.145    90162549.236 8      2073.279          39.600  
                                                                
  20929281.445                   109984051.082 8     -1662.577          52.500  
                  20929289.902    85701946.414 9     -1295.519          45.800  
                                                                
  21545344.367    21545344.426   115172179.562 4     -1860.254          38.400  
  21545350.219    21545350.258    89578416.858 7     -1446.870          28.800  
                                                                
  20404656.586    20404655.316   108883173.157 4       418.852          38.700  
                                                                                
                                                                
  23035580.805    23035581.379   123311242.784 3      2151.468          35.300  
  23035590.184    23035589.086    95908807.203 8      1673.364          37.300  
                                                                
  22230354.305    22230354.027   118792277.568 4      -381.580          37.900  
  22230361.199    22230362.172    92394046.445 8      -296.789          34.800  
                                                                
  21979602.852    21979601.648   117411059.938 4      3201.629          38.400  
  21979605.844    21979608.836    91319773.169 8      2490.160          37.200  
                                                                
  21769184.086    21769183.621   116409605.685 4     -4052.949          37.600  
  21769193.953    21769193.090    90540819.539 9     -3152.295          42.200  
                                                                
  20230636.211    20230636.082   108258193.406 6      -675.208          44.500  
  20230641.367    20230642.273    84200852.684 9      -525.162          45.600  
                                                                
  22890186.086    22890185.848   122189389.751 4      3186.029          37.600  
  22890192.457    22890193.246    95036202.724 8      2478.019          38.600  
                                                                
 18 07 01  0  4 15.0000000  0 19G01G08G10G11G14G18G20G22G27G31G32R05 0.000000000
                                R06R07R15R16R20R21R22       
  23668698.094                   124379862.835 3      3291.030          37.000  
                  23668708.242    96919404.785 6      2564.429          24.900  
                                                                
  23392228.148                   122926956.093 6     -1990.747          43.000  
                  23392238.348    95787279.419 7     -1551.227          29.400  
                                                                
  21893032.156                   115048654.169 7     -1575.216          49.500  
                  21893041.539    89648350.154 8     -1227.436          39.200  
                                                                
  23449237.188                   123226592.131 6      1830.510          43.700  
                  23449243.473    96020728.586 7      1426.378          29.600  
                                                                
  20074334.977                   105491405.572 7        48.318          47.500  
                  20074341.453    82201090.633 9        37.651          43.600  
                                                                
  21927873.781                   115231714.620 6      2227.119          47.000  
                  21927881.328    89791012.953 8      1735.413          37.700  
                                                                
  23555653.234                   123785772.533 5     -2281.334          40.600  
                  23555659.996    96456480.772 7     -1777.672          26.200  
                                                                
  23832689.328                   125241587.329 5      2746.773          40.500  
                  23832693.184    97590908.046 6      2140.342          23.500  
                                                                
  23870495.984                   125440255.658 5     -2958.924          40.900  
                  23870506.703    97745690.683 7     -2305.665          26.100  
                                                                
  22016075.383                   115695256.846 7      2658.925          50.900  
                  22016082.402    90152187.024 8      2071.888          39.800  
                                                                
  20930864.188                   109992368.644 8     -1664.154          52.100  
                  20930872.664    85708427.627 9     -1296.741          45.500  
                                                                
  21547085.016    21547083.641   115181481.606 4     -1860.550          38.400  
  21547089.563    21547090.211    89585651.773 7     -1447.094          28.600  
                                                                
  20404263.797    20404263.395   108881081.545 4       417.958          38.600  
                                                                                
                                                                
  23033571.586    23033572.727   123300487.220 2      2150.859          34.800  
  23033580.855    23033579.102    95900441.788 8      1672.896          37.200  
                                                                
  22230713.102    22230713.715   118794197.935 4      -385.728          38.100  
  22230721.098    22230722.309    92395540.070 8      -300.004          35.600  
                                                                
  21976606.148    21976606.305   117395057.428 4      3199.745          37.900  
  21976610.125    21976613.137    91307326.790 8      2488.684          37.500  
                                                                
  21772973.742    21772974.547   116429875.325 4     -4054.645          38.000  
  21772984.039    21772983.879    90556584.809 9     -3153.613          41.800  
                                                                
  20231269.844    20231269.621   108261582.945 6      -679.708          44.500  
  20231275.086    20231276.117    84203488.995 9      -528.661          46.200  
                                                                
  22887202.070    22887202.535   122173468.470 4      3183.107          37.100  
  22887208.586    22887209.652    95023819.511 8      2475.747          38.500  
                                                                
 18 07 01  0  4 20.0000000  0 19G01G08G10G11G14G18G20G22G27G31G32R05 0.000000000
                                R06R07R15R16R20R21R22       
  23665566.695                   124363410.713 4      3289.981          37.700  
                  23665577.605    96906584.959 6      2563.613          25.300  
                                                                
  23394123.875                   122936915.072 6     -1992.526          43.200  
                  23394133.430    95795039.668 7     -1552.621          29.500  
                                                                
  21894531.734                   115056533.142 7     -1576.214          49.100  
                  21894540.801    89654489.607 8     -1228.214          39.000  
                                                                
  23447496.500                   123217446.045 6      1828.328          43.400  
                  23447502.438    96013601.770 7      1424.675          29.100  
                                                                
  20074290.406                   105491171.596 7        45.733          48.700  
                  20074296.797    82200908.314 9        35.635          43.500  
                                                                
  21925755.938                   115220585.143 6      2225.033          47.000  
                  21925763.375    89782340.621 8      1733.795          37.100  
                                                                
  23557824.852                   123797181.618 5     -2282.168          40.000  
                  23557831.609    96465370.957 7     -1778.307          26.900  
                                                                
  23830075.055                   125227853.636 5      2746.685          39.900  
                  23830080.238    97580206.463 6      2140.274          25.000  
                                                                
  23873312.172                   125455050.626 5     -2959.090          40.600  
                  23873322.410    97757219.213 7     -2305.778          26.700  
                                                                
  22013546.719                   115681967.534 7      2657.103          50.300  
                  22013553.598    90141831.723 8      2070.469          39.900  
                                                                
  20932448.547                   110000694.090 8     -1665.747          52.200  
                  20932457.371    85714914.988 9     -1297.982          45.500  
                                                                
  21548825.039    21548823.949   115190784.894 4     -1860.785          38.400  
  21548828.754    21548830.789    89592887.660 7     -1447.276          29.100  
                                                                
  20403873.195    20403871.785   108878994.471 5       417.039          39.400  
                                                                                
                                                                
  23031563.977    23031563.355   123289734.622 2      2150.208          35.000  
  23031571.078    23031570.719    95892078.649 8      1672.380          36.700  
                                                                
  22231077.188    22231076.934   118796139.221 4      -389.963          38.100  
  22231085.023    22231085.508    92397049.944 8      -303.315          34.900  
                                                                
  21973613.453    21973612.086   117379064.571 4      3197.759          37.900  
  21973617.910    21973619.191    91294887.914 8      2487.148          37.800  
                                                                
  21776767.086    21776766.621   116450153.334 4     -4056.301          38.400  
  21776776.020    21776775.961    90572356.587 9     -3154.901          42.100  
                                                                
  20231907.453    20231907.559   108264995.019 6      -684.269          44.000  
  20231912.574    20231912.977    84206142.822 9      -532.206          45.900  
                                                                
  22884223.914    22884222.855   122157561.735 4      3180.148          38.600  
  22884229.375    22884229.871    95011447.607 8      2473.453          38.700  
                                                                
 18 07 01  0  4 25.0000000  0 19G01G08G10G11G14G18G20G22G27G31G32R05 0.000000000
                                R06R07R15R16R20R21R22       
  23662437.883                   124346963.675 4      3289.001          37.500  
                  23662448.348    96893769.084 6      2562.851          24.800  
                                                                
  23396020.359                   122946882.839 6     -1994.251          43.800  
                  23396030.113    95802806.764 7     -1553.959          30.400  
                                                                
  21896031.750                   115064417.043 7     -1577.149          49.100  
                  21896041.363    89660632.906 8     -1228.946          39.400  
                                                                
  23445757.938                   123208310.665 6      1826.238          44.000  
                  23445764.766    96006483.282 7      1423.052          29.700  
                                                                
  20074248.023                   105490950.471 7        43.226          48.600  
                  20074254.734    82200736.008 9        33.681          43.600  
                                                                
  21923639.891                   115209465.770 6      2223.095          46.500  
                  21923647.281    89773676.184 8      1732.278          36.800  
                                                                
  23559995.469                   123808594.771 5     -2282.946          40.000  
                  23560003.285    96474264.316 6     -1778.916          25.600  
                                                                
  23827462.406                   125214120.175 5      2746.692          40.800  
                  23827466.988    97569505.090 6      2140.292          25.200  
                                                                
  23876127.031                   125469846.405 5     -2959.185          41.600  
                  23876137.965    97768748.382 7     -2305.858          27.300  
                                                                
  22011019.266                   115668687.083 7      2655.397          51.000  
                  22011026.535    90131483.328 8      2069.134          39.800  
                                                                
  20934034.242                   110009027.388 8     -1667.272          52.500  
                  20934042.910    85721408.463 9     -1299.168          45.600  
                                                                
  21550565.328    21550565.270   115200089.373 4     -1860.969          38.400  
  21550571.633    21550571.320    89600124.469 7     -1447.412          29.500  
                                                                
  20403482.195    20403481.840   108876911.637 4       416.263          38.900  
                                                                                
                                                                
  23029555.063    23029555.754   123278984.919 3      2149.731          35.200  
  23029562.934    23029562.605    95883717.761 8      1672.008          36.800  
                                                                
  22231444.328    22231444.285   118798101.507 4      -394.144          37.600  
  22231452.977    22231452.441    92398576.170 8      -306.557          34.700  
                                                                
  21970621.375    21970619.773   117363081.347 4      3195.876          38.100  
  21970626.477    21970627.113    91282456.531 8      2485.675          37.200  
                                                                
  21780559.961    21780560.387   116470439.925 4     -4057.982          38.200  
  21780570.145    21780569.320    90588135.045 9     -3156.208          42.700  
                                                                
  20232549.688    20232549.418   108268429.591 6      -688.682          43.900  
  20232554.895    20232555.332    84208814.154 9      -535.641          45.900  
                                                                
  22881246.336    22881245.324   122141669.459 4      3177.321          38.000  
  22881252.152    22881252.277    94999086.950 8      2471.246          38.100  
                                                                
 18 07 01  0  4 30.0000000  0 19G01G08G10G11G14G18G20G22G27G31G32R05 0.000000000
                                R06R07R15R16R20R21R22       
  23659309.656                   124330521.882 4      3287.954          38.700  
                  23659319.617    96880957.305 6      2562.022          25.900  
                                                                
  23397918.516                   122956859.477 6     -1996.074          43.400  
                  23397928.520    95810580.766 7     -1555.382          29.700  
                                                                
  21897533.156                   115072305.992 7     -1578.211          49.700  
                  21897542.813    89666780.137 8     -1229.778          39.500  
                                                                
  23444021.172                   123199186.084 6      1824.028          44.300  
                  23444028.137    95999373.226 7      1421.314          29.100  
                                                                
  20074208.633                   105490742.264 7        40.585          49.300  
                  20074215.102    82200573.776 9        31.619          43.600  
                                                                
  21921525.828                   115198356.617 6      2220.987          46.600  
                  21921533.586    89765019.699 8      1730.644          37.100  
                                                                
  23562168.188                   123820012.073 5     -2283.822          40.000  
                  23562175.918    96483160.919 6     -1779.610          25.400  
                                                                
  23824848.906                   125200387.099 5      2746.543          40.500  
                  23824853.707    97558804.007 6      2140.169          23.400  
                                                                
  23878942.805                   125484643.073 5     -2959.431          40.500  
                  23878953.570    97780278.257 7     -2306.047          27.400  
                                                                
  22008494.117                   115655415.630 7      2653.552          50.800  
                  22008501.012    90121141.937 8      2067.703          39.400  
                                                                
  20935621.289                   110017368.642 7     -1668.929          51.600  
                  20935630.496    85727908.147 9     -1300.470          45.200  
                                                                
  21552305.961    21552305.785   115209395.250 4     -1861.302          38.400  
  21552311.965    21552312.098    89607362.384 7     -1447.687          27.700  
                                                                
  20403093.391    20403092.730   108874833.435 5       415.208          39.400  
                                                                                
                                                                
  23027546.977    23027548.164   123268238.167 2      2149.096          34.900  
  23027555.402    23027554.625    95875359.185 8      1671.518          36.600  
                                                                
  22231814.586    22231815.574   118800084.809 4      -398.377          37.700  
  22231823.734    22231823.273    92400118.739 8      -309.849          35.300  
                                                                
  21967629.813    21967628.867   117347107.828 4      3193.934          38.100  
  21967633.879    21967637.422    91270032.693 8      2484.166          37.000  
                                                                
  21784356.000    21784355.160   116490734.882 4     -4059.688          38.400  
  21784364.977    21784365.012    90603920.008 9     -3157.536          42.800  
                                                                
  20233195.492    20233195.105   108271886.757 6      -693.301          44.500  
  20233199.816    20233201.781    84211503.059 9      -539.232          46.000  
                                                                
  22878271.156    22878270.895   122125791.901 5      3174.308          39.200  
  22878276.934    22878278.188    94986737.764 8      2468.896          38.900  
                                                                
 18 07 01  0  4 35.0000000  0 19G01G08G10G11G14G18G20G22G27G31G32R05 0.000000000
                                R06R07R15R16R20R21R22       
  23656180.570                   124314085.278 4      3286.880          38.600  
                  23656192.395    96868149.564 6      2561.204          25.700  
                                                                
  23399819.047                   122966844.905 6     -1997.803          43.900  
                  23399828.730    95818361.607 7     -1556.730          29.900  
                                                                
  21899035.125                   115080199.850 7     -1579.184          49.600  
                  21899044.645    89672931.188 8     -1230.539          38.900  
                                                                
  23442287.023                   123190072.202 6      1821.889          44.800  
                  23442293.578    95992271.497 7      1419.654          28.100  
                                                                
  20074171.414                   105490546.889 7        38.015          48.900  
                  20074178.031    82200421.527 9        29.623          43.600  
                                                                
  21919413.859                   115187257.584 6      2218.955          47.000  
                  21919421.508    89756371.100 8      1729.059          36.900  
                                                                
  23564342.273                   123831433.422 5     -2284.607          41.000  
                  23564349.664    96492060.675 6     -1780.221          26.000  
                                                                
  23822236.680                   125186654.210 5      2746.547          40.600  
                  23822241.141    97548103.058 6      2140.173          24.400  
                                                                
  23881759.609                   125499440.561 6     -2959.581          42.100  
                  23881768.906    97791808.769 7     -2306.169          26.200  
                                                                
  22005969.828                   115642153.064 7      2651.775          51.100  
                  22005976.906    90110807.474 8      2066.316          39.900  
                                                                
  20937210.016                   110025717.713 7     -1670.462          51.900  
                  20937219.313    85734413.916 9     -1301.662          45.200  
                                                                
  21554047.617    21554046.785   115218702.387 4     -1861.565          38.200  
  21554054.523    21554053.438    89614601.261 7     -1447.885          28.200  
                                                                
  20402705.211    20402704.480   108872759.668 5       414.393          39.400  
                                                                                
                                                                
  23025541.359    23025541.371   123257494.437 2      2148.539          34.000  
  23025548.730    23025548.000    95867002.959 8      1671.082          36.400  
                                                                
  22232190.195    22232190.105   118802089.100 4      -402.536          37.400  
  22232197.258    22232198.711    92401677.630 8      -313.086          34.500  
                                                                
  21964640.055    21964640.773   117331143.956 4      3191.983          38.200  
  21964645.766    21964648.609    91257616.354 8      2482.651          37.500  
                                                                
  21788151.383    21788151.902   116511038.223 4     -4061.393          38.100  
  21788162.156    21788161.777    90619711.489 9     -3158.862          42.900  
                                                                
  20233845.664    20233845.395   108275366.464 6      -697.774          44.700  
  20233850.930    20233851.180    84214209.495 9      -542.710          45.500  
                                                                
  22875299.844    22875299.535   122109928.935 5      3171.376          40.100  
  22875306.723    22875307.164    94974399.901 8      2466.626          38.600  
                                                                
 18 07 01  0  4 40.0000000  0 19G01G08G10G11G14G18G20G22G27G31G32R05 0.000000000
                                R06R07R15R16R20R21R22       
  23653055.016                   124297653.797 4      3285.845          38.100  
                  23653065.434    96855345.808 7      2560.408          26.900  
                                                                
  23401720.828                   122976839.165 6     -1999.571          43.900  
                  23401730.520    95826149.343 7     -1558.113          29.800  
                                                                
  21900538.039                   115088098.642 7     -1580.145          49.000  
                  21900547.551    89679086.088 8     -1231.283          39.300  
                                                                
  23440555.008                   123180969.057 6      1819.756          44.000  
                  23440561.617    95985178.141 7      1417.997          29.600  
                                                                
  20074136.852                   105490364.321 7        35.488          49.100  
                  20074143.398    82200279.266 9        27.653          44.100  
                                                                
  21917303.523                   115176168.640 6      2216.964          46.900  
                  21917311.215    89747730.362 8      1727.501          37.200  
                                                                
  23566516.313                   123842858.800 5     -2285.395          40.500  
                  23566523.406    96500963.549 7     -1780.819          26.200  
                                                                
  23819624.047                   125172921.625 5      2746.498          41.100  
                  23819627.555    97537402.349 6      2140.120          23.200  
                                                                
  23884574.703                   125514238.799 5     -2959.733          40.800  
                  23884585.418    97803339.851 7     -2306.283          26.700  
                                                                
  22003448.039                   115628899.427 7      2650.000          50.000  
                  22003454.762    90100479.975 8      2064.929          38.900  
                                                                
  20938800.648                   110034074.629 7     -1672.021          52.000  
                  20938809.059    85740925.799 9     -1302.878          45.300  
                                                                
  21555788.813    21555788.098   115228010.914 4     -1861.800          38.100  
  21555793.621    21555795.141    89621841.229 7     -1448.068          29.300  
                                                                
  20402317.320    20402316.051   108870690.151 5       413.574          39.200  
                                                                                
                                                                
  23023535.570    23023535.113   123246753.648 3      2147.976          35.100  
  23023542.457    23023541.508    95858649.011 8      1670.638          36.800  
                                                                
  22232569.305    22232568.301   118804114.233 4      -406.705          37.300  
  22232576.988    22232577.816    92403252.739 8      -316.324          34.800  
                                                                
  21961654.586    21961653.805   117315189.923 4      3190.017          37.700  
  21961659.531    21961661.703    91245207.683 8      2481.119          38.000  
                                                                
  21791950.727    21791950.824   116531349.964 4     -4063.011          38.600  
  21791960.129    21791960.523    90635509.500 9     -3160.122          42.700  
                                                                
  20234500.039    20234499.699   108278868.745 6      -702.270          45.000  
  20234505.742    20234506.148    84216933.491 9      -546.214          45.900  
                                                                
  22872333.305    22872330.883   122094080.550 5      3168.515          40.000  
  22872336.160    22872338.246    94962073.381 8      2464.397          38.100  
                                                                
 18 07 01  0  4 45.0000000  0 19G01G08G10G11G14G18G20G22G27G31G32R05 0.000000000
                                R06R07R15R16R20R21R22       
  23649928.328                   124281227.469 4      3284.860          37.800  
                  23649939.164    96842546.089 6      2559.630          24.300  
                                                                
  23403624.133                   122986842.319 6     -2001.350          44.300  
                  23403633.727    95833944.013 7     -1559.501          28.800  
                                                                
  21902042.578                   115096002.446 7     -1581.185          49.400  
                  21902051.930    89685244.889 8     -1232.092          39.300  
                                                                
  23438824.695                   123171876.676 6      1817.597          44.500  
                  23438831.281    95978093.169 7      1416.304          29.600  
                                                                
  20074104.617                   105490194.617 7        32.909          49.100  
                  20074110.941    82200147.035 9        25.640          43.600  
                                                                
  21915195.398                   115165089.966 6      2214.898          46.700  
                  21915203.148    89739097.641 8      1725.890          37.200  
                                                                
  23568691.375                   123854288.297 5     -2286.234          40.400  
                  23568698.125    96509869.649 7     -1781.477          26.100  
                                                                
  23817010.188                   125159189.344 5      2746.413          39.200  
                  23817014.063    97526701.837 6      2140.083          23.900  
                                                                
  23887390.664                   125529037.797 5     -2959.861          41.000  
                  23887400.680    97814871.519 7     -2306.375          26.500  
                                                                
  22000927.672                   115615654.742 7      2648.201          49.500  
                  22000934.340    90090159.445 8      2063.533          39.500  
                                                                
  20940392.188                   110042439.411 7     -1673.609          52.000  
                  20940401.055    85747443.809 9     -1304.111          45.400  
                                                                
  21557529.617    21557529.418   115237320.709 4     -1862.073          37.900  
  21557535.879    21557536.133    89629082.176 7     -1448.275          28.100  
                                                                
  20401931.297    20401929.652   108868625.056 5       412.659          39.400  
                                                                                
                                                                
  23021527.469    23021528.066   123236015.749 2      2147.398          34.600  
  23021536.715    23021535.859    95850297.327 8      1670.192          36.800  
                                                                
  22232951.289    22232951.949   118806160.224 3      -410.851          36.800  
  22232959.598    22232960.598    92404844.063 8      -319.554          35.200  
                                                                
  21958670.070    21958668.844   117299245.605 4      3188.056          37.800  
  21958674.039    21958677.227    91232806.550 8      2479.598          37.200  
                                                                
  21795750.023    21795749.512   116551670.102 4     -4064.686          38.100  
  21795760.633    21795759.914    90651314.047 9     -3161.425          43.100  
                                                                
  20235158.930    20235158.379   108282393.558 6      -706.778          45.000  
  20235163.969    20235164.574    84219675.007 9      -549.718          45.700  
                                                                
  22869366.438    22869365.000   122078246.856 5      3165.571          39.600  
  22869370.676    22869371.840    94949758.277 8      2462.116          37.700  
                                                                
 18 07 01  0  4 50.0000000  0 19G01G08G10G11G14G18G20G22G27G31G32R05 0.000000000
                                R06R07R15R16R20R21R22       
  23646803.438                   124264806.390 4      3283.786          38.400  
                  23646814.465    96829750.436 6      2558.808          24.400  
                                                                
  23405529.742                   122996854.143 6     -2003.072          44.100  
                  23405539.145    95841745.429 7     -1560.835          30.400  
                                                                
  21903547.516                   115103911.150 7     -1582.154          49.100  
                  21903556.773    89691407.511 8     -1232.844          38.600  
                                                                
  23437096.633                   123162795.009 6      1815.455          43.300  
                  23437103.461    95971016.554 7      1414.646          28.500  
                                                                
  20074074.680                   105490037.697 7        30.337          49.200  
                  20074081.230    82200024.750 9        23.643          43.900  
                                                                
  21913089.273                   115154021.452 6      2212.855          47.000  
                  21913097.043    89730472.817 8      1724.308          37.700  
                                                                
  23570867.164                   123865721.855 5     -2287.070          40.300  
                  23570874.184    96518778.910 6     -1782.124          25.800  
                                                                
  23814396.016                   125145457.339 4      2746.357          38.700  
                  23814400.387    97516001.568 6      2140.036          22.600  
                                                                
  23890207.180                   125543837.597 5     -2960.004          40.600  
                  23890217.484    97826403.829 7     -2306.494          26.900  
                                                                
  21998408.883                   115602419.001 7      2646.420          50.200  
                  21998415.867    90079845.884 8      2062.147          40.100  
                                                                
  20941985.641                   110050811.990 8     -1675.153          52.100  
                  20941994.059    85753967.898 9     -1305.317          45.100  
                                                                
  21559271.328    21559271.809   115246631.738 4     -1862.339          37.900  
  21559277.824    21559277.793    89636324.069 7     -1448.479          28.900  
                                                                
  20401544.031    20401543.113   108866564.234 4       411.792          39.000  
                                                                                
                                                                
  23019522.156    23019523.063   123225280.772 2      2146.741          34.800  
  23019530.582    23019530.070    95841947.897 8      1669.684          36.800  
                                                                
  22233337.398    22233338.953   118808227.174 3      -415.088          36.900  
  22233345.984    22233347.227    92406451.687 8      -322.852          34.500  
                                                                
  21955685.773    21955685.742   117283310.971 4      3186.084          37.700  
  21955691.422    21955693.645    91220412.957 8      2478.065          37.500  
                                                                
  21799551.789    21799551.652   116571998.511 4     -4066.340          38.100  
  21799561.758    21799562.203    90667125.027 9     -3162.711          42.800  
                                                                
  20235821.484    20235821.590   108285940.880 6      -711.303          43.900  
  20235827.074    20235827.977    84222434.034 9      -553.242          45.700  
                                                                
  22866403.023    22866401.609   122062427.800 5      3162.636          39.500  
  22866407.047    22866408.293    94937454.555 8      2459.831          37.700  
                                                                
 18 07 01  0  4 55.0000000  0 19G01G08G10G11G14G18G20G22G27G31G32R05 0.000000000
                                R06R07R15R16R20R21R22       
  23643679.570                   124248390.542 4      3282.761          37.900  
                  23643690.563    96816958.885 6      2557.986          25.400  
                                                                
  23407435.625                   123006874.807 6     -2004.839          43.900  
                  23407445.602    95849553.729 7     -1562.208          28.300  
                                                                
  21905053.141                   115111824.858 7     -1583.138          48.800  
                  21905062.574    89697574.035 8     -1233.614          39.300  
                                                                
  23435371.055                   123153724.157 6      1813.319          44.300  
                  23435376.836    95963948.359 7      1412.980          28.900  
                                                                
  20074047.289                   105489893.635 7        27.796          48.700  
                  20074054.113    82199912.501 9        21.660          43.600  
                                                                
  21910984.461                   115142963.137 6      2210.845          46.900  
                  21910992.223    89721855.941 8      1722.738          37.100  
                                                                
  23573043.555                   123877159.477 5     -2287.857          40.500  
                  23573050.535    96527691.345 7     -1782.756          26.500  
                                                                
  23811782.852                   125131725.610 4      2746.334          38.800  
                  23811786.859    97505301.519 6      2139.990          22.900  
                                                                
  23893023.891                   125558638.142 5     -2960.164          40.700  
                  23893033.461    97837936.717 7     -2306.618          26.600  
                                                                
  21995891.773                   115589192.296 7      2644.626          50.200  
                  21995898.785    90069539.370 8      2060.747          39.600  
                                                                
  20943580.227                   110059192.444 7     -1676.703          51.700  
                  20943588.926    85760498.117 9     -1306.517          45.800  
                                                                
  21561013.930    21561013.941   115255944.165 4     -1862.577          38.500  
  21561019.930    21561020.063    89643567.078 7     -1448.666          28.400  
                                                                
  20401158.641    20401158.027   108864507.908 4       410.928          38.500  
                                                                                
                                                                
  23017518.578    23017518.238   123214548.791 3      2146.099          35.300  
  23017525.914    23017525.883    95833600.806 8      1669.186          37.500  
                                                                
  22233730.203    22233729.996   118810315.078 4      -419.272          37.400  
  22233737.102    22233737.996    92408075.609 8      -326.099          34.900  
                                                                
  21952704.750    21952704.367   117267386.146 4      3184.205          37.300  
  21952709.906    21952712.816    91208026.991 8      2476.601          36.900  
                                                                
  21803354.750    21803355.035   116592335.295 4     -4068.009          38.100  
  21803365.461    21803365.129    90682942.515 9     -3164.002          42.900  
                                                                
  20236488.867    20236488.668   108289510.752 6      -715.781          44.700  
  20236493.785    20236494.621    84225210.592 9      -556.715          45.600  
                                                                
  22863441.766    22863440.730   122046623.391 5      3159.720          39.600  
  22863446.273    22863447.250    94925162.250 8      2457.553          39.000  
                                                                
 18 07 01  0  5  0.0000000  0 19G01G08G10G11G14G18G20G22G27G31G32R05 0.000000000
                                R06R07R15R16R20R21R22       
  23640557.352                   124231979.941 4      3281.634          38.000  
                  23640567.863    96804171.411 7      2557.121          26.900  
                                                                
  23409344.359                   123016904.135 6     -2006.595          44.100  
                  23409354.125    95857368.796 7     -1563.586          29.200  
                                                                
  21906560.031                   115119743.551 7     -1584.181          49.100  
                  21906569.398    89703744.437 8     -1234.423          39.400  
                                                                
  23433646.164                   123144664.089 6      1811.109          44.100  
                  23433653.164    95956888.567 7      1411.250          29.100  
                                                                
  20074022.188                   105489762.437 7        25.176          48.300  
                  20074028.914    82199810.267 9        19.614          44.000  
                                                                
  21908882.336                   115131915.020 6      2208.753          46.000  
                  21908890.230    89713247.025 8      1721.108          36.800  
                                                                
  23575221.125                   123888601.176 5     -2288.711          40.400  
                  23575228.238    96536606.938 6     -1783.401          25.700  
                                                                
  23809170.063                   125117994.183 5      2746.242          39.500  
                  23809174.438    97494601.719 6      2139.911          24.300  
                                                                
  23895840.406                   125573439.466 5     -2960.382          40.900  
                  23895850.602    97849470.214 7     -2306.787          26.900  
                                                                
  21993376.320                   115575974.591 7      2642.784          50.300  
                  21993383.750    90059239.867 8      2059.310          39.700  
                                                                
  20945176.469                   110067580.742 8     -1678.318          52.100  
                  20945185.270    85767034.457 9     -1307.782          45.300  
                                                                
  21562756.555    21562755.770   115265257.789 4     -1862.866          38.400  
  21562761.723    21562762.676    89650811.005 7     -1448.894          27.700  
                                                                
  20400773.328    20400773.066   108862456.050 4       409.986          38.600  
                                                                                
                                                                
  23015514.148    23015514.137   123203819.718 3      2145.530          35.400  
  23015522.711    23015521.406    95825255.984 8      1668.743          37.300  
                                                                
  22234125.047    22234124.582   118812423.872 4      -423.500          37.600  
  22234132.820    22234133.180    92409715.762 8      -329.380          35.400  
                                                                
  21949726.055    21949725.508   117251471.226 4      3182.188          37.400  
  21949730.617    21949733.227    91195648.735 8      2475.033          37.100  
                                                                
  21807159.477    21807159.410   116612680.343 4     -4069.688          37.800  
  21807169.547    21807169.582    90698766.431 9     -3165.309          43.300  
                                                                
  20237160.617    20237160.113   108293103.121 6      -720.321          44.200  
  20237165.383    20237166.523    84228004.660 9      -560.249          45.500  
                                                                
  22860483.383    22860483.027   122030833.767 5      3156.738          39.600  
  22860488.676    22860489.922    94912881.431 8      2455.246          38.700  
                                                                
 18 07 01  0  5  5.0000000  0 19G01G08G10G11G14G18G20G22G27G31G32R05 0.000000000
                                R06R07R15R16R20R21R22       
  23637435.648                   124215574.568 5      3280.642          39.100  
                  23637445.355    96791387.995 6      2556.353          25.300  
                                                                
  23411254.602                   123026942.204 6     -2008.319          44.300  
                  23411264.664    95865190.659 7     -1564.921          29.600  
                                                                
  21908067.930                   115127667.191 7     -1585.123          48.600  
                  21908077.656    89709918.699 8     -1235.155          39.000  
                                                                
  23431924.430                   123135614.804 6      1808.976          44.700  
                  23431931.121    95949837.184 7      1409.574          29.600  
                                                                
  20073999.820                   105489644.066 7        22.636          47.900  
                  20074006.039    82199718.025 9        17.640          43.900  
                                                                
  21906782.195                   115120877.182 6      2206.728          46.800  
                  21906789.785    89704646.116 8      1719.526          37.400  
                                                                
  23577398.477                   123900046.927 5     -2289.488          40.800  
                  23577405.668    96545525.697 6     -1784.009          25.000  
                                                                
  23806557.359                   125104263.024 5      2746.192          40.300  
                  23806562.168    97483902.124 6      2139.884          25.000  
                                                                
  23898656.883                   125588241.465 5     -2960.465          41.100  
                  23898666.953    97861004.242 7     -2306.860          28.100  
                                                                
  21990863.141                   115562765.875 7      2641.002          50.900  
                  21990870.223    90048947.365 8      2057.928          39.600  
                                                                
  20946774.266                   110075976.843 8     -1679.865          52.600  
                  20946782.883    85773576.868 9     -1308.980          45.400  
                                                                
  21564498.969    21564498.301   115274572.766 4     -1863.093          38.600  
  21564506.840    21564504.441    89658055.979 7     -1449.079          28.000  
                                                                
  20400391.430    20400389.410   108860408.497 4       409.175          38.800  
                                                                                
                                                                
  23013510.898    23013510.535   123193093.466 3      2145.048          36.100  
  23013518.332    23013517.359    95816913.356 8      1668.367          37.100  
                                                                
  22234522.523    22234523.207   118814553.669 4      -427.640          38.100  
  22234529.727    22234531.637    92411372.268 8      -332.600          35.800  
                                                                
  21946748.516    21946748.156   117235566.055 3      3180.226          36.600  
  21946753.664    21946755.379    91183278.045 8      2473.508          37.500  
                                                                
  21810967.023    21810965.691   116633033.733 4     -4071.338          38.600  
  21810975.914    21810975.387    90714596.832 9     -3166.590          43.500  
                                                                
  20237835.602    20237835.637   108296717.975 6      -724.783          44.500  
  20237840.871    20237841.746    84230816.212 9      -563.723          46.300  
                                                                
  22857528.398    22857528.230   122015058.755 5      3153.812          39.600  
  22857534.203    22857534.805    94900611.977 8      2452.963          37.900  
                                                                
 18 07 01  0  5 10.0000000  0 19G01G08G10G11G14G18G20G22G27G31G32R05 0.000000000
                                R06R07R15R16R20R21R22       
  23634314.313                   124199174.437 5      3279.587          39.400  
                  23634324.500    96778608.682 7      2555.521          26.500  
                                                                
  23413166.977                   123036989.038 6     -2010.072          43.200  
                  23413176.539    95873019.364 7     -1566.290          30.600  
                                                                
  21909576.820                   115135595.780 7     -1586.117          48.800  
                  21909586.363    89716096.818 8     -1235.935          39.000  
                                                                
  23430204.477                   123126576.273 6      1806.843          43.600  
                  23430210.801    95942794.162 7      1407.930          29.600  
                                                                
  20073979.711                   105489538.520 7        20.092          48.800  
                  20073986.254    82199635.781 9        15.660          43.500  
                                                                
  21904683.352                   115109849.598 6      2204.709          46.800  
                  21904691.117    89696053.187 8      1717.954          37.400  
                                                                
  23579577.797                   123911496.751 5     -2290.306          41.100  
                  23579584.949    96554447.633 6     -1784.640          24.600  
                                                                
  23803944.938                   125090532.130 5      2746.171          40.400  
                  23803949.656    97473202.736 6      2139.871          25.800  
                                                                
  23901473.445                   125603044.171 5     -2960.609          40.600  
                  23901483.820    97872538.811 7     -2306.967          27.100  
                                                                
  21988351.188                   115549566.148 7      2639.228          50.300  
                  21988357.773    90038661.873 8      2056.535          39.900  
                                                                
  20948373.375                   110084380.727 8     -1681.399          52.800  
                  20948381.961    85780125.351 9     -1310.179          45.400  
                                                                
  21566241.555    21566240.910   115283888.997 4     -1863.376          39.000  
  21566247.602    21566247.078    89665301.949 7     -1449.302          27.400  
                                                                
  20400007.039    20400006.449   108858365.374 4       408.217          38.800  
                                                                                
                                                                
  23011506.734    23011507.379   123182370.275 3      2144.410          35.200  
  23011516.094    23011514.410    95808573.098 8      1667.875          37.400  
                                                                
  22234924.859    22234925.426   118816704.441 4      -431.831          37.400  
  22234933.527    22234934.059    92413045.091 8      -335.864          35.300  
                                                                
  21943774.164    21943773.266   117219670.719 3      3178.315          36.900  
  21943777.988    21943779.711    91170915.015 8      2472.023          37.200  
                                                                
  21814774.094    21814774.168   116653395.194 4     -4072.941          37.900  
  21814782.598    21814784.105    90730433.518 9     -3167.842          43.200  
                                                                
  20238515.570    20238515.465   108300355.355 6      -729.259          45.000  
  20238519.680    20238520.855    84233645.279 9      -567.201          46.100  
                                                                
  22854577.141    22854576.105   121999298.554 5      3150.849          40.800  
  22854581.082    22854582.117    94888354.044 8      2450.660          38.500  
                                                                
 18 07 01  0  5 15.0000000  0 19G01G08G10G11G14G18G20G22G27G31G32R05 0.000000000
                                R06R07R15R16R20R21R22       
  23631194.742                   124182779.619 4      3278.536          38.800  
                  23631204.348    96765833.492 6      2554.705          25.300  
                                                                
  23415080.203                   123047044.599 6     -2011.820          42.800  
                  23415089.887    95880854.868 7     -1567.650          30.600  
                                                                
  21911086.367                   115143529.424 7     -1587.135          49.800  
                  21911095.645    89722278.872 8     -1236.730          39.300  
                                                                
  23428487.164                   123117548.585 6      1804.646          44.400  
                  23428493.043    95935759.602 7      1406.222          28.900  
                                                                
  20073962.148                   105489445.830 7        17.503          48.900  
                  20073968.371    82199563.559 9        13.640          43.800  
                                                                
  21902586.859                   115098832.194 6      2202.655          46.600  
                  21902594.652    89687468.204 8      1716.356          37.400  
                                                                
  23581757.547                   123922950.685 5     -2291.123          40.900  
                  23581763.695    96563372.788 6     -1785.292          25.100  
                                                                
  23801332.555                   125076801.622 5      2746.069          41.300  
                  23801337.742    97462503.651 7      2139.781          27.600  
                                                                
  23904291.016                   125617847.628 5     -2960.736          41.100  
                  23904301.184    97884073.952 6     -2307.056          25.600  
                                                                
  21985841.250                   115536375.492 7      2637.391          50.600  
                  21985848.141    90028383.441 8      2055.109          39.500  
                                                                
  20949974.492                   110092792.488 8     -1682.980          52.200  
                  20949982.883    85786679.968 9     -1311.409          45.600  
                                                                
  21567984.430    21567984.160   115293206.535 4     -1863.633          38.300  
  21567990.820    21567990.793    89672548.910 7     -1449.491          27.200  
                                                                
  20399624.063    20399624.227   108856326.691 4       407.392          38.300  
                                                                                
                                                                
  23009503.930    23009505.469   123171649.985 3      2143.833          35.700  
  23009513.000    23009511.973    95800235.103 8      1667.430          37.500  
                                                                
  22235331.602    22235332.426   118818876.245 4      -436.032          37.900  
  22235338.738    22235340.254    92414734.269 8      -339.133          34.800  
                                                                
  21940799.961    21940799.273   117203785.394 3      3176.240          37.000  
  21940803.824    21940805.563    91158559.775 8      2470.404          37.000  
                                                                
  21818584.219    21818583.332   116673765.101 4     -4074.637          38.100  
  21818592.953    21818592.438    90746276.770 9     -3169.157          42.800  
                                                                
  20239199.461    20239199.168   108304015.261 7      -733.771          45.300  
  20239204.813    20239205.406    84236491.874 9      -570.711          45.700  
                                                                
  22851628.664    22851626.125   121983553.155 5      3147.878          40.800  
  22851630.727    22851632.145    94876107.606 8      2448.359          38.300  
                                                                
 18 07 01  0  5 20.0000000  0 19G01G08G10G11G14G18G20G22G27G31G32R05 0.000000000
                                R06R07R15R16R20R21R22       
  23628076.422                   124166390.077 5      3277.481          39.200  
                  23628086.082    96753062.419 6      2553.889          25.700  
                                                                
  23416995.672                   123057108.854 6     -2013.561          43.500  
                  23417005.336    95888697.148 7     -1569.010          30.100  
                                                                
  21912596.789                   115151468.010 7     -1588.129          48.900  
                  21912606.789    89728464.782 8     -1237.503          39.000  
                                                                
  23426771.172                   123108531.695 6      1802.511          44.300  
                  23426777.098    95928733.451 7      1404.553          28.600  
                                                                
  20073946.867                   105489365.908 7        14.947          49.600  
                  20073953.660    82199501.285 9        11.641          44.000  
                                                                
  21900492.250                   115087825.079 6      2200.593          46.500  
                  21900500.418    89678891.240 8      1714.749          37.100  
                                                                
  23583937.508                   123934408.691 5     -2291.927          40.500  
                  23583944.781    96572301.098 6     -1785.930          25.600  
                                                                
  23798719.383                   125063071.414 5      2746.012          41.700  
                  23798724.805    97451804.774 7      2139.758          26.300  
                                                                
  23907107.820                   125632651.752 5     -2960.893          41.000  
                  23907118.078    97895609.635 7     -2307.207          26.900  
                                                                
  21983332.867                   115523193.891 7      2635.590          50.300  
                  21983339.492    90018112.069 8      2053.708          39.200  
                                                                
  20951576.336                   110101212.003 8     -1684.531          52.100  
                  20951585.168    85793240.635 9     -1312.619          45.000  
                                                                
  21569728.148    21569727.223   115302525.235 4     -1863.860          38.600  
  21569733.656    21569733.578    89679796.784 7     -1449.661          28.400  
                                                                
  20399243.156    20399243.156   108854292.443 5       406.515          39.100  
                                                                                
                                                                
  23007504.773    23007503.590   123160932.613 3      2143.231          35.500  
  23007511.484    23007510.574    95791899.361 8      1666.961          37.800  
                                                                
  22235742.375    22235742.707   118821068.977 4      -440.219          38.500  
  22235750.039    22235750.332    92416439.714 8      -342.384          35.100  
                                                                
  21937828.375    21937827.898   117187909.838 3      3174.357          36.700  
  21937831.789    21937834.184    91146212.126 8      2468.943          36.300  
                                                                
  21822393.617    21822394.254   116694143.219 4     -4076.303          37.800  
  21822404.090    21822403.695    90762126.411 9     -3170.459          43.500  
                                                                
  20239887.773    20239887.316   108307697.637 7      -738.284          45.100  
  20239892.633    20239893.422    84239355.940 9      -574.222          45.500  
                                                                
  22848680.391    22848679.238   121967822.499 5      3144.977          40.700  
  22848684.500    22848684.996    94863872.650 8      2446.090          38.400  
                                                                
 18 07 01  0  5 25.0000000  0 19G01G08G10G11G14G18G20G22G27G31G32R05 0.000000000
                                R06R07R15R16R20R21R22       
  23624957.781                   124150005.777 4      3276.452          38.900  
                  23624968.324    96740295.441 7      2553.081          26.900  
                                                                
  23418912.242                   123067181.734 6     -2015.228          42.300  
                  23418922.344    95896546.139 7     -1570.302          29.700  
                                                                
  21914109.102                   115159411.489 7     -1589.061          49.100  
                  21914118.020    89734654.501 8     -1238.225          39.600  
                                                                
  23425056.508                   123099525.540 6      1800.386          43.900  
                  23425063.410    95921715.672 7      1402.899          29.300  
                                                                
  20073934.031                   105489298.710 7        12.441          49.500  
                  20073940.426    82199448.918 9         9.695          43.700  
                                                                
  21898399.664                   115076828.160 7      2198.619          47.200  
                  21898407.691    89670322.199 8      1713.215          36.800  
                                                                
  23586118.828                   123945870.659 5     -2292.694          40.600  
                  23586125.453    96581232.503 6     -1786.530          26.000  
                                                                
  23796106.430                   125049341.379 5      2746.019          40.200  
                  23796112.555    97441106.060 6      2139.751          25.600  
                                                                
  23909925.555                   125647456.495 5     -2960.990          39.800  
                  23909935.238    97907145.782 7     -2307.252          26.100  
                                                                
  21980825.984                   115510021.277 7      2633.829          50.700  
                  21980832.895    90007847.703 8      2052.333          39.400  
                                                                
  20953180.313                   110109639.221 8     -1686.030          52.500  
                  20953188.539    85799807.297 9     -1313.790          44.900  
                                                                
  21571470.609    21571470.879   115311845.336 4     -1864.110          38.400  
  21571477.500    21571477.117    89687045.767 7     -1449.873          28.200  
                                                                
  20398862.758    20398863.039   108852262.256 4       405.685          38.700  
                                                                                
                                                                
  23005501.445    23005502.469   123150218.033 2      2142.729          34.800  
  23005509.758    23005508.293    95783565.804 8      1666.566          37.100  
                                                                
  22236157.867    22236157.285   118823282.324 4      -444.313          37.600  
  22236164.258    22236165.000    92418161.210 8      -345.583          35.300  
                                                                
  21934858.547    21934857.836   117172044.204 4      3172.383          37.700  
  21934862.230    21934863.078    91133872.191 8      2467.408          36.500  
                                                                
  21826208.484    21826207.246   116714529.462 4     -4077.896          38.100  
  21826216.422    21826215.258    90777982.374 9     -3171.702          43.000  
                                                                
  20240579.992    20240579.746   108311402.462 7      -742.758          45.500  
  20240585.215    20240586.129    84242237.467 9      -577.696          45.200  
                                                                
  22845736.578    22845735.070   121952106.586 5      3142.011          40.500  
  22845741.148    22845741.777    94851649.166 8      2443.788          39.000  
                                                                
