     2.11           OBSERVATION DATA    M (MIXED)           RINEX VERSION / TYPE
teqc  2019Feb25                         20240504 22:35:50UTCPGM / RUN BY / DATE
MTLD                                                        MARKER NAME
Maitland                                                    MARKER NUMBER
CORSnet-NSW         NSW                                     OBSERVER / AGENCY
                    TRIMBLE NETR9                           REC # / TYPE / VERS
1912118025          TRM57971.00     NONE                    ANT # / TYPE
 -4722246.3590  2557539.8900 -3429486.2010                  APPROX POSITION XYZ
        0.0000        0.0000        0.0000                  ANTENNA: DELTA H/E/N
     1     1                                                WAVELENGTH FACT L1/2
    14    C1    P1    L1    D1    S1    C2    P2    L2    D2# / TYPES OF OBSERV
          S2    C5    L5    D5    S5                        # / TYPES OF OBSERV
     5.0000                                                 INTERVAL
     0                                                      RCV CLOCK OFFS APPL
    18                                                      LEAP SECONDS
teqc edited: all GLONASS satellites excluded                COMMENT
  2018     7     1     0     0    0.0000000     GPS         TIME OF FIRST OBS
Linux 2.6.32-573.12.1.x86_64|x86_64|gcc -static|Linux 64|=+ COMMENT
TPP                 Reference Data Shop 04-JUL-18 01:00     COMMENT
                                                            END OF HEADER
 18  7  1  0  0  0.0000000  0 11G01G08G10G11G14G18G20G22G27G31G32
  23832827.203                   125242353.99215                        39.500
                  23832833.422    97591446.48116                        25.500

  23275369.484                   122312866.29916                        44.500
                  23275376.883    95308722.93817                        31.000

  21835836.258                   114748098.71217                        48.300
                  21835841.977    89414098.68918                        36.500

  23537425.625                   123690006.92916                        46.300
                  23537428.824    96381823.80417                        30.000

  20077863.172                   105509892.86316                        46.500
                  20077865.852    82215506.68818                        39.000

  22037755.672                   115809190.10617                        47.500
                  22037759.750    90240931.18818                        35.500

  23461867.203                   123292929.94315                        41.000
                  23461870.422    96072417.24516                        22.500

  23958837.164                   125904553.84413                        37.000
                  23958839.504    98107444.93216                        22.000

  23699840.820                   124543481.93015                        41.000
                  23699848.141    97046862.06116                        26.000

  22137941.711                   116335688.82517                        49.000
                  22137946.973    90651190.45018                        36.300

  20864999.078                   109646319.31117                        49.800
                  20865005.039    85438692.75919                        42.000

 18  7  1  0  0  5.0000000  0 11G01G08G10G11G14G18G20G22G27G31G32
  23829646.578                   125225640.433 5      3342.376          39.500
                  23829653.418    97578422.949 6      2604.455          26.000

  23277162.930                   122322291.914 6     -1885.906          45.000
                  23277170.828    95316067.566 7     -1469.529          30.500

  21837284.758                   114755711.540 7     -1522.938          49.000
                  21837290.617    89420030.753 8     -1186.705          37.000

  23535570.906                   123680261.321 6      1948.310          45.500
                  23535574.227    96374229.826 7      1518.163          30.000

  20077713.406                   105509107.482 6       156.035          46.500
                  20077716.305    82214894.709 8       121.586          39.800

  22035533.797                   115797514.234 7      2334.418          47.500
                  22035537.938    90231833.102 8      1819.029          35.500

  23463989.625                   123304084.613 5     -2231.243          40.500
                  23463992.586    96081109.184 6     -1738.615          23.300

  23956235.102                   125890874.587 4      2735.858          37.800
                  23956236.121    98096785.773 6      2131.842          22.800

  23702641.766                   124558199.337 5     -2943.611          40.500
                  23702648.965    97058330.174 6     -2293.731          25.500

  22135342.195                   116322027.606 7      2731.591          49.500
                  22135346.676    90640545.363 8      2128.510          36.300

  20866521.578                   109654321.038 7     -1600.999          49.300
                  20866527.020    85444927.871 9     -1247.526          41.500

 18  7  1  0  0 10.0000000  0 11G01G08G10G11G14G18G20G22G27G31G32
  23826466.922                   125208931.257 5      3341.422          39.800
                  23826473.582    97565402.814 6      2603.720          25.500

  23278958.586                   122331726.950 6     -1887.801          44.500
                  23278966.324    95323419.549 7     -1471.020          31.500

  21838733.758                   114763329.034 7     -1523.913          48.500
                  21838740.219    89425966.465 8     -1187.467          37.300

  23533718.602                   123670525.827 6      1946.237          45.500
                  23533721.840    96366643.721 7      1516.550          29.500

  20077565.945                   105508335.050 6       153.408          46.000
                  20077569.324    82214292.815 8       119.538          39.000

  22033313.633                   115785847.745 7      2332.505          47.800
                  22033317.414    90222742.329 8      1817.531          35.500

  23466113.742                   123315243.171 5     -2232.087          39.500
                  23466116.121    96089804.163 6     -1739.291          22.000

  23953631.820                   125877195.257 4      2735.806          39.000
                  23953633.699    98086126.561 6      2131.801          22.800

  23705442.445                   124572918.250 5     -2943.960          40.500
                  23705448.906    97069799.455 6     -2293.999          24.500

  22132744.375                   116308374.519 7      2729.909          49.500
                  22132748.734    90629906.602 8      2127.196          36.000

  20868045.680                   109662330.944 7     -1602.699          49.500
                  20868051.398    85451169.365 9     -1248.863          42.300

 18  7  1  0  0 15.0000000  0 11G01G08G10G11G14G18G20G22G27G31G32
  23823288.578                   125192226.668 5      3340.502          40.000
                  23823294.879    97552386.255 7      2602.983          26.500

  23280755.266                   122341171.741 6     -1889.784          44.800
                  23280762.824    95330779.121 7     -1472.559          31.300

  21840184.680                   114770951.521 7     -1524.953          48.500
                  21840191.039    89431906.058 8     -1188.277          37.500

  23531867.547                   123660800.848 6      1944.100          45.500
                  23531870.867    96359065.819 7      1514.887          29.500

  20077422.266                   105507575.881 6       150.728          46.800
                  20077424.844    82213701.259 8       117.444          38.800

  22031095.477                   115774190.955 7      2330.524          47.300
                  22031099.258    90213659.116 8      1815.993          36.000

  23468237.984                   123326405.880 5     -2232.946          41.300
                  23468240.043    96098502.378 6     -1739.964          22.500

  23951028.844                   125863516.197 4      2735.711          38.800
                  23951030.582    98075467.556 6      2131.723          22.300

  23708244.039                   124587638.984 5     -2944.341          40.800
                  23708250.438    97081270.155 7     -2294.292          26.800

  22130147.992                   116294729.928 7      2728.183          50.300
                  22130151.891    90619274.459 8      2125.861          36.000

  20869571.961                   109670349.301 7     -1604.402          49.300
                  20869577.520    85457417.429 9     -1250.183          43.000

 18  7  1  0  0 20.0000000  0 11G01G08G10G11G14G18G20G22G27G31G32
  23820110.445                   125175526.468 5      3339.704          39.500
                  23820116.785    97539373.116 6      2602.363          26.000

  23282554.625                   122350626.038 6     -1891.626          45.500
                  23282561.566    95338146.104 7     -1473.990          30.300

  21841635.578                   114778578.680 7     -1525.797          48.000
                  21841642.199    89437849.293 8     -1188.927          37.300

  23530019.141                   123651086.024 6      1942.125          45.300
                  23530022.402    96351495.830 7      1513.336          29.500

  20077280.391                   105506829.685 7       148.192          47.300
                  20077282.789    82213119.808 8       115.474          38.500

  22028879.234                   115762543.615 6      2328.688          46.500
                  22028882.875    90204583.267 8      1814.560          36.000

  23470362.742                   123337572.471 5     -2233.663          40.000
                  23470364.684    96107203.601 6     -1740.513          22.300

  23948426.039                   125849837.177 4      2735.798          38.800
                  23948427.359    98064808.575 6      2131.778          22.800

  23711045.742                   124602361.202 5     -2944.580          40.500
                  23711052.383    97092742.009 6     -2294.480          26.000

  22127553.156                   116281093.570 7      2726.588          49.500
                  22127557.156    90608648.724 8      2124.616          36.500

  20871099.383                   109678375.852 7     -1605.989          49.000
                  20871105.102    85463671.889 9     -1251.428          42.500

 18  7  1  0  0 25.0000000  0 11G01G08G10G11G14G18G20G22G27G31G32
  23816933.445                   125158830.886 5      3338.734          40.000
                  23816939.324    97526363.580 7      2601.601          27.000

  23284355.242                   122360090.016 6     -1893.597          45.300
                  23284362.863    95345520.634 7     -1475.524          29.800

  21843088.297                   114786210.778 7     -1526.832          47.500
                  21843094.719    89443796.382 8     -1189.741          37.500

  23528172.445                   123641381.626 6      1940.025          45.500
                  23528175.625    96343933.958 7      1511.693          30.300

  20077140.508                   105506096.723 6       145.504          46.800
                  20077143.609    82212548.668 8       113.380          39.000

  22026664.656                   115750905.927 7      2326.746          47.500
                  22026668.715    90195514.936 8      1813.051          36.000

  23472488.164                   123348743.192 5     -2234.491          40.000
                  23472489.723    96115908.030 6     -1741.147          22.500

  23945822.742                   125836158.399 4      2735.719          39.000
                  23945824.461    98054149.790 6      2131.725          22.000

  23713847.461                   124617085.144 5     -2944.959          40.500
                  23713854.660    97104215.194 6     -2294.773          24.800

  22124959.570                   116267465.621 7      2724.907          50.000
                  22124963.531    90598029.543 8      2123.300          36.500

  20872628.422                   109686410.775 7     -1607.673          49.000
                  20872634.582    85469932.866 9     -1252.736          43.000

 18  7  1  0  0 30.0000000  0 11G01G08G10G11G14G18G20G22G27G31G32
  23813756.961                   125142139.727 5      3337.830          40.300
                  23813763.563    97513357.486 7      2600.903          26.300

  23286158.383                   122369563.452 6     -1895.494          44.500
                  23286165.504    95352902.528 7     -1477.008          30.500

  21844541.375                   114793847.640 6     -1527.789          46.500
                  21844547.414    89449747.178 8     -1190.480          37.500

  23526327.688                   123631687.544 6      1937.942          45.500
                  23526330.688    96336380.134 7      1510.084          29.500

  20077003.648                   105505376.801 6       142.890          46.500
                  20077006.527    82211987.685 8       111.349          39.000

  22024451.813                   115739277.692 6      2324.823          47.000
                  22024456.074    90186453.980 8      1811.550          35.800

  23474614.320                   123359917.880 5     -2235.295          40.000
                  23474615.961    96124615.596 6     -1741.792          22.500

  23943219.461                   125822479.717 4      2735.677          39.000
                  23943221.039    98043491.076 6      2131.686          23.800

  23716649.563                   124631810.636 5     -2945.277          40.800
                  23716657.063    97115689.610 7     -2295.015          26.500

  22122368.156                   116253845.991 7      2723.222          49.000
                  22122372.035    90587416.848 8      2121.987          36.000

  20874159.000                   109694453.943 7     -1609.320          49.000
                  20874164.441    85476200.263 9     -1254.020          42.300

 18  7  1  0  0 35.0000000  0 11G01G08G10G11G14G18G20G22G27G31G32
  23810581.922                   125125453.092 5      3336.961          40.000
                  23810587.762    97500354.914 7      2600.225          26.300

  23287962.844                   122379046.468 6     -1897.391          44.000
                  23287969.863    95360291.885 7     -1478.486          29.500

  21845996.078                   114801489.305 6     -1528.742          46.300
                  21846001.777    89455701.728 8     -1191.232          37.000

  23524484.703                   123622003.743 6      1935.916          45.300
                  23524487.805    96328834.313 7      1508.512          29.000

  20076868.852                   105504669.923 6       140.304          46.500
                  20076871.910    82211436.880 8       109.324          39.000

  22022240.711                   115727659.019 6      2322.967          46.800
                  22022245.371    90177400.477 8      1810.100          35.300

  23476741.641                   123371096.586 5     -2236.075          39.800
                  23476743.180    96133326.265 6     -1742.398          22.500

  23940616.844                   125808801.128 4      2735.700          39.000
                  23940618.605    98032832.441 6      2131.717          22.500

  23719451.563                   124646537.668 5     -2945.547          40.300
                  23719459.543    97127165.211 6     -2295.236          25.500

  22119777.711                   116240234.684 7      2721.583          48.800
                  22119781.570    90576810.643 8      2120.710          36.000

  20875690.820                   109702505.346 7     -1610.952          48.800
                  20875696.781    85482474.079 9     -1255.285          41.300

 18  7  1  0  0 40.0000000  0 11G01G08G10G11G14G18G20G22G27G31G32
  23807407.063                   125108771.051 5      3336.007          40.500
                  23807413.563    97487355.922 6      2599.490          25.500

  23289769.125                   122388539.001 6     -1899.262          43.800
                  23289775.863    95367688.652 7     -1479.946          30.800

  21847450.953                   114809135.815 6     -1529.712          46.300
                  21847456.754    89461660.041 8     -1191.987          37.500

  23522644.141                   123612330.332 6      1933.819          45.500
                  23522646.941    96321296.588 7      1506.874          29.800

  20076737.031                   105503976.161 6       137.682          47.000
                  20076739.930    82210896.287 8       107.278          38.500

  22020031.891                   115716050.009 6      2321.002          46.800
                  22020035.949    90168354.489 8      1808.575          35.500

  23478870.125                   123382279.351 5     -2236.882          39.800
                  23478871.324    96142040.100 6     -1743.002          21.500

  23938014.039                   125795122.767 4      2735.627          38.800
                  23938015.617    98022173.994 6      2131.651          22.800

  23722255.563                   124661266.327 5     -2945.886          41.000
                  23722262.121    97138642.057 6     -2295.492          26.000

  22117189.336                   116226631.833 7      2719.854          48.300
                  22117193.234    90566211.017 8      2119.371          35.800

  20877224.539                   109710565.052 7     -1612.621          49.000
                  20877230.320    85488754.363 9     -1256.585          42.300

 18  7  1  0  0 45.0000000  0 11G01G08G10G11G14G18G20G22G27G31G32
  23804233.219                   125092093.539 5      3335.150          41.000
                  23804239.820    97474360.454 6      2598.810          25.500

  23291577.430                   122398041.051 6     -1901.169          44.300
                  23291584.148    95375092.835 7     -1481.420          31.000

  21848907.094                   114816787.191 6     -1530.658          46.800
                  21848912.516    89467622.140 8     -1192.716          37.500

  23520804.688                   123602667.288 6      1931.777          45.500
                  23520807.469    96313766.948 7      1505.269          29.000

  20076607.531                   105503295.516 6       135.089          47.000
                  20076610.512    82210365.908 8       105.268          39.300

  22017824.492                   115704450.625 7      2319.094          47.300
                  22017828.594    90159316.010 8      1807.087          35.500

  23480998.344                   123393466.195 5     -2237.712          39.800
                  23480999.484    96150757.103 6     -1743.666          21.800

  23935411.023                   125781444.535 4      2735.632          39.000
                  23935412.504    98011515.636 6      2131.649          22.500

  23725057.945                   124675996.577 5     -2946.183          41.500
                  23725064.887    97150120.189 7     -2295.727          26.800

  22114601.656                   116213037.408 7      2718.201          49.000
                  22114605.938    90555617.969 8      2118.075          35.800

  20878760.023                   109718633.039 7     -1614.252          48.800
                  20878765.645    85495041.107 9     -1257.857          42.000

 18  7  1  0  0 50.0000000  0 11G01G08G10G11G14G18G20G22G27G31G32
  23801060.281                   125075420.630 5      3334.228          41.300
                  23801067.520    97461368.582 7      2598.083          26.800

  23293387.727                   122407552.597 6     -1903.027          45.500
                  23293394.566    95382504.437 7     -1482.874          30.300

  21850364.039                   114824443.399 6     -1531.606          46.800
                  21850369.758    89473588.019 8     -1193.464          37.300

  23518968.727                   123593014.590 6      1929.738          45.300
                  23518970.926    96306245.370 7      1503.692          29.500

  20076480.445                   105502627.984 6       132.464          46.300
                  20076483.246    82209845.751 8       103.218          39.000

  22015619.117                   115692860.854 6      2317.184          46.300
                  22015622.738    90150285.020 8      1805.602          36.000

  23483127.805                   123404657.000 4     -2238.451          39.000
                  23483129.645    96159477.211 6     -1744.221          22.500

  23932808.164                   125767766.445 4      2735.622          38.500
                  23932809.926    98000857.408 6      2131.621          22.800

  23727861.820                   124690728.328 5     -2946.443          41.000
                  23727868.121    97161599.467 7     -2295.928          26.500

  22112016.852                   116199451.384 7      2716.556          49.000
                  22112020.191    90545031.463 8      2116.799          35.800

  20880296.781                   109726709.246 7     -1615.874          49.000
                  20880302.500    85501334.257 9     -1259.122          42.000

 18  7  1  0  0 55.0000000  0 11G01G08G10G11G14G18G20G22G27G31G32
  23797888.844                   125058752.283 5      3333.314          40.300
                  23797895.344    97448380.257 6      2597.379          24.800

  23295199.125                   122417073.608 6     -1904.974          44.300
                  23295206.344    95389923.408 7     -1484.395          30.500

  21851822.219                   114832104.432 7     -1532.600          48.500
                  21851827.520    89479557.651 8     -1194.235          37.500

  23517133.266                   123583372.322 6      1927.634          45.500
                  23517136.344    96298731.903 7      1502.054          29.800

  20076355.430                   105501973.504 6       129.836          46.500
                  20076358.391    82209335.770 8       101.175          39.500

  22013415.055                   115681280.643 6      2315.242          47.000
                  22013419.395    90141261.478 8      1804.087          35.800

  23485258.766                   123415851.892 5     -2239.305          39.800
                  23485260.066    96168200.507 6     -1744.905          22.000

  23930204.805                   125754088.497 4      2735.566          38.800
                  23930207.484    97990199.277 6      2131.596          24.500

  23730664.461                   124705461.658 5     -2946.803          40.500
                  23730671.801    97173079.988 7     -2296.223          26.500

  22109433.031                   116185873.804 7      2714.835          48.500
                  22109436.410    90534451.530 8      2115.450          36.000

  20881835.484                   109734793.706 7     -1617.552          49.300
                  20881840.805    85507633.836 9     -1260.430          42.300

 18  7  1  0  1  0.0000000  0 11G01G08G10G11G14G18G20G22G27G31G32
  23794718.023                   125042088.452 5      3332.455          39.500
                  23794724.664    97435395.440 7      2596.740          26.300

  23297012.789                   122426604.072 6     -1906.784          44.300
                  23297020.270    95397349.735 7     -1485.800          30.500

  21853280.719                   114839770.244 7     -1533.493          48.800
                  21853286.258    89485531.004 8     -1194.927          37.800

  23515301.086                   123573740.386 6      1925.626          45.800
                  23515303.305    96291226.506 7      1500.486          29.500

  20076233.805                   105501332.050 6       127.311          46.300
                  20076236.746    82208835.939 8        99.197          39.000

  22011213.711                   115669710.066 6      2313.422          46.500
                  22011217.570    90132245.441 8      1802.674          36.000

  23487389.641                   123427050.719 5     -2239.982          39.800
                  23487391.781    96176926.850 6     -1745.435          22.500

  23927602.141                   125740410.643 4      2735.598          38.500
                  23927604.602    97979541.224 6      2131.614          22.800

  23733469.203                   124720196.423 5     -2947.027          39.800
                  23733475.324    97184561.604 6     -2296.370          25.800

  22106850.938                   116172304.635 7      2713.214          49.000
                  22106854.656    90523878.160 8      2114.193          36.000

  20883375.305                   109742886.350 7     -1619.134          49.000
                  20883380.703    85513939.788 9     -1261.657          42.000

 18  7  1  0  1  5.0000000  0 11G01G08G10G11G14G18G20G22G27G31G32
  23791547.500                   125025429.265 5      3331.446          39.500
                  23791554.020    97422414.255 7      2595.942          27.000

  23298828.227                   122436144.115 6     -1908.789          43.500
                  23298835.805    95404783.530 7     -1487.364          29.500

  21854740.180                   114847440.956 7     -1534.583          49.000
                  21854745.980    89491508.181 8     -1195.779          37.500

  23513470.023                   123564118.902 6      1923.417          46.000
                  23513472.664    96283729.248 7      1498.756          29.500

  20076114.289                   105500703.737 6       124.589          47.000
                  20076116.969    82208346.340 8        97.084          39.500

  22009013.570                   115658149.193 6      2311.375          47.000
                  22009017.270    90123236.966 8      1801.073          36.000

  23489521.867                   123438253.690 5     -2240.963          40.000
                  23489523.746    96185656.444 6     -1746.215          22.500

  23924999.398                   125726732.968 5      2735.498          40.000
                  23925002.117    97968883.305 6      2131.549          23.500

  23736272.398                   124734932.754 5     -2947.423          40.800
                  23736279.539    97196044.464 6     -2296.689          26.000

  22104270.031                   116158743.937 7      2711.435          49.500
                  22104273.953    90513311.393 8      2112.805          35.500

  20884916.898                   109750987.234 7     -1620.860          49.500
                  20884922.340    85520252.168 9     -1263.008          42.500

 18  7  1  0  1 10.0000000  0 11G01G08G10G11G14G18G20G22G27G31G32
  23788378.266                   125008774.628 5      3330.573          39.300
                  23788384.984    97409436.632 6      2595.256          26.000

  23300645.023                   122445693.429 6     -1910.626          44.000
                  23300652.664    95412224.549 7     -1488.799          29.300

  21856201.180                   114855116.400 7     -1535.479          49.500
                  21856206.359    89497489.042 8     -1196.479          37.500

  23511640.367                   123554507.716 6      1921.399          45.500
                  23511643.469    96276240.012 7      1497.190          28.300

  20075997.125                   105500088.388 6       122.027          47.000
                  20076000.105    82207866.843 8        95.086          39.000

  22006815.570                   115646597.858 7      2309.483          47.500
                  22006819.129    90114235.922 8      1799.599          35.800

  23491654.102                   123449460.579 5     -2241.704          40.000
                  23491656.301    96194389.074 6     -1746.794          22.800

  23922397.023                   125713055.401 5      2735.511          39.500
                  23922399.422    97958225.453 6      2131.573          24.000

  23739077.539                   124749670.459 5     -2947.660          40.800
                  23739084.520    97207528.367 7     -2296.878          26.300

  22101691.477                   116145191.634 7      2709.777          49.800
                  22101695.438    90502751.165 8      2111.511          36.000

  20886459.625                   109759096.261 7     -1622.463          49.000
                  20886465.547    85526570.894 9     -1264.267          41.500

 18  7  1  0  1 15.0000000  0 11G01G08G10G11G14G18G20G22G27G31G32
  23785209.922                   124992124.697 5      3329.625          39.500
                  23785216.602    97396462.676 6      2594.504          25.500

  23302464.883                   122455252.320 6     -1912.520          45.300
                  23302471.461    95419673.034 7     -1490.288          29.500

  21857662.836                   114862796.745 7     -1536.436          49.500
                  21857667.797    89503473.727 8     -1197.225          37.500

  23509813.867                   123544907.010 6      1919.331          44.300
                  23509816.668    96268758.941 7      1495.589          29.300

  20075882.227                   105499486.148 6       119.415          46.500
                  20075885.527    82207397.563 8        93.049          38.300

  22004619.117                   115635056.279 7      2307.575          48.500
                  22004622.758    90105242.483 8      1798.115          35.800

  23493787.266                   123460671.529 5     -2242.502          40.000
                  23493790.707    96203124.859 6     -1747.413          22.500

  23919794.164                   125699378.021 5      2735.482          39.800
                  23919796.605    97947567.760 6      2131.547          24.500

  23741882.141                   124764409.735 5     -2947.962          40.800
                  23741889.602    97219013.505 7     -2297.105          27.300

  22099114.570                   116131647.882 7      2708.083          49.500
                  22099118.469    90492197.591 8      2110.198          36.300

  20888004.539                   109767213.551 7     -1624.100          50.500
                  20888010.418    85532896.047 9     -1265.533          41.500

 18  7  1  0  1 20.0000000  0 11G01G08G10G11G14G18G20G22G27G31G32
  23782042.141                   124975479.251 5      3328.716          39.800
                  23782048.961    97383492.191 6      2593.802          25.800

  23304285.469                   122464820.497 6     -1914.391          45.300
                  23304292.270    95427128.768 7     -1491.735          29.500

  21859125.016                   114870481.827 7     -1537.403          48.500
                  21859130.496    89509462.096 8     -1197.978          37.300

  23507988.805                   123535316.652 6      1917.218          45.000
                  23507992.184    96261285.932 7      1493.938          28.300

  20075769.648                   105498896.854 6       116.798          46.800
                  20075773.129    82206938.377 8        91.010          38.500

  22002424.438                   115623524.253 7      2305.634          48.000
                  22002428.277    90096256.487 8      1796.594          36.000

  23495921.641                   123471886.380 5     -2243.285          40.000
                  23495925.563    96211863.691 6     -1748.021          22.000

  23917191.961                   125685700.650 5      2735.446          39.800
                  23917194.262    97936910.085 6      2131.494          24.500

  23744687.539                   124779150.330 5     -2948.251          40.500
                  23744694.598    97230499.675 6     -2297.340          25.300

  22096538.813                   116118112.510 7      2706.393          50.300
                  22096542.672    90481650.551 8      2108.878          36.000

  20889550.641                   109775338.895 7     -1625.724          49.000
                  20889556.160    85539227.488 9     -1266.800          42.000

 18  7  1  0  1 25.0000000  0 11G01G08G10G11G14G18G20G22G27G31G32
  23778875.484                   124958838.538 5      3327.788          40.500
                  23778882.445    97370525.411 7      2593.083          27.000

  23306107.484                   122474398.109 6     -1916.264          45.000
                  23306114.746    95434591.835 7     -1493.189          30.800

  21860587.797                   114878171.833 6     -1538.375          47.000
                  21860593.777    89515454.309 8     -1198.738          37.300

  23506165.508                   123525736.741 6      1915.161          45.000
                  23506168.930    96253821.068 7      1492.327          28.300

  20075660.766                   105498320.666 6       114.213          47.000
                  20075663.688    82206489.397 8        89.003          38.500

  22000232.117                   115612002.068 7      2303.660          47.300
                  22000235.738    90087278.161 8      1795.060          36.000

  23498056.641                   123483105.360 5     -2244.100          41.000
                  23498060.121    96220605.731 6     -1748.631          24.000

  23914588.563                   125672023.493 5      2735.459          40.500
                  23914590.961    97926252.560 6      2131.512          24.800

  23747492.523                   124793892.415 5     -2948.509          40.800
                  23747500.203    97241987.016 6     -2297.545          25.500

  22093964.531                   116104585.681 7      2704.714          50.800
                  22093968.512    90471110.166 8      2107.567          36.800

  20891098.641                   109783472.534 7     -1627.374          48.800
                  20891103.660    85545565.386 9     -1268.080          42.300

 18  7  1  0  1 30.0000000  0 11G01G08G10G11G14G18G20G22G27G31G32
  23775710.141                   124942202.444 5      3326.889          40.300
                  23775717.262    97357562.215 7      2592.385          26.800

  23307931.945                   122483985.165 6     -1918.138          44.500
                  23307939.285    95442062.269 7     -1494.655          29.300

  21862052.875                   114885866.624 6     -1539.313          46.300
                  21862058.395    89521450.241 8     -1199.463          37.300

  23504345.008                   123516167.255 6      1913.088          45.000
                  23504347.547    96246364.326 7      1490.720          29.000

  20075553.766                   105497757.499 6       111.622          47.000
                  20075556.586    82206050.570 8        86.978          39.000

  21998041.195                   115600489.522 7      2301.758          48.300
                  21998045.195    90078307.346 8      1793.572          35.800

  23500192.227                   123494328.319 5     -2244.859          40.000
                  23500196.445    96229350.906 6     -1749.223          24.500

  23911986.359                   125658346.451 5      2735.425          40.500
                  23911988.418    97915595.123 6      2131.508          24.300

  23750297.703                   124808635.919 5     -2948.758          39.800
                  23750305.383    97253475.452 6     -2297.723          25.500

  22091391.836                   116091067.334 7      2703.011          50.300
                  22091396.035    90460576.399 8      2106.237          36.500

  20892647.500                   109791614.281 7     -1628.974          48.500
                  20892653.379    85551909.597 9     -1269.324          42.000

 18  7  1  0  1 35.0000000  0 11G01G08G10G11G14G18G20G22G27G31G32
  23772544.945                   124925571.102 5      3325.846          39.800
                  23772552.023    97344602.755 7      2591.563          27.300

  23309758.383                   122493581.732 6     -1920.082          44.000
                  23309765.262    95449540.102 7     -1496.170          30.000

  21863517.594                   114893566.339 6     -1540.366          46.500
                  21863523.773    89527450.017 8     -1200.290          37.300

  23502526.008                   123506608.209 6      1910.944          45.000
                  23502528.930    96238915.723 7      1489.049          29.300

  20075449.172                   105497207.436 6       108.945          45.800
                  20075452.012    82205621.954 8        84.892          38.500

  21995852.734                   115588986.754 7      2299.751          47.800
                  21995856.473    90069344.146 8      1792.020          36.300

  23502328.727                   123505555.402 5     -2245.766          40.500
                  23502333.387    96238099.287 6     -1749.972          24.000

  23909383.539                   125644669.646 5      2735.330          40.300
                  23909385.578    97904937.890 6      2131.418          25.500

  23753103.719                   124823380.910 5     -2949.155          39.800
                  23753111.117    97264965.064 6     -2298.034          24.300

  22088821.617                   116077557.539 7      2701.249          50.300
                  22088824.918    90450049.299 8      2104.867          36.500

  20894198.664                   109799764.242 7     -1630.674          48.500
                  20894204.383    85558260.216 9     -1270.653          41.800

 18  7  1  0  1 40.0000000  0 11G01G08G10G11G14G18G20G22G27G31G32
  23769381.398                   124908944.307 5      3324.953          40.500
                  23769388.457    97331646.818 7      2590.856          28.000

  23311586.508                   122503187.490 6     -1921.893          45.000
                  23311593.188    95457025.104 7     -1497.585          29.500

  21864983.813                   114901270.767 6     -1541.302          47.000
                  21864989.551    89533453.466 8     -1201.014          37.500

  23500708.664                   123497059.542 6      1908.881          45.000
                  23500712.004    96231475.201 7      1487.436          29.300

  20075346.891                   105496670.316 6       106.367          46.000
                  20075349.512    82205203.419 8        82.884          38.800

  21993665.617                   115577493.553 7      2297.838          48.500
                  21993669.195    90060388.407 8      1790.519          35.800

  23504465.586                   123516786.388 5     -2246.530          39.500
                  23504471.027    96246850.709 6     -1750.551          24.500

  23906781.141                   125630992.967 5      2735.325          40.000
                  23906783.000    97894280.734 6      2131.410          25.000

  23755909.703                   124838127.170 5     -2949.370          39.800
                  23755917.625    97276455.638 6     -2298.207          25.500

  22086252.031                   116064056.207 7      2699.583          50.500
                  22086256.371    90439528.787 8      2103.563          36.800

  20895750.805                   109807922.259 7     -1632.261          48.500
                  20895756.824    85564617.114 9     -1271.892          42.000

 18  7  1  0  1 45.0000000  0 11G01G08G10G11G14G18G20G22G27G31G32
  23766218.141                   124892322.209 5      3324.039          39.500
                  23766225.320    97318694.510 7      2590.174          26.500

  23313416.063                   122512802.531 6     -1923.740          45.000
                  23313422.801    95464517.342 7     -1499.018          29.500

  21866450.914                   114908980.046 7     -1542.248          48.500
                  21866456.813    89539460.694 8     -1201.750          37.000

  23498893.508                   123487521.303 6      1906.790          44.500
                  23498896.867    96224042.799 7      1485.818          29.500

  20075247.086                   105496146.198 6       103.795          46.500
                  20075249.664    82204795.012 8        80.883          39.000

  21991480.594                   115566010.050 7      2295.941          48.000
                  21991484.293    90051440.223 8      1789.045          36.000

  23506603.820                   123528021.396 5     -2247.326          39.500
                  23506608.641    96255605.252 6     -1751.170          23.300

  23904178.742                   125617316.456 5      2735.312          40.300
                  23904180.242    97883623.718 6      2131.404          25.300

  23758716.359                   124852874.831 5     -2949.662          40.000
                  23758723.680    97287947.309 6     -2298.434          24.500

  22083684.633                   116050563.433 7      2697.870          50.500
                  22083687.914    90429014.945 8      2102.230          36.500

  20897305.023                   109816088.429 7     -1633.888          49.300
                  20897310.824    85570980.355 9     -1273.155          41.300

 18  7  1  0  1 50.0000000  0 11G01G08G10G11G14G18G20G22G27G31G32
  23763056.000                   124875704.859 5      3323.056          40.500
                  23763062.820    97305745.950 7      2589.394          26.500

  23315247.625                   122522426.984 6     -1925.658          45.300
                  23315254.504    95472016.930 7     -1500.521          31.000

  21867918.773                   114916694.175 7     -1543.233          48.800
                  21867924.852    89545471.710 8     -1202.519          36.800

  23497080.406                   123477993.543 6      1904.680          45.000
                  23497083.785    96216618.587 7      1484.168          28.800

  20075149.867                   105495635.151 6       101.125          47.000
                  20075152.727    82204396.796 8        78.803          39.000

  21989296.977                   115554536.329 7      2293.952          48.300
                  21989301.137    90042499.667 8      1787.485          36.300

  23508741.922                   123539260.480 5     -2248.183          40.500
                  23508747.762    96264362.974 6     -1751.827          23.300

  23901575.945                   125603640.111 5      2735.214          40.500
                  23901577.906    97872966.832 6      2131.342          25.500

  23761522.625                   124867623.837 5     -2949.938          39.300
                  23761530.285    97299440.037 7     -2298.638          26.300

  22081118.297                   116037079.249 7      2696.133          50.500
                  22081122.438    90418507.790 8      2100.883          36.300

  20898860.781                   109824262.723 7     -1635.538          49.800
                  20898866.359    85577349.939 9     -1274.445          41.300

 18  7  1  0  1 55.0000000  0 11G01G08G10G11G14G18G20G22G27G31G32
  23759894.602                   124859092.274 5      3322.139          40.800
                  23759901.941    97292801.064 7      2588.680          27.000

  23317080.969                   122532060.707 6     -1927.468          44.500
                  23317087.328    95479523.715 7     -1501.913          30.300

  21869387.656                   114924413.231 7     -1544.187          48.500
                  21869393.617    89551486.557 8     -1203.260          37.000

  23495269.820                   123468476.345 6      1902.617          45.300
                  23495272.602    96209202.584 7      1482.555          28.500

  20075054.805                   105495137.197 6        98.595          47.000
                  20075058.023    82204008.782 8        76.823          39.000

  21987115.695                   115543072.464 7      2291.997          47.300
                  21987119.695    90033566.781 8      1785.976          36.800

  23510882.188                   123550503.610 4     -2248.908          39.000
                  23510887.449    96273123.852 6     -1752.392          24.000

  23898973.422                   125589964.060 5      2735.199          40.300
                  23898975.543    97862310.185 6      2131.315          24.300

  23764330.180                   124882374.322 5     -2950.198          40.300
                  23764337.379    97310933.907 6     -2298.839          25.500

  22078553.875                   116023603.711 7      2694.435          50.000
                  22078558.137    90408007.386 8      2099.554          36.500

  20900417.898                   109832445.218 7     -1637.120          48.800
                  20900423.578    85583725.909 9     -1275.676          41.800

 18  7  1  0  2  0.0000000  0 11G01G08G10G11G14G18G20G22G27G31G32
  23756734.242                   124842484.396 5      3321.164          40.000
                  23756741.363    97279859.881 7      2587.918          26.800

  23318916.164                   122541703.747 6     -1929.394          45.500
                  23318922.266    95487037.784 7     -1503.428          30.800

  21870857.680                   114932137.119 7     -1545.193          49.500
                  21870863.758    89557505.169 8     -1204.049          37.500

  23493460.625                   123458969.610 6      1900.489          44.800
                  23493464.184    96201794.727 7      1480.911          29.300

  20074962.430                   105494652.220 6        95.936          46.500
                  20074965.570    82203630.880 8        74.755          39.500

  21984935.672                   115531618.336 7      2290.016          48.000
                  21984939.652    90024641.487 8      1784.424          35.800

  23513022.102                   123561750.823 5     -2249.796          40.000
                  23513028.223    96281887.912 6     -1753.086          23.800

  23896370.961                   125576288.142 5      2735.151          40.800
                  23896372.383    97851653.641 6      2131.277          24.500

  23767137.844                   124897126.053 5     -2950.466          41.300
                  23767144.863    97322428.764 7     -2299.064          27.800

  22075991.531                   116010136.724 7      2692.680          50.500
                  22075994.992    90397513.638 8      2098.188          36.500

  20901976.164                   109840635.790 7     -1638.796          50.300
                  20901981.844    85590108.173 9     -1276.990          41.800

 18  7  1  0  2  5.0000000  0 11G01G08G10G11G14G18G20G22G27G31G32
  23753574.844                   124825881.306 5      3320.223          41.000
                  23753581.844    97266922.402 7      2587.181          26.800

  23320752.344                   122551356.194 6     -1931.249          45.300
                  23320759.383    95494559.175 7     -1504.872          30.500

  21872328.453                   114939865.889 7     -1546.158          49.300
                  21872334.492    89563527.576 8     -1204.794          38.000

  23491653.266                   123449473.388 6      1898.397          44.500
                  23491656.707    96194395.077 7      1479.260          29.500

  20074873.070                   105494180.294 6        93.337          46.800
                  20074875.891    82203263.140 8        72.732          39.500

  21982758.133                   115520174.012 7      2288.090          47.800
                  21982761.711    90015723.838 8      1782.925          35.800

  23515162.961                   123573002.059 5     -2250.566          39.300
                  23515168.941    96290655.117 6     -1753.667          24.300

  23893768.484                   125562612.470 5      2735.109          40.500
                  23893769.684    97840997.266 7      2131.260          26.500

  23769944.664                   124911879.168 5     -2950.750          41.300
                  23769951.883    97333924.688 7     -2299.277          27.000

  22073430.352                   115996678.357 7      2690.972          50.000
                  22073433.633    90387026.599 8      2096.864          36.000

  20903536.539                   109848834.510 7     -1640.409          49.500
                  20903542.238    85596496.788 9     -1278.243          42.000

 18  7  1  0  2 10.0000000  0 11G01G08G10G11G14G18G20G22G27G31G32
  23750415.945                   124809282.927 5      3319.272          40.800
                  23750422.625    97253988.598 7      2586.452          27.500

  23322591.688                   122561017.863 6     -1933.086          46.300
                  23322597.848    95502087.738 7     -1506.307          30.500

  21873799.953                   114947599.478 7     -1547.138          48.300
                  21873806.113    89569553.745 8     -1205.556          37.000

  23489847.844                   123439987.592 6      1896.285          44.300
                  23489851.445    96187003.547 7      1477.622          28.800

  20074785.430                   105493721.322 6        90.728          46.800
                  20074788.668    82202905.501 8        70.695          39.500

  21980581.734                   115508739.415 7      2286.119          47.800
                  21980585.953    90006813.764 8      1781.389          36.300

  23517304.984                   123584257.373 5     -2251.428          40.500
                  23517311.145    96299425.467 6     -1754.341          24.300

  23891166.219                   125548936.912 5      2735.059          41.500
                  23891167.297    97830340.994 6      2131.221          25.800

  23772752.844                   124926633.563 5     -2951.012          41.000
                  23772759.984    97345421.623 7     -2299.488          27.000

  22070870.992                   115983228.572 7      2689.233          49.800
                  22070874.492    90376546.259 8      2095.502          36.000

  20905097.719                   109857041.291 7     -1642.023          49.500
                  20905104.297    85602891.684 9     -1279.498          42.000

 18  7  1  0  2 15.0000000  0 11G01G08G10G11G14G18G20G22G27G31G32
  23747258.203                   124792689.256 5      3318.353          40.000
                  23747265.305    97241058.472 7      2585.723          26.500

  23324431.648                   122570688.825 6     -1934.928          46.000
                  23324437.988    95509623.539 7     -1507.732          30.800

  21875272.695                   114955337.872 7     -1548.070          47.500
                  21875278.914    89575583.669 8     -1206.293          37.500

  23488044.766                   123430512.253 6      1894.233          44.800
                  23488048.125    96179620.175 7      1476.019          28.300

  20074700.727                   105493275.282 6        88.164          47.000
                  20074703.527    82202557.940 8        68.693          38.500

  21978407.695                   115497314.547 6      2284.172          46.300
                  21978411.414    89997911.270 8      1779.874          36.000

  23519447.523                   123595516.625 5     -2252.172          40.800
                  23519453.723    96308198.937 6     -1754.943          24.500

  23888564.539                   125535261.526 5      2735.057          41.000
                  23888565.680    97819684.861 6      2131.201          25.300

  23775560.961                   124941389.201 5     -2951.233          41.500
                  23775567.660    97356919.510 6     -2299.662          25.500

  22068313.156                   115969787.334 7      2687.549          50.000
                  22068316.195    90366072.578 8      2094.186          35.300

  20906661.266                   109865256.112 7     -1643.607          48.500
                  20906667.426    85609292.848 9     -1280.739          41.500

 18  7  1  0  2 20.0000000  0 11G01G08G10G11G14G18G20G22G27G31G32
  23744101.742                   124776100.405 5      3317.394          41.000
                  23744108.961    97228132.102 6      2584.982          25.500

  23326273.703                   122580368.971 6     -1936.741          46.000
                  23326280.203    95517166.499 7     -1509.149          29.800

  21876745.914                   114963081.130 6     -1549.029          46.500
                  21876752.652    89581617.367 8     -1207.032          37.000

  23486243.688                   123421047.390 6      1892.157          43.800
                  23486246.848    96172244.953 7      1474.412          29.300

  20074618.328                   105492842.215 6        85.576          46.800
                  20074621.207    82202220.487 8        66.678          38.800

  21976235.773                   115485899.491 6      2282.243          46.800
                  21976239.414    89989016.413 8      1778.378          36.000

  23521591.305                   123606779.924 5     -2252.949          40.000
                  23521596.684    96316975.534 6     -1755.557          24.500

  23885962.039                   125521586.350 5      2735.020          41.500
                  23885962.840    97809028.879 6      2131.190          26.000

  23778368.984                   124956146.115 5     -2951.472          40.800
                  23778376.184    97368418.403 7     -2299.855          27.500

  22065757.477                   115956354.731 7      2685.841          50.500
                  22065760.215    90355605.620 8      2092.865          36.000

  20908226.180                   109873479.008 7     -1645.204          48.500
                  20908231.918    85615700.293 9     -1281.971          42.300

 18  7  1  0  2 25.0000000  0 11G01G08G10G11G14G18G20G22G27G31G32
  23740945.961                   124759516.270 5      3316.440          40.500
                  23740952.582    97215209.397 6      2584.235          26.000

  23328118.047                   122590058.334 6     -1938.609          46.000
                  23328123.945    95524716.644 7     -1510.602          31.300

  21878220.313                   114970829.191 6     -1549.994          46.500
                  21878226.934    89587654.815 8     -1207.785          37.300

  23484444.188                   123411592.990 6      1890.052          43.500
                  23484447.727    96164877.882 7      1472.770          29.300

  20074538.211                   105492422.098 6        82.982          47.000
                  20074541.172    82201893.121 8        64.661          39.500

  21974065.133                   115474494.259 7      2280.260          47.300
                  21974068.512    89980129.223 8      1776.830          36.000

  23523734.766                   123618047.235 5     -2253.767          40.500
                  23523740.984    96325755.250 6     -1756.188          25.500

  23883359.383                   125507911.300 6      2734.999          42.300
                  23883360.504    97798373.009 6      2131.170          26.000

  23781177.305                   124970904.246 5     -2951.704          42.000
                  23781183.844    97379918.231 6     -2300.031          25.500

  22063202.438                   115942930.766 7      2684.109          49.500
                  22063206.059    90345145.396 8      2091.512          35.800

  20909792.320                   109881709.928 7     -1646.836          49.000
                  20909797.898    85622113.995 9     -1283.243          41.800

 18  7  1  0  2 30.0000000  0 11G01G08G10G11G14G18G20G22G27G31G32
  23737791.164                   124742936.901 5      3315.525          41.000
                  23737797.703    97202290.417 7      2583.520          27.000

  23329963.367                   122599756.910 6     -1940.438          46.000
                  23329969.688    95532273.984 7     -1512.037          30.800

  21879695.617                   114978582.069 7     -1550.924          47.500
                  21879701.719    89593696.016 8     -1208.514          37.500

  23482647.641                   123402149.092 6      1887.964          43.800
                  23482650.859    96157518.999 7      1471.144          28.800

  20074460.648                   105492014.941 7        80.420          47.300
                  20074463.668    82201575.860 8        62.665          38.800

  21971896.656                   115463098.783 6      2278.350          46.500
                  21971900.617    89971249.631 8      1775.337          35.800

  23525880.461                   123629318.529 5     -2254.555          39.500
                  23525885.680    96334538.087 6     -1756.810          24.300

  23880757.539                   125494236.455 5      2734.996          42.000
                  23880758.258    97787717.277 7      2131.164          26.800

  23783985.844                   124985663.581 5     -2951.914          40.500
                  23783992.184    97391419.028 7     -2300.195          26.800

  22060650.031                   115929515.430 7      2682.409          49.800
                  22060653.371    90334691.900 8      2090.185          36.500

  20911360.484                   109889948.862 7     -1648.397          49.300
                  20911366.023    85628533.945 9     -1284.465          41.800

 18  7  1  0  2 35.0000000  0 11G01G08G10G11G14G18G20G22G27G31G32
  23734636.344                   124726362.380 5      3314.553          41.000
                  23734643.625    97189375.211 7      2582.767          27.300

  23331810.648                   122609464.699 6     -1942.243          45.500
                  23331816.949    95539838.493 7     -1513.436          31.300

  21881171.680                   114986339.833 7     -1551.917          48.500
                  21881178.461    89599741.015 8     -1209.278          37.300

  23480852.281                   123392715.697 6      1885.869          44.300
                  23480855.820    96150168.309 7      1469.513          29.300

  20074386.148                   105491620.792 6        77.830          47.000
                  20074388.949    82201268.729 8        60.649          39.500

  21969729.992                   115451713.217 6      2276.371          46.800
                  21969734.051    89962377.764 8      1773.794          35.800

  23528026.266                   123640593.881 5     -2255.322          40.000
                  23528031.105    96343324.067 6     -1757.384          24.300

  23878155.125                   125480561.783 5      2734.957          41.800
                  23878156.266    97777061.705 7      2131.121          26.500

  23786794.641                   125000424.172 5     -2952.179          41.500
                  23786800.879    97402920.785 7     -2300.412          26.500

  22058098.313                   115916108.776 7      2680.670          50.300
                  22058101.973    90324245.164 8      2088.832          36.500

  20912929.844                   109898195.870 7     -1649.994          49.300
                  20912935.402    85634960.183 9     -1285.708          41.300

 18  7  1  0  2 40.0000000  0 11G01G08G10G11G14G18G20G22G27G31G32
  23731483.203                   124709792.675 5      3313.578          40.300
                  23731490.684    97176463.739 7      2582.025          27.800

  23333659.742                   122619181.673 6     -1944.111          46.300
                  23333665.941    95547410.157 7     -1514.890          31.000

  21882649.359                   114994102.480 7     -1552.931          49.000
                  21882655.539    89605789.826 8     -1210.076          37.500

  23479059.305                   123383292.864 6      1883.720          44.000
                  23479062.863    96142825.842 7      1467.838          29.500

  20074313.648                   105491239.637 6        75.173          46.800
                  20074316.289    82200971.728 8        58.583          39.300

  21967565.172                   115440337.524 6      2274.358          47.000
                  21967569.172    89953513.588 8      1772.233          35.500

  23530172.227                   123651873.336 5     -2256.231          40.000
                  23530177.465    96352113.266 6     -1758.125          24.500

  23875553.523                   125466887.345 6      2734.878          42.300
                  23875553.883    97766406.305 7      2131.063          27.000

  23789603.625                   125015186.034 5     -2952.479          41.300
                  23789610.066    97414423.522 6     -2300.633          24.300

  22055548.977                   115902710.879 7      2678.865          51.000
                  22055552.238    90313805.255 8      2087.417          36.500

  20914500.578                   109906450.937 7     -1651.666          49.500
                  20914506.637    85641392.703 9     -1287.012          42.000

 18  7  1  0  2 45.0000000  0 11G01G08G10G11G14G18G20G22G27G31G32
  23728331.563                   124693227.831 5      3312.604          40.500
                  23728338.164    97163556.074 6      2581.256          26.000

  23335510.609                   122628907.842 6     -1945.971          46.000
                  23335517.109    95554988.990 7     -1516.337          32.000

  21884127.594                   115001869.945 7     -1553.859          49.300
                  21884133.773    89611842.390 8     -1210.795          37.800

  23477268.406                   123373880.572 6      1881.621          44.000
                  23477271.906    96135491.599 7      1466.190          28.300

  20074243.070                   105490871.414 6        72.609          47.000
                  20074246.148    82200684.806 8        56.576          39.000

  21965402.234                   115428971.584 6      2272.393          46.800
                  21965406.215    89944657.015 8      1770.690          35.000

  23532318.406                   123663156.743 5     -2257.017          39.500
                  23532324.766    96360905.519 6     -1758.718          24.500

  23872951.125                   125453213.112 5      2734.828          42.000
                  23872951.605    97755751.050 7      2131.041          27.000

  23792412.680                   125029949.037 5     -2952.678          41.500
                  23792419.660    97425927.144 6     -2300.780          24.800

  22053001.211                   115889321.651 7      2677.152          51.300
                  22053004.531    90303372.088 8      2086.100          36.500

  20916072.984                   109914713.997 7     -1653.253          49.800
                  20916078.543    85647831.455 9     -1288.243          41.800

 18  7  1  0  2 50.0000000  0 11G01G08G10G11G14G18G20G22G27G31G32
  23725179.578                   124676667.911 5      3311.613          40.000
                  23725186.598    97150652.243 6      2580.476          25.300

  23337363.148                   122638643.223 6     -1947.829          45.500
                  23337369.609    95562575.003 7     -1517.793          30.500

  21885605.938                   115009642.358 7     -1554.847          49.500
                  21885612.879    89617898.818 8     -1211.571          37.500

  23475479.383                   123364478.915 6      1879.482          44.500
                  23475482.824    96128165.617 7      1464.535          29.000

  20074175.445                   105490516.205 6        70.010          47.000
                  20074178.484    82200408.011 8        54.555          39.000

  21963241.172                   115417615.612 6      2270.391          47.000
                  21963245.031    89935808.202 8      1769.136          34.500

  23534467.063                   123674444.257 5     -2257.808          39.300
                  23534472.441    96369700.966 6     -1759.337          23.000

  23870348.602                   125439539.108 6      2734.781          42.800
                  23870349.762    97745095.988 6      2131.002          26.000

  23795222.883                   125044713.322 5     -2952.949          41.500
                  23795229.324    97437431.772 6     -2300.999          25.800

  22050455.031                   115875941.179 7      2675.396          51.000
                  22050458.191    90292945.757 8      2084.729          36.500

  20917646.945                   109922985.152 7     -1654.855          49.800
                  20917652.645    85654276.515 9     -1289.498          42.000

 18  7  1  0  2 55.0000000  0 11G01G08G10G11G14G18G20G22G27G31G32
  23722029.383                   124660112.644 5      3310.644          40.800
                  23722035.883    97137752.033 6      2579.734          24.500

  23339216.484                   122648387.654 6     -1949.644          45.300
                  23339223.824    95570168.052 7     -1519.197          31.000

  21887086.836                   115017419.508 7     -1555.837          49.000
                  21887092.496    89623958.927 8     -1212.339          37.800

  23473692.203                   123355087.662 6      1877.419          44.500
                  23473695.965    96120847.768 7      1462.924          29.500

  20074110.789                   105490173.816 7        67.440          47.300
                  20074113.469    82200141.216 8        52.553          39.300

  21961082.258                   115406269.392 6      2268.428          46.500
                  21961086.238    89926966.987 8      1767.606          35.300

  23536615.922                   123685735.663 5     -2258.593          39.500
                  23536620.883    96378499.457 6     -1759.949          24.500

  23867746.305                   125425865.154 5      2734.768          41.300
                  23867748.184    97734440.969 6      2130.994          25.300

  23798032.625                   125059478.629 6     -2953.167          42.800
                  23798039.047    97448937.191 6     -2301.165          25.800

  22047910.477                   115862569.298 7      2673.670          51.300
                  22047913.676    90282526.117 8      2083.373          36.500

  20919222.461                   109931264.179 7     -1656.466          50.000
                  20919227.961    85660727.699 9     -1290.747          41.800

 18  7  1  0  3  0.0000000  0 11G01G08G10G11G14G18G20G22G27G31G32
  23718880.422                   124643562.341 5      3309.648          40.500
                  23718886.684    97124855.709 6      2578.934          24.000

  23341073.484                   122658141.271 6     -1951.473          46.000
                  23341080.043    95577768.269 7     -1520.626          31.800

  21888567.391                   115025201.556 7     -1556.817          49.500
                  21888573.469    89630022.867 8     -1213.107          37.500

  23471907.422                   123345707.055 6      1875.265          45.000
                  23471911.000    96113538.215 7      1461.243          28.800

  20074048.008                   105489844.448 7        64.826          47.300
                  20074050.586    82199884.573 8        50.510          39.500

  21958924.914                   115394933.150 6      2266.447          47.000
                  21958929.152    89918133.556 8      1766.060          35.500

  23538765.641                   123697031.170 5     -2259.460          39.800
                  23538770.301    96387301.141 6     -1760.623          25.500

  23865144.039                   125412191.536 5      2734.681          41.500
                  23865146.320    97723786.214 7      2130.935          26.300

  23800841.945                   125074245.142 6     -2953.427          42.500
                  23800849.465    97460443.551 7     -2301.368          26.500

  22045367.055                   115849206.179 7      2671.907          50.800
                  22045371.254    90272113.303 8      2082.001          36.500

  20920799.703                   109939551.268 7     -1658.079          50.300
                  20920804.922    85667185.175 9     -1292.010          42.000

 18  7  1  0  3  5.0000000  0 11G01G08G10G11G14G18G20G22G27G31G32
  23715732.023                   124627016.996 5      3308.636          40.800
                  23715737.965    97111963.218 6      2578.166          25.000

  23342931.305                   122667904.170 6     -1953.354          46.000
                  23342937.945    95585375.725 7     -1522.096          31.800

  21890049.133                   115032988.526 7     -1557.829          49.300
                  21890055.094    89636090.623 8     -1213.889          37.800

  23470123.805                   123336337.051 6      1873.110          44.500
                  23470127.645    96106236.905 7      1459.573          29.000

  20073987.352                   105489528.058 6        62.214          46.300
                  20073990.070    82199638.033 8        48.477          39.800

  21956769.555                   115383606.807 6      2264.442          46.500
                  21956773.816    89909307.828 8      1764.502          35.300

  23540916.008                   123708330.744 5     -2260.275          39.500
                  23540920.348    96396106.004 6     -1761.261          24.000

  23862543.039                   125398518.120 5      2734.615          41.300
                  23862544.500    97713131.619 7      2130.871          27.000

  23803652.898                   125089012.856 6     -2953.687          42.800
                  23803659.137    97471950.860 6     -2301.564          26.000

  22042825.773                   115835851.841 7      2670.125          50.300
                  22042829.852    90261707.340 8      2080.617          36.800

  20922377.961                   109947846.383 7     -1659.700          50.000
                  20922383.180    85673648.893 9     -1293.267          41.300

 18  7  1  0  3 10.0000000  0 11G01G08G10G11G14G18G20G22G27G31G32
  23712584.102                   124610476.383 5      3307.727          40.500
                  23712590.582    97099074.441 6      2577.435          25.500

  23344790.430                   122677676.024 6     -1955.107          46.500
                  23344797.590    95592990.156 7     -1523.470          31.300

  21891531.258                   115040780.251 7     -1558.754          49.000
                  21891537.680    89642162.099 8     -1214.609          37.800

  23468343.664                   123326977.502 6      1871.053          44.500
                  23468347.004    96098943.740 7      1457.971          29.800

  20073929.945                   105489224.504 6        59.666          46.300
                  20073933.285    82199401.499 8        46.489          39.300

  21954616.172                   115372290.306 7      2262.485          47.500
                  21954620.211    89900489.775 8      1762.977          35.500

  23543065.766                   123719634.238 4     -2261.052          39.000
                  23543071.086    96404913.922 6     -1761.849          23.800

  23859941.320                   125384844.786 5      2734.639          40.500
                  23859942.660    97702477.087 7      2130.890          26.500

  23806463.039                   125103781.597 6     -2953.866          43.000
                  23806469.340    97483458.970 7     -2301.720          26.500

  22040286.336                   115822506.174 7      2668.426          49.000
                  22040290.477    90251308.141 8      2079.284          36.500

  20923958.242                   109956149.355 7     -1661.243          50.500
                  20923963.184    85680118.745 9     -1294.479          42.000

 18  7  1  0  3 15.0000000  0 11G01G08G10G11G14G18G20G22G27G31G32
  23709437.820                   124593940.701 5      3306.786          40.500
                  23709444.059    97086189.480 7      2576.717          26.300

  23346651.703                   122687456.980 6     -1956.936          46.300
                  23346659.125    95600611.668 7     -1524.881          32.000

  21893015.297                   115048576.818 7     -1559.695          50.000
                  21893021.078    89648237.338 8     -1215.348          37.300

  23466564.063                   123317628.518 6      1868.967          44.300
                  23466567.301    96091658.829 7      1456.329          28.300

  20073874.852                   105488933.840 6        57.106          46.500
                  20073877.453    82199175.014 8        44.496          39.000

  21952464.797                   115360983.764 6      2260.522          47.000
                  21952469.277    89891679.484 8      1761.446          35.500

  23545217.320                   123730941.753 4     -2261.849          38.500
                  23545223.242    96413724.964 6     -1762.484          24.000

  23857339.000                   125371171.722 5      2734.597          40.500
                  23857340.461    97691822.743 7      2130.863          27.800

  23809273.820                   125118551.413 6     -2954.055          42.500
                  23809280.340    97494967.909 7     -2301.853          26.300

  22037748.617                   115809169.262 7      2666.668          49.300
                  22037752.539    90240915.750 8      2077.925          37.000

  20925539.219                   109964460.301 7     -1662.806          50.300
                  20925544.820    85686594.809 9     -1295.691          42.000

 18  7  1  0  3 20.0000000  0 11G01G08G10G11G14G18G20G22G27G31G32
  23706291.820                   124577410.002 5      3305.759          41.000
                  23706298.141    97073308.414 6      2575.926          25.000

  23348514.469                   122697247.027 6     -1958.691          45.500
                  23348521.867    95608240.276 7     -1526.259          31.800

  21894500.258                   115056378.328 7     -1560.667          49.300
                  21894506.297    89654316.433 8     -1216.104          37.500

  23464787.125                   123308290.197 6      1866.849          44.800
                  23464790.547    96084382.201 7      1454.700          29.300

  20073821.727                   105488656.177 6        54.521          46.800
                  20073824.426    82198958.651 8        42.480          39.000

  21950315.031                   115349687.137 6      2258.567          47.000
                  21950319.031    89882876.925 8      1759.918          35.300

  23547370.266                   123742253.338 4     -2262.592          38.000
                  23547375.707    96422539.153 6     -1763.053          24.300

  23854737.078                   125357498.932 5      2734.563          40.500
                  23854737.859    97681168.637 7      2130.816          28.300

  23812085.219                   125133322.408 6     -2954.255          42.800
                  23812091.398    97506477.756 7     -2301.992          27.000

  22035212.438                   115795841.183 7      2664.936          49.500
                  22035215.797    90230530.255 8      2076.563          37.000

  20927122.461                   109972779.264 7     -1664.393          50.500
                  20927128.160    85693077.114 9     -1296.932          41.500

 18  7  1  0  3 25.0000000  0 11G01G08G10G11G14G18G20G22G27G31G32
  23703147.563                   124560884.116 5      3304.842          42.000
                  23703153.543    97060431.108 6      2575.210          24.800

  23350379.445                   122707045.968 6     -1960.459          45.000
                  23350386.926    95615875.805 7     -1527.625          31.000

  21895985.352                   115064184.610 7     -1561.594          48.800
                  21895991.211    89660399.248 8     -1216.829          37.300

  23463012.227                   123298962.348 6      1864.786          44.800
                  23463015.328    96077113.762 7      1453.074          28.500

  20073771.211                   105488391.331 6        52.006          46.800
                  20073774.133    82198752.278 8        40.529          39.500

  21948167.016                   115338400.414 7      2256.607          47.500
                  21948171.094    89874082.071 8      1758.389          34.800

  23549523.406                   123753568.951 4     -2263.402          38.800
                  23549528.746    96431356.514 6     -1763.679          23.800

  23852135.578                   125343826.262 5      2734.576          41.000
                  23852136.418    97670514.605 7      2130.824          27.000

  23814895.680                   125148094.363 6     -2954.418          42.800
                  23814902.578    97517988.386 7     -2302.154          27.500

  22032677.414                   115782521.812 7      2663.228          49.800
                  22032681.555    90220151.531 8      2075.241          37.000

  20928706.719                   109981106.081 7     -1665.946          50.800
                  20928712.680    85699565.546 9     -1298.142          41.500

 18  7  1  0  3 30.0000000  0 11G01G08G10G11G14G18G20G22G27G31G32
  23700003.023                   124544363.312 5      3303.778          42.000
                  23700009.543    97047557.756 6      2574.366          26.000

  23352246.242                   122716854.140 6     -1962.372          45.800
                  23352252.781    95623518.534 7     -1529.121          31.300

  21897472.133                   115071995.876 7     -1562.635          49.000
                  21897477.434    89666485.944 8     -1217.642          37.300

  23461238.820                   123289645.210 6      1862.576          44.500
                  23461242.840    96069853.654 7      1451.358          29.000

  20073723.727                   105488139.549 6        49.332          47.000
                  20073726.586    82198556.082 8        38.444          39.500

  21946021.031                   115327123.723 6      2254.581          47.000
                  21946025.852    89865295.037 8      1756.810          35.300

  23551677.984                   123764888.638 5     -2264.237          40.300
                  23551682.363    96440177.052 6     -1764.343          22.500

  23849533.625                   125330153.968 5      2734.455          42.000
                  23849534.246    97659860.864 7      2130.742          27.500

  23817706.742                   125162867.542 6     -2954.704          42.800
                  23817714.102    97529499.948 7     -2302.373          26.500

  22030144.836                   115769211.351 7      2661.397          50.000
                  22030148.336    90209779.761 8      2073.806          36.800

  20930292.898                   109989440.964 7     -1667.615          50.500
                  20930298.758    85706060.256 9     -1299.442          42.000

 18  7  1  0  3 35.0000000  0 11G01G08G10G11G14G18G20G22G27G31G32
  23696860.266                   124527847.445 5      3302.740          41.500
                  23696867.066    97034688.245 6      2573.555          25.500

  23354114.445                   122726671.384 6     -1964.232          45.500
                  23354121.285    95631168.334 7     -1530.571          31.500

  21898958.953                   115079812.016 7     -1563.667          48.500
                  21898964.832    89672576.441 8     -1218.448          36.800

  23459467.586                   123280338.684 6      1860.396          44.000
                  23459471.586    96062601.805 7      1449.665          30.000

  20073678.070                   105487900.666 6        46.699          47.000
                  20073680.832    82198369.933 8        36.393          39.000

  21943877.258                   115315856.964 6      2252.521          46.800
                  21943881.438    89856515.746 8      1755.209          35.500

  23553833.484                   123776212.412 5     -2265.130          39.300
                  23553836.543    96449000.755 6     -1765.035          22.500

  23846932.320                   125316481.893 6      2734.379          42.500
                  23846933.121    97649207.306 7      2130.683          27.500

  23820518.680                   125177641.759 6     -2954.967          42.500
                  23820525.539    97541012.300 7     -2302.576          27.000

  22027613.531                   115755909.719 7      2659.581          50.000
                  22027617.070    90199414.863 8      2072.397          36.500

  20931880.602                   109997783.766 7     -1669.236          50.000
                  20931886.441    85712561.141 9     -1300.703          41.500

 18  7  1  0  3 40.0000000  0 11G01G08G10G11G14G18G20G22G27G31G32
  23693718.344                   124511336.260 5      3301.804          41.300
                  23693725.145    97021822.389 6      2572.839          25.000

  23355983.930                   122736497.454 6     -1965.980          46.000
                  23355990.930    95638825.019 7     -1531.940          31.500

  21900447.211                   115087632.757 7     -1564.595          49.000
                  21900453.531    89678670.515 8     -1219.157          37.000

  23457699.063                   123271042.505 6      1858.301          45.000
                  23457702.563    96055358.040 7      1448.025          29.000

  20073635.109                   105487674.437 7        44.153          47.500
                  20073637.770    82198193.646 8        34.409          39.300

  21941734.813                   115304599.921 7      2250.553          47.500
                  21941739.152    89847744.023 8      1753.676          35.300

  23555988.688                   123787539.970 5     -2265.906          39.500
                  23555991.988    96457827.403 6     -1765.637          24.500

  23844330.125                   125302809.785 6      2734.353          43.300
                  23844331.805    97638553.704 7      2130.677          28.000

  23823329.578                   125192416.751 5     -2955.146          42.000
                  23823336.816    97552525.281 7     -2302.721          26.500

  22025084.172                   115742616.670 7      2657.839          50.000
                  22025087.352    90189056.646 8      2071.042          36.800

  20933469.719                   110006134.217 7     -1670.775          49.800
                  20933475.059    85719067.986 9     -1301.903          42.000

 18  7  1  0  3 45.0000000  0 11G01G08G10G11G14G18G20G22G27G31G32
  23690577.625                   124494830.294 6      3300.803          42.300
                  23690584.184    97008960.597 6      2572.042          26.000

  23357855.586                   122746332.747 6     -1967.764          45.800
                  23357862.285    95646488.861 7     -1533.323          31.500

  21901936.273                   115095458.553 7     -1565.528          49.000
                  21901942.414    89684768.542 8     -1219.892          37.000

  23455931.641                   123261757.141 6      1856.218          44.300
                  23455935.480    96048122.687 7      1446.406          28.800

  20073594.352                   105487461.321 7        41.591          47.800
                  20073597.391    82198027.585 8        32.407          39.000

  21939594.555                   115293353.105 7      2248.574          47.300
                  21939599.094    89838980.274 8      1752.138          35.300

  23558144.727                   123798871.757 5     -2266.665          39.300
                  23558147.848    96466657.390 6     -1766.251          23.000

  23841728.922                   125289138.098 6      2734.305          43.000
                  23841729.902    97627900.458 7      2130.617          28.300

  23826141.602                   125207192.944 5     -2955.287          42.000
                  23826149.422    97564039.171 7     -2302.809          26.800

  22022556.156                   115729332.661 7      2656.097          50.500
                  22022559.375    90178705.477 8      2069.680          36.500

  20935060.445                   110014492.784 7     -1672.326          50.800
                  20935066.004    85725581.154 9     -1303.115          42.000

 18  7  1  0  3 50.0000000  0 11G01G08G10G11G14G18G20G22G27G31G32
  23687437.281                   124478329.314 6      3299.836          42.500
                  23687443.820    96996102.675 6      2571.307          24.500

  23359728.906                   122756177.087 6     -1969.579          45.500
                  23359735.387    95654159.781 7     -1534.737          31.000

  21903426.438                   115103289.268 7     -1566.518          48.500
                  21903432.359    89690870.389 8     -1220.659          36.800

  23454166.922                   123252482.395 6      1854.116          44.000
                  23454170.441    96040895.623 7      1444.763          28.500

  20073556.250                   105487261.144 6        39.016          47.000
                  20073559.051    82197871.602 8        30.402          39.800

  21937456.633                   115282116.299 6      2246.564          46.500
                  21937460.234    89830224.328 8      1750.568          35.000

  23560302.484                   123810207.610 5     -2267.493          39.800
                  23560305.164    96475490.479 6     -1766.857          22.000

  23839126.984                   125275466.624 6      2734.305          42.500
                  23839128.344    97617247.365 7      2130.632          28.800

  23828953.281                   125221970.198 5     -2955.503          42.000
                  23828961.461    97575553.908 7     -2302.991          26.800

  22020030.156                   115716057.524 7      2654.329          50.800
                  22020033.156    90168361.221 8      2068.302          36.000

  20936651.945                   110022859.279 7     -1673.915          49.800
                  20936657.785    85732100.496 9     -1304.346          41.500

 18  7  1  0  3 55.0000000  0 11G01G08G10G11G14G18G20G22G27G31G32
  23684298.320                   124461833.345 5      3298.833          42.000
                  23684305.000    96983248.681 6      2570.513          26.000

  23361604.023                   122766030.312 6     -1971.343          45.300
                  23361610.125    95661837.611 7     -1536.109          31.300

  21904917.297                   115111124.823 7     -1567.459          48.500
                  21904923.559    89696976.012 8     -1221.388          36.800

  23452403.766                   123243218.301 6      1851.998          43.800
                  23452407.266    96033676.850 7      1443.117          28.500

  20073520.484                   105487073.839 7        36.470          47.800
                  20073523.543    82197725.648 8        28.414          39.300

  21935320.172                   115270889.488 6      2244.575          46.500
                  21935324.230    89821476.164 8      1749.016          35.000

  23562460.281                   123821547.464 5     -2268.268          40.000
                  23562462.641    96484326.708 6     -1767.455          24.300

  23836525.664                   125261795.437 6      2734.253          43.300
                  23836526.363    97606594.492 7      2130.593          27.800

  23831765.820                   125236748.414 5     -2955.666          42.000
                  23831773.242    97587069.389 7     -2303.096          26.800

  22017505.438                   115702791.276 7      2652.571          50.500
                  22017508.859    90158023.890 8      2066.938          36.500

  20938245.781                   110031233.664 7     -1675.487          49.800
                  20938251.223    85738625.993 9     -1305.576          41.500

 18  7  1  0  4  0.0000000  0 11G01G08G10G11G14G18G20G22G27G31G32
  23681160.188                   124445342.321 5      3297.832          41.300
                  23681166.766    96970398.535 6      2569.741          25.500

  23363480.406                   122775892.511 6     -1973.150          45.500
                  23363486.828    95669522.449 7     -1537.530          29.800

  21906409.297                   115118965.228 7     -1568.468          47.500
                  21906415.398    89703085.427 8     -1222.191          37.300

  23450642.945                   123233964.830 6      1849.846          44.300
                  23450646.465    96026466.353 7      1441.436          29.300

  20073487.430                   105486899.369 7        33.887          47.500
                  20073490.449    82197589.699 8        26.404          39.300

  21933185.234                   115259672.647 7      2242.568          47.300
                  21933189.133    89812735.771 8      1747.451          34.800

  23564619.445                   123832891.304 5     -2269.074          40.500
                  23564621.426    96493166.089 6     -1768.114          22.800

  23833923.641                   125248124.415 6      2734.190          42.800
                  23833924.801    97595941.751 7      2130.537          28.000

  23834578.164                   125251527.602 5     -2955.921          42.000
                  23834585.723    97598585.631 6     -2303.307          26.000

  22014982.695                   115689533.828 7      2650.784          50.800
                  22014986.035    90147693.427 8      2065.538          36.800

  20939840.680                   110039615.848 7     -1677.055          49.300
                  20939846.719    85745157.567 9     -1306.792          42.000

 18  7  1  0  4  5.0000000  0 11G01G08G10G11G14G18G20G22G27G31G32
  23678023.547                   124428856.411 5      3296.786          42.000
                  23678029.828    96957552.370 6      2568.926          26.000

  23365358.742                   122785763.704 6     -1974.958          45.500
                  23365365.043    95677214.279 7     -1538.930          31.500

  21907902.594                   115126810.597 6     -1569.458          46.000
                  21907908.555    89709198.695 8     -1222.955          37.500

  23448884.266                   123224722.087 6      1847.689          45.000
                  23448887.984    96019264.216 7      1439.764          28.300

  20073457.031                   105486737.879 7        31.275          48.300
                  20073459.652    82197463.861 8        24.370          39.300

  21931052.711                   115248465.913 7      2240.555          47.300
                  21931056.813    89804003.252 8      1745.889          35.300

  23566778.664                   123844239.325 5     -2269.910          41.000
                  23566781.402    96502008.681 6     -1768.761          22.500

  23831322.203                   125234453.674 6      2734.127          43.000
                  23831323.363    97585289.240 7      2130.484          27.500

  23837390.578                   125266307.820 5     -2956.125          41.500
                  23837397.898    97610102.687 6     -2303.479          24.500

  22012461.117                   115676285.385 7      2648.969          50.300
                  22012464.918    90137369.964 8      2064.136          36.800

  20941437.164                   110048006.027 7     -1678.668          48.500
                  20941442.863    85751695.371 9     -1308.062          41.300

 18  7  1  0  4 10.0000000  0 11G01G08G10G11G14G18G20G22G27G31G32
  23674886.805                   124412375.495 5      3295.790          42.000
                  23674893.383    96944710.100 6      2568.148          24.500

  23367239.008                   122795643.817 6     -1976.745          45.500
                  23367245.148    95684913.060 7     -1540.308          30.000

  21909396.414                   115134660.781 7     -1570.410          47.500
                  21909402.695    89715315.722 8     -1223.698          37.300

  23447127.523                   123215489.909 6      1845.595          44.500
                  23447131.023    96012070.315 7      1438.126          28.000

  20073428.289                   105486589.188 7        28.737          47.800
                  20073431.090    82197347.990 8        22.395          39.300

  21928922.313                   115237269.143 6      2238.540          46.500
                  21928926.734    89795278.506 8      1744.317          35.000

  23568938.906                   123855591.257 5     -2270.685          41.000
                  23568941.828    96510854.327 6     -1769.359          25.300

  23828721.281                   125220783.085 6      2734.116          43.800
                  23828722.281    97574636.846 7      2130.476          28.500

  23840203.523                   125281088.903 5     -2956.265          41.300
                  23840210.984    97621620.387 6     -2303.567          25.000

  22009942.094                   115663045.748 7      2647.242          49.800
                  22009945.953    90127053.391 8      2062.782          36.500

  20943035.445                   110056403.997 7     -1680.208          48.500
                  20943041.387    85758239.237 9     -1309.253          41.300

 18  7  1  0  4 15.0000000  0 11G01G08G10G11G14G18G20G22G27G31G32
  23671751.484                   124395899.627 6      3294.797          42.500
                  23671758.105    96931871.757 6      2567.366          25.500

  23369120.484                   122805532.855 6     -1978.476          45.500
                  23369127.305    95692618.801 7     -1541.670          30.800

  21910891.094                   115142515.856 6     -1571.397          47.000
                  21910897.375    89721436.560 8     -1224.461          37.000

  23445372.367                   123206268.402 6      1843.501          45.000
                  23445376.105    96004884.723 7      1436.494          28.300

  20073402.469                   105486453.371 7        26.160          47.500
                  20073405.629    82197242.165 8        20.382          39.500

  21926793.773                   115226082.410 6      2236.596          46.800
                  21926798.113    89786561.563 8      1742.800          35.000

  23571099.008                   123866947.242 5     -2271.494          41.000
                  23571102.449    96519703.152 6     -1769.990          23.500

  23826119.898                   125207112.781 6      2734.074          44.000
                  23826121.258    97563984.658 7      2130.445          29.000

  23843016.359                   125295870.931 5     -2956.436          41.300
                  23843024.078    97633138.842 6     -2303.714          24.500

  22007424.313                   115649815.046 7      2645.477          50.500
                  22007427.953    90116743.761 8      2061.411          37.300

  20944635.078                   110064809.807 7     -1681.753          48.800
                  20944640.738    85764789.215 9     -1310.453          41.500

 18  7  1  0  4 20.0000000  0 11G01G08G10G11G14G18G20G22G27G31G32
  23668617.063                   124379428.821 6      3293.759          42.300
                  23668623.844    96919037.358 7      2566.570          27.000

  23371004.508                   122815430.843 6     -1980.292          45.300
                  23371010.387    95700331.517 7     -1543.093          31.300

  21912386.875                   115150375.815 6     -1572.378          45.800
                  21912392.977    89727561.203 8     -1225.233          36.800

  23443619.625                   123197057.555 6      1841.346          44.500
                  23443623.066    95997707.443 7      1434.809          29.000

  20073379.352                   105486330.398 6        23.571          47.000
                  20073382.250    82197146.344 8        18.365          39.800

  21924667.117                   115214905.793 6      2234.515          47.000
                  21924670.879    89777852.517 8      1741.172          35.300

  23573261.688                   123878307.268 5     -2272.306          39.800
                  23573264.406    96528555.126 6     -1770.636          23.800

  23823518.680                   125193442.736 6      2733.998          44.000
                  23823519.738    97553332.678 7      2130.386          29.300

  23845829.344                   125310653.924 6     -2956.683          42.300
                  23845837.145    97644658.049 7     -2303.905          26.500

  22004908.297                   115636593.340 7      2643.637          51.000
                  22004911.918    90106441.143 8      2059.983          36.500

  20946236.281                   110073223.518 7     -1683.361          48.500
                  20946241.941    85771345.354 9     -1311.712          41.500

 18  7  1  0  4 25.0000000  0 11G01G08G10G11G14G18G20G22G27G31G32
  23665483.781                   124362963.080 5      3292.716          41.800
                  23665491.063    96906206.934 6      2565.736          26.000

  23372890.086                   122825337.668 6     -1982.100          45.300
                  23372896.145    95708051.116 7     -1544.491          31.500

  21913883.391                   115158240.641 6     -1573.355          46.500
                  21913889.969    89733689.636 8     -1225.995          36.800

  23441869.063                   123187857.430 6      1839.176          43.800
                  23441872.563    95990538.511 7      1433.126          29.500

  20073358.008                   105486220.324 7        20.983          47.300
                  20073361.547    82197060.571 8        16.349          39.800

  21922541.875                   115203739.240 7      2232.536          47.300
                  21922545.754    89769151.306 8      1739.636          36.000

  23575423.602                   123889671.361 5     -2273.136          39.500
                  23575426.543    96537410.270 6     -1771.273          24.300

  23820917.039                   125179772.944 6      2733.927          43.500
                  23820918.820    97542680.896 7      2130.337          28.500

  23848642.883                   125325437.800 5     -2956.859          42.000
                  23848650.441    97656177.955 6     -2304.050          25.000

  22002393.797                   115623380.528 7      2641.848          50.500
                  22002397.535    90096145.454 8      2058.585          37.000

  20947838.922                   110081645.030 7     -1684.943          48.800
                  20947844.500    85777907.575 9     -1312.949          41.300

 18  7  1  0  4 30.0000000  0 11G01G08G10G11G14G18G20G22G27G31G32
  23662352.086                   124346502.443 5      3291.754          41.800
                  23662358.867    96893380.443 6      2565.011          26.000

  23374776.984                   122835253.365 6     -1983.828          46.300
                  23374782.906    95715777.640 7     -1545.840          31.500

  21915381.055                   115166110.406 7     -1574.332          47.300
                  21915387.516    89739821.915 8     -1226.753          37.300

  23440120.266                   123178667.986 6      1837.063          43.500
                  23440124.188    95983377.908 7      1431.484          29.800

  20073339.586                   105486123.092 6        18.448          47.000
                  20073343.324    82196984.807 8        14.375          39.500

  21920419.094                   115192582.839 7      2230.497          47.500
                  21920423.434    89760458.003 8      1738.054          35.800

  23577586.008                   123901039.497 5     -2273.909          39.500
                  23577589.688    96546268.540 6     -1771.863          24.500

  23818315.898                   125166103.456 6      2733.896          43.500
                  23818317.438    97532029.353 7      2130.302          28.000

  23851456.359                   125340222.558 6     -2957.011          43.000
                  23851463.898    97667698.529 6     -2304.154          26.000

  21999881.516                   115610176.697 7      2640.072          50.500
                  21999885.234    90085856.771 8      2057.197          37.300

  20949442.961                   110090074.404 7     -1686.488          49.500
                  20949448.461    85784475.916 9     -1314.149          41.800

 18  7  1  0  4 35.0000000  0 11G01G08G10G11G14G18G20G22G27G31G32
  23659220.547                   124330046.927 5      3290.740          42.000
                  23659226.727    96880557.970 7      2564.217          26.500

  23376664.664                   122845177.983 6     -1985.618          45.300
                  23376671.465    95723511.100 7     -1547.229          30.800

  21916879.555                   115173985.029 7     -1575.294          48.800
                  21916885.855    89745957.977 8     -1227.504          36.500

  23438373.805                   123169489.226 6      1834.930          44.500
                  23438376.945    95976225.633 7      1429.811          28.300

  20073324.188                   105486038.717 7        15.878          47.500
                  20073326.508    82196919.064 8        12.368          39.500

  21918297.711                   115181436.467 7      2228.471          47.500
                  21918301.711    89751772.521 8      1736.473          35.300

  23579750.844                   123912411.678 4     -2274.713          39.000
                  23579753.742    96555129.988 6     -1772.502          23.300

  23815714.641                   125152434.192 6      2733.859          44.300
                  23815716.441    97521377.988 7      2130.261          29.000

  23854269.461                   125355008.223 5     -2957.198          42.000
                  23854277.480    97679219.808 6     -2304.302          25.300

  21997370.031                   115596981.815 7      2638.296          50.800
                  21997374.172    90075575.055 8      2055.811          37.500

  20951048.641                   110098511.571 7     -1688.017          49.800
                  20951054.219    85791050.334 9     -1315.338          41.500

 18  7  1  0  4 40.0000000  0 11G01G08G10G11G14G18G20G22G27G31G32
  23656089.922                   124313596.504 5      3289.663          41.800
                  23656096.402    96867739.476 7      2563.357          28.300

  23378555.563                   122855111.487 6     -1987.433          45.300
                  23378561.824    95731251.497 7     -1548.658          29.800

  21918378.875                   115181864.550 7     -1576.300          48.500
                  21918385.355    89752097.863 8     -1228.290          37.000

  23436629.586                   123160321.168 6      1832.762          44.500
                  23436632.926    95969081.697 7      1428.124          28.500

  20073310.070                   105485967.210 7        13.279          47.500
                  20073312.852    82196863.338 8        10.350          39.500

  21916178.953                   115170300.167 7      2226.425          48.000
                  21916183.152    89743094.884 8      1734.880          35.800

  23581916.125                   123923787.907 5     -2275.599          39.500
                  23581918.566    96563994.559 6     -1773.175          22.500

  23813113.320                   125138765.174 6      2733.790          42.800
                  23813115.242    97510726.788 7      2130.236          28.500

  23857083.820                   125369794.734 5     -2957.389          41.000
                  23857090.980    97690741.791 6     -2304.478          24.500

  21994861.516                   115583795.922 7      2636.451          50.800
                  21994865.254    90065300.345 8      2054.374          37.000

  20952655.445                   110106956.587 7     -1689.638          50.000
                  20952660.984    85797630.866 9     -1316.601          41.500

 18  7  1  0  4 45.0000000  0 11G01G08G10G11G14G18G20G22G27G31G32
  23652961.047                   124297151.199 5      3288.654          42.000
                  23652967.285    96854924.933 7      2562.583          26.800

  23380447.047                   122865053.923 6     -1989.218          44.300
                  23380454.227    95738998.849 7     -1550.031          28.800

  21919879.656                   115189748.964 7     -1577.270          48.300
                  21919885.797    89758241.556 8     -1229.042          37.000

  23434887.203                   123151163.824 6      1830.607          43.800
                  23434890.203    95961946.103 7      1426.445          29.300

  20073298.969                   105485908.511 6        10.702          46.800
                  20073301.949    82196817.594 8         8.343          39.300

  21914061.914                   115159174.056 7      2224.401          47.800
                  21914065.652    89734425.193 8      1733.296          34.800

  23584081.508                   123935168.152 5     -2276.358          39.500
                  23584084.086    96572862.301 6     -1773.771          22.800

  23810512.703                   125125096.486 5      2733.727          41.800
                  23810514.402    97500075.865 7      2130.179          27.500

  23859898.281                   125384582.086 5     -2957.523          42.000
                  23859904.781    97702264.379 6     -2304.553          24.500

  21992353.617                   115570619.010 7      2634.659          49.500
                  21992357.777    90055032.632 8      2052.975          36.800

  20954263.859                   110115409.353 7     -1691.181          49.500
                  20954269.418    85804217.437 9     -1317.799          41.500

 18  7  1  0  4 50.0000000  0 11G01G08G10G11G14G18G20G22G27G31G32
  23649832.383                   124280710.973 5      3287.684          42.000
                  23649839.023    96842114.377 7      2561.830          27.800

  23382341.008                   122875005.092 6     -1990.912          44.500
                  23382347.828    95746753.011 7     -1551.364          29.500

  21921380.375                   115197638.227 7     -1578.216          47.800
                  21921387.273    89764389.034 8     -1229.779          37.300

  23433145.664                   123142017.159 6      1828.500          43.500
                  23433149.605    95954818.823 7      1424.809          28.500

  20073290.008                   105485862.600 6         8.195          46.500
                  20073293.008    82196781.824 8         6.390          39.500

  21911946.555                   115148057.987 7      2222.436          47.500
                  21911950.156    89725763.314 8      1731.774          36.000

  23586247.563                   123946552.416 5     -2277.149          39.300
                  23586250.324    96581733.130 6     -1774.379          22.500

  23807911.320                   125111428.004 5      2733.719          41.300
                  23807913.820    97489425.099 7      2130.163          28.500

  23862711.242                   125399370.261 5     -2957.647          41.300
                  23862718.684    97713787.627 6     -2304.660          23.000

  21989847.813                   115557451.039 7      2632.917          49.800
                  21989851.852    90044771.880 8      2051.620          36.800

  20955874.125                   110123869.879 7     -1692.702          50.300
                  20955879.445    85810810.052 9     -1318.991          41.300

 18  7  1  0  4 55.0000000  0 11G01G08G10G11G14G18G20G22G27G31G32
  23646704.727                   124264275.973 5      3286.575          42.000
                  23646711.887    96829307.879 7      2560.962          26.500

  23384236.422                   122884965.136 6     -1992.730          45.500
                  23384242.922    95754514.087 7     -1552.779          29.500

  21922882.555                   115205532.400 7     -1579.222          47.800
                  21922889.273    89770540.331 8     -1230.565          37.300

  23431407.203                   123132881.233 6      1826.338          43.500
                  23431411.043    95947699.934 7      1423.120          28.800

  20073283.805                   105485829.554 6         5.583          46.500
                  20073286.746    82196756.073 8         4.351          39.800

  21909832.938                   115136952.106 7      2220.344          48.000
                  21909836.996    89717109.380 8      1730.139          36.000

  23588415.086                   123957940.709 5     -2277.987          40.500
                  23588417.305    96590607.122 6     -1775.047          22.800

  23805310.445                   125097759.831 5      2733.606          42.000
                  23805312.707    97478774.570 7      2130.089          28.300

  23865525.539                   125414159.278 5     -2957.894          41.000
                  23865533.461    97725311.515 6     -2304.850          23.000

  21987343.695                   115544292.155 7      2631.060          50.000
                  21987347.273    90034518.205 8      2050.178          37.500

  20957485.578                   110132338.232 7     -1694.300          50.000
                  20957490.898    85817408.769 9     -1320.234          41.500

 18  7  1  0  5  0.0000000  0 11G01G08G10G11G14G18G20G22G27G31G32
  23643578.367                   124247846.125 6      3285.585          42.800
                  23643584.945    96816505.407 7      2560.200          26.500

  23386133.266                   122894933.952 6     -1994.425          45.000
                  23386140.164    95762281.983 7     -1554.083          30.300

  21924385.891                   115213431.519 7     -1580.181          48.800
                  21924392.270    89776695.481 8     -1231.304          36.800

  23429671.547                   123123756.068 6      1824.207          43.800
                  23429674.969    95940589.423 7      1421.454          28.500

  20073279.945                   105485809.385 6         3.030          46.800
                  20073282.984    82196740.357 8         2.363          39.000

  21907721.336                   115125856.372 6      2218.353          47.000
                  21907725.195    89708463.353 8      1728.593          35.500

  23590583.367                   123969333.087 5     -2278.765          40.800
                  23590585.926    96599484.306 6     -1775.648          22.800

  23802709.859                   125084091.967 6      2733.577          43.000
                  23802711.418    97468124.302 7      2130.064          28.500

  23868340.461                   125428949.126 5     -2957.994          41.000
                  23868347.063    97736836.086 6     -2304.926          23.500

  21984841.477                   115531142.298 7      2629.291          50.300
                  21984845.258    90024271.576 8      2048.798          37.300

  20959098.383                   110140814.383 7     -1695.824          49.800
                  20959104.043    85824013.562 9     -1321.419          42.000

 18  7  1  0  5  5.0000000  0 11G01G08G10G11G14G18G20G22G27G31G32
  23640452.164                   124231421.446 5      3284.468          42.000
                  23640459.664    96803706.946 7      2559.338          27.000

  23388031.844                   122904911.538 6     -1996.254          45.000
                  23388039.223    95770056.733 7     -1555.523          30.000

  21925889.836                   115221335.492 7     -1581.232          48.500
                  21925896.355    89782854.419 8     -1232.133          36.500

  23427937.281                   123114641.643 6      1821.973          44.300
                  23427940.262    95933487.261 7      1419.703          29.300

  20073278.766                   105485802.015 6         0.405          47.000
                  20073281.605    82196734.612 8         0.315          38.500

  21905611.813                   115114770.830 6      2216.227          46.500
                  21905615.754    89699825.262 8      1726.936          35.500

  23592752.164                   123980729.441 5     -2279.621          40.500
                  23592753.902    96608364.579 6     -1776.332          22.800

  23800108.563                   125070424.329 5      2733.449          41.500
                  23800110.863    97457474.193 7      2129.968          28.300

  23871154.859                   125443739.723 5     -2958.246          40.800
                  23871162.078    97748361.245 6     -2305.135          23.000

  21982340.938                   115518001.457 7      2627.410          50.000
                  21982344.359    90014031.976 8      2047.326          37.000

  20960712.719                   110149298.249 7     -1697.439          50.500
                  20960718.559    85830624.371 9     -1322.680          41.500

 18  7  1  0  5 10.0000000  0 11G01G08G10G11G14G18G20G22G27G31G32
  23637327.305                   124215001.883 5      3283.493          41.500
                  23637335.066    96790912.497 7      2558.564          26.800

  23389932.367                   122914897.958 6     -1997.978          44.500
                  23389939.527    95777838.355 7     -1556.872          30.000

  21927395.070                   115229244.344 7     -1582.149          48.800
                  21927401.270    89789017.157 8     -1232.848          36.500

  23426204.344                   123105537.919 6      1819.879          44.500
                  23426208.105    95926393.446 7      1418.086          28.500

  20073279.672                   105485807.501 6        -2.128          47.000
                  20073282.633    82196738.881 8        -1.654          39.500

  21903504.391                   115103695.451 7      2214.257          47.500
                  21903507.871    89691195.091 8      1725.405          35.000

  23594921.445                   123992129.857 5     -2280.407          40.800
                  23594923.484    96617248.020 6     -1776.934          21.500

  23797508.164                   125056756.935 5      2733.443          41.500
                  23797510.203    97446824.268 7      2129.958          28.500

  23873969.523                   125458531.082 5     -2958.359          40.800
                  23873976.844    97759886.971 6     -2305.213          23.500

  21979842.438                   115504869.667 7      2625.623          50.000
                  21979845.898    90003799.418 8      2045.936          37.500

  20962329.000                   110157789.898 7     -1698.966          50.500
                  20962334.379    85837241.240 9     -1323.872          41.300

 18  7  1  0  5 15.0000000  0 11G01G08G10G11G14G18G20G22G27G31G32
  23634203.984                   124198587.620 5      3282.479          42.000
                  23634211.543    96778122.168 7      2557.772          26.800

  23391834.547                   122924893.195 6     -1999.759          45.000
                  23391841.828    95785626.842 7     -1558.248          29.800

  21928900.672                   115237158.162 7     -1583.116          48.000
                  21928907.250    89795183.766 8     -1233.591          36.500

  23424473.922                   123096444.998 6      1817.733          45.000
                  23424477.902    95919308.054 7      1416.411          29.300

  20073283.289                   105485825.810 6        -4.666          47.000
                  20073285.910    82196753.148 8        -3.634          39.500

  21901398.758                   115092630.206 7      2212.257          47.500
                  21901402.520    89682572.831 8      1723.837          35.300

  23597091.305                   124003534.363 5     -2281.192          39.800
                  23597093.703    96626134.624 6     -1777.544          23.500

  23794907.484                   125043089.905 6      2733.399          42.300
                  23794909.586    97436174.631 7      2129.919          28.500

  23876783.805                   125473323.266 5     -2958.440          40.500
                  23876791.863    97771413.329 6     -2305.262          23.500

  21977345.117                   115491746.947 7      2623.839          50.800
                  21977348.656    89993573.929 8      2044.546          37.000

  20963946.398                   110166289.324 7     -1700.466          50.300
                  20963951.758    85843864.167 9     -1325.045          41.500

 18  7  1  0  5 20.0000000  0 11G01G08G10G11G14G18G20G22G27G31G32
  23631081.961                   124182178.527 5      3281.402          41.500
                  23631088.801    96765335.858 7      2556.934          27.000

  23393738.281                   122934897.154 6     -2001.493          45.300
                  23393745.441    95793422.126 7     -1559.607          30.500

  21930407.711                   115245076.880 7     -1584.157          48.800
                  21930413.910    89801354.188 8     -1234.410          37.500

  23422745.688                   123087362.814 6      1815.557          44.800
                  23422749.426    95912231.031 7      1414.716          28.500

  20073288.711                   105485856.896 7        -7.249          47.300
                  20073291.813    82196777.367 8        -5.647          39.000

  21899295.117                   115081575.191 6      2210.187          46.800
                  21899298.656    89673958.533 8      1722.219          35.300

  23599262.320                   124014942.869 5     -2282.020          41.000
                  23599264.621    96635024.367 6     -1778.191          22.500

  23792306.805                   125029423.139 6      2733.323          43.800
                  23792308.746    97425525.206 7      2129.864          29.500

  23879600.125                   125488116.188 5     -2958.651          40.300
                  23879607.227    97782940.290 6     -2305.454          24.500

  21974849.297                   115478633.329 7      2621.992          51.000
                  21974853.516    89983355.527 8      2043.115          36.800

  20965564.742                   110174796.470 7     -1702.038          50.500
                  20965570.383    85850493.110 9     -1326.261          41.300

 18  7  1  0  5 25.0000000  0 11G01G08G10G11G14G18G20G22G27G31G32
  23627960.141                   124165774.655 5      3280.322          42.000
                  23627967.199    96752553.633 7      2556.083          26.300

  23395643.164                   122944909.823 6     -2003.240          44.800
                  23395650.684    95801224.205 7     -1560.969          29.500

  21931915.633                   115253000.428 7     -1585.129          47.500
                  21931921.734    89807528.377 8     -1235.167          37.000

  23421019.063                   123078291.343 6      1813.405          44.500
                  23421022.961    95905162.346 7      1413.047          29.300

  20073297.305                   105485900.744 7        -9.790          47.500
                  20073300.086    82196811.536 8        -7.623          39.000

  21897193.336                   115070530.331 6      2208.163          46.800
                  21897196.777    89665352.153 8      1720.641          35.800

  23601434.102                   124026355.395 5     -2282.851          40.000
                  23601436.582    96643917.253 6     -1778.847          22.800

  23789705.344                   125015756.600 6      2733.262          43.500
                  23789708.004    97414875.958 7      2129.825          28.000

  23882415.000                   125502909.822 5     -2958.824          41.000
                  23882422.680    97794467.793 6     -2305.581          23.800

  21972356.117                   115465528.750 7      2620.174          50.300
                  21972359.918    89973144.183 8      2041.684          37.000

  20967185.203                   110183311.303 7     -1703.598          50.800
                  20967190.863    85857128.045 9     -1327.481          42.000

 18  7  1  0  5 30.0000000  0 11G01G08G10G11G14G18G20G22G27G31G32
  23624839.727                   124149375.954 5      3279.294          41.300
                  23624846.465    96739775.424 7      2555.296          26.500

  23397550.188                   122954931.272 6     -2005.004          44.500
                  23397557.789    95809033.123 7     -1562.340          30.000

  21933424.211                   115260928.908 7     -1586.093          48.300
                  21933430.332    89813706.405 8     -1235.917          36.500

  23419294.766                   123069230.669 6      1811.248          44.000
                  23419298.926    95898102.103 7      1411.360          29.300

  20073308.289                   105485957.401 7       -12.376          47.800
                  20073311.090    82196855.688 8        -9.643          39.000

  21895093.094                   115059495.694 7      2206.072          47.300
                  21895097.453    89656753.735 8      1719.011          35.000

  23603606.602                   124037771.955 5     -2283.657          40.500
                  23603609.281    96652813.220 6     -1779.434          22.000

  23787105.664                   125002090.386 6      2733.194          44.500
                  23787107.164    97404226.961 7      2129.763          29.000

  23885230.398                   125517704.150 5     -2958.945          40.500
                  23885238.078    97805995.855 6     -2305.682          25.500

  21969863.594                   115452433.294 7      2618.345          50.500
                  21969867.633    89962939.936 8      2040.269          37.800

  20968807.023                   110191833.875 7     -1705.146          50.500
                  20968812.922    85863769.008 9     -1328.683          41.800

 18  7  1  0  5 35.0000000  0 11G01G08G10G11G14G18G20G22G27G31G32
  23621720.227                   124132982.611 5      3278.254          41.000
                  23621726.285    96727001.388 7      2554.479          27.300

  23399458.461                   122964961.427 6     -2006.735          44.800
                  23399466.160    95816848.824 7     -1563.688          29.300

  21934934.117                   115268862.380 7     -1587.097          48.800
                  21934940.758    89819888.325 8     -1236.695          37.000

  23417573.266                   123060180.825 6      1809.093          44.500
                  23417577.105    95891050.260 7      1409.685          29.000

  20073321.391                   105486026.849 7       -14.922          47.300
                  20073324.230    82196909.798 8       -11.627          38.800

  21892995.594                   115048471.423 6      2204.020          46.500
                  21892999.434    89648163.396 8      1717.416          35.800

  23605779.586                   124049192.624 5     -2284.469          40.800
                  23605782.508    96661712.463 6     -1780.102          22.500

  23784504.500                   124988424.522 6      2733.141          44.000
                  23784507.281    97393578.239 7      2129.706          29.000

  23888045.445                   125532499.272 5     -2959.068          40.500
                  23888053.086    97817524.509 6     -2305.755          24.300

  21967373.438                   115439347.031 7      2616.503          51.300
                  21967377.418    89952742.864 8      2038.825          37.300

  20970430.359                   110200364.222 7     -1706.702          50.500
                  20970435.898    85870416.032 8     -1329.901          41.000

 18  7  1  0  5 40.0000000  0 11G01G08G10G11G14G18G20G22G27G31G32
  23618601.461                   124116594.539 5      3277.192          41.800
                  23618608.422    96714231.460 7      2553.648          27.000

  23401369.063                   122975000.284 6     -2008.432          44.800
                  23401376.461    95824671.306 7     -1565.014          29.500

  21936444.797                   115276800.731 7     -1588.053          49.000
                  21936450.836    89826074.053 8     -1237.440          36.500

  23415852.945                   123051141.718 6      1806.960          45.000
                  23415856.867    95884006.802 7      1408.021          28.800

  20073337.391                   105486109.046 7       -17.455          47.500
                  20073339.891    82196973.843 8       -13.599          39.000

  21890899.336                   115037457.329 6      2202.012          46.800
                  21890903.195    89639580.980 8      1715.854          35.500

  23607954.188                   124060617.326 5     -2285.250          40.000
                  23607956.969    96670614.832 6     -1780.714          22.800

  23781904.719                   124974758.920 6      2733.094          44.000
                  23781905.859    97382929.717 7      2129.686          27.800

  23890860.359                   125547295.103 5     -2959.202          40.800
                  23890868.980    97829053.722 6     -2305.872          24.000

  21964885.133                   115426269.862 7      2614.714          51.300
                  21964888.492    89942552.877 8      2037.431          37.500

  20972054.945                   110208902.228 7     -1708.199          50.500
                  20972060.746    85877069.028 9     -1331.064          41.500

 18  7  1  0  5 45.0000000  0 11G01G08G10G11G14G18G20G22G27G31G32
  23615484.047                   124100211.713 5      3276.118          40.800
                  23615491.086    96701465.640 6      2552.821          26.000

  23403280.922                   122985047.810 6     -2010.209          44.000
                  23403288.301    95832500.534 7     -1566.384          29.300

  21937955.977                   115284743.964 7     -1589.060          47.500
                  21937962.715    89832263.587 8     -1238.224          36.000

  23414134.906                   123042113.428 6      1804.800          43.800
                  23414139.008    95876971.766 7      1406.342          29.800

  20073355.188                   105486204.028 6       -20.024          46.500
                  20073357.988    82197047.853 8       -15.605          39.300

  21888805.758                   115026453.484 6      2199.942          46.300
                  21888809.398    89631006.564 8      1714.244          34.800

  23610128.367                   124072046.021 5     -2286.077          40.800
                  23610131.367    96679520.319 6     -1781.381          22.000

  23779303.766                   124961093.589 6      2733.018          44.500
                  23779305.688    97372281.409 7      2129.622          28.000

  23893676.344                   125562091.583 5     -2959.376          41.000
                  23893685.063    97840583.446 6     -2306.017          23.500

  21962398.695                   115413201.837 7      2612.859          51.000
                  21962402.297    89932370.002 8      2035.992          37.500

  20973681.102                   110217447.932 7     -1709.752          49.800
                  20973687.082    85883728.014 9     -1332.270          41.300

 18  7  1  0  5 50.0000000  0 11G01G08G10G11G14G18G20G22G27G31G32
  23612367.227                   124083834.172 5      3275.098          41.000
                  23612374.246    96688703.905 6      2552.031          26.000

  23405194.984                   122995104.119 6     -2011.943          44.300
                  23405202.004    95840336.626 7     -1567.748          28.500

  21939468.633                   115292692.145 6     -1590.019          47.000
                  21939474.793    89838456.964 8     -1238.972          36.500

  23412419.586                   123033095.955 6      1802.648          44.000
                  23412423.164    95869945.160 7      1404.667          29.500

  20073375.430                   105486311.803 6       -22.568          46.800
                  20073378.531    82197131.836 8       -17.587          39.500

  21886713.797                   115015459.877 6      2197.908          47.000
                  21886718.016    89622440.110 8      1712.658          35.000

  23612304.227                   124083478.808 5     -2286.873          40.000
                  23612307.648    96688428.991 6     -1781.991          22.300

  23776703.703                   124947428.589 6      2733.000          43.800
                  23776705.164    97361633.353 7      2129.612          27.800

  23896492.625                   125576888.714 5     -2959.449          40.500
                  23896501.086    97852113.656 6     -2306.044          23.800

  21959913.375                   115400142.995 7      2611.051          50.500
                  21959917.234    89922194.287 8      2034.583          37.800

  20975308.805                   110226001.322 7     -1711.271          50.500
                  20975314.605    85890392.989 9     -1333.454          41.500

 18  7  1  0  5 55.0000000  0 11G01G08G10G11G14G18G20G22G27G31G32
  23609251.664                   124067461.812 5      3274.087          41.500
                  23609258.523    96675946.239 7      2551.224          27.000

  23407110.703                   123005168.941 6     -2013.614          44.500
                  23407116.523    95848179.346 7     -1569.054          29.500

  21940981.977                   115300645.126 7     -1590.923          47.800
                  21940988.215    89844654.088 8     -1239.680          36.300

  23410705.188                   123024089.163 6      1800.564          44.500
                  23410709.266    95862926.889 7      1403.043          29.500

  20073398.305                   105486432.217 7       -25.043          47.300
                  20073401.746    82197225.663 8       -19.516          39.000

  21884623.680                   115004476.443 6      2195.924          46.800
                  21884627.641    89613881.590 8      1711.110          35.500

  23614479.625                   124094915.549 5     -2287.625          39.300
                  23614483.523    96697340.727 6     -1782.565          21.800

  23774103.344                   124933763.750 6      2733.015          44.300
                  23774104.863    97350985.430 7      2129.618          27.000

  23899308.703                   125591686.411 5     -2959.523          40.800
                  23899316.781    97863644.331 6     -2306.126          22.800

  21957430.375                   115387093.242 7      2609.272          50.500
                  21957434.016    89912025.661 8      2033.191          37.300

  20976937.742                   110234562.293 7     -1712.747          50.000
                  20976943.820    85897063.875 9     -1334.610          41.800

 18  7  1  0  6  0.0000000  0 11G01G08G10G11G14G18G20G22G27G31G32
  23606137.781                   124051094.857 5      3272.931          41.500
                  23606144.043    96663192.773 7      2550.336          26.300

  23409027.320                   123015242.495 6     -2015.411          44.300
                  23409033.961    95856028.868 7     -1570.450          29.500

  21942496.672                   115308603.086 7     -1591.976          48.000
                  21942503.012    89850855.101 8     -1240.501          37.000

  23408993.227                   123015093.304 6      1798.294          44.300
                  23408997.586    95855917.145 7      1401.270          31.000

  20073423.805                   105486565.501 7       -27.684          47.300
                  20073426.844    82197329.518 8       -21.567          39.000

  21882535.453                   114993503.324 7      2193.793          48.000
                  21882539.414    89605331.111 8      1709.443          35.800

  23616656.961                   124106356.413 4     -2288.518          38.500
                  23616660.422    96706255.673 6     -1783.269          22.000

  23771503.039                   124920099.328 6      2732.850          44.500
                  23771504.160    97340337.837 7      2129.487          28.300

  23902124.539                   125606484.809 5     -2959.733          40.300
                  23902131.980    97875175.554 6     -2306.280          22.800

  21954948.414                   115374052.724 7      2607.357          50.500
                  21954952.836    89901864.226 8      2031.703          38.000

  20978568.063                   110243131.009 7     -1714.371          50.300
                  20978574.324    85903740.795 9     -1335.878          41.500

 18  7  1  0  6  5.0000000  0 11G01G08G10G11G14G18G20G22G27G31G32
  23603024.383                   124034733.149 5      3271.898          41.000
                  23603030.922    96650443.384 7      2549.537          26.500

  23410945.805                   123025324.617 6     -2017.132          44.000
                  23410952.105    95863885.084 7     -1571.800          29.800

  21944011.977                   115316565.928 7     -1592.967          48.800
                  21944018.516    89857059.913 8     -1241.277          37.300

  23407283.383                   123006108.197 6      1796.147          44.000
                  23407287.723    95848915.763 7      1399.587          29.500

  20073451.625                   105486711.462 7       -30.227          47.500
                  20073454.703    82197443.252 8       -23.551          39.000

  21880449.375                   114982540.456 7      2191.718          47.300
                  21880452.695    89596788.614 8      1707.832          35.500

  23618835.188                   124117801.284 4     -2289.322          38.800
                  23618838.668    96715173.753 6     -1783.891          22.000

  23768902.398                   124906435.169 6      2732.789          44.000
                  23768903.938    97329690.430 7      2129.448          28.000

  23904940.461                   125621283.806 5     -2959.862          41.000
                  23904948.621    97886707.248 6     -2306.394          23.000

  21952468.891                   115361021.371 7      2605.518          51.000
                  21952472.910    89891709.938 8      2030.263          37.800

  20980200.719                   110251707.314 7     -1715.887          50.000
                  20980206.457    85910423.632 8     -1337.057          41.000

 18  7  1  0  6 10.0000000  0 11G01G08G10G11G14G18G20G22G27G31G32
  23599912.305                   124018376.830 5      3270.823          41.300
                  23599918.246    96637698.203 7      2548.685          27.000

  23412865.867                   123035415.417 6     -2018.853          43.500
                  23412872.387    95871748.025 7     -1573.128          29.000

  21945528.094                   115324533.700 7     -1593.952          48.300
                  21945534.273    89863268.562 8     -1242.039          37.000

  23405575.625                   122997133.953 6      1793.969          44.800
                  23405579.805    95841922.839 7      1397.890          31.000

  20073482.586                   105486870.203 6       -32.784          47.000
                  20073485.066    82197566.953 8       -25.548          38.800

  21878365.477                   114971587.900 7      2189.697          47.800
                  21878368.695    89588254.153 8      1706.262          35.300

  23621013.883                   124129250.206 5     -2290.089          39.300
                  23621017.543    96724094.956 6     -1784.471          22.500

  23766302.578                   124892771.294 6      2732.745          43.800
                  23766303.719    97319043.259 7      2129.409          27.000

  23907756.664                   125636083.381 5     -2959.978          40.300
                  23907764.742    97898239.358 6     -2306.472          24.800

  21949990.758                   115347999.238 7      2603.689          51.300
                  21949994.578    89881562.821 8      2028.848          37.800

  20981834.063                   110260291.288 7     -1717.417          50.000
                  20981840.004    85917112.441 9     -1338.249          41.300

 18  7  1  0  6 15.0000000  0 11G01G08G10G11G14G18G20G22G27G31G32
  23596799.742                   124002025.895 5      3269.738          40.500
                  23596806.844    96624957.221 7      2547.854          27.500

  23414788.227                   123045514.875 6     -2020.587          43.500
                  23414794.586    95879617.743 7     -1574.488          30.000

  21947045.117                   115332506.477 6     -1594.948          46.500
                  21947051.578    89869481.117 8     -1242.821          37.300

  23403869.641                   122988170.604 6      1791.804          44.500
                  23403874.422    95834938.420 7      1396.209          30.500

  20073514.508                   105487041.751 7       -35.324          47.500
                  20073517.367    82197700.629 8       -27.530          38.800

  21876283.078                   114960645.831 7      2187.598          47.500
                  21876286.777    89579727.867 8      1704.622          35.500

  23623193.523                   124140703.233 5     -2290.917          39.500
                  23623197.445    96733019.384 6     -1785.116          22.500

  23763702.000                   124879107.829 6      2732.650          43.000
                  23763703.738    97308396.390 7      2129.340          27.000

  23910573.305                   125650883.647 5     -2960.091          40.800
                  23910580.766    97909772.025 6     -2306.558          25.000

  21947514.438                   115334986.375 7      2601.834          51.000
                  21947518.418    89871422.930 8      2027.403          37.500

  20983468.922                   110268882.966 7     -1718.951          49.000
                  20983475.082    85923807.251 8     -1339.446          41.000

 18  7  1  0  6 20.0000000  0 11G01G08G10G11G14G18G20G22G27G31G32
  23593689.984                   123985680.273 5      3268.708          41.300
                  23593696.664    96612220.368 7      2547.037          26.500

  23416711.508                   123055622.802 6     -2022.274          43.800
                  23416717.566    95887494.037 7     -1575.798          28.500

  21948563.453                   115340484.117 6     -1595.904          46.300
                  21948569.574    89875697.452 8     -1243.562          37.000

  23402166.586                   122979218.039 6      1789.636          44.500
                  23402170.805    95827962.397 7      1394.514          29.500

  20073549.508                   105487226.017 6       -37.868          47.000
                  20073552.828    82197844.199 8       -29.501          39.000

  21874203.258                   114949714.038 6      2185.546          47.000
                  21874206.117    89571209.589 8      1703.021          36.500

  23625373.625                   124152160.277 5     -2291.729          39.500
                  23625377.305    96741946.969 6     -1785.761          22.000

  23761102.180                   124865444.621 5      2732.629          41.500
                  23761103.719    97297749.737 6      2129.319          26.000

  23913388.844                   125665684.441 5     -2960.201          40.000
                  23913397.742    97921305.119 6     -2306.660          23.500

  21945039.875                   115321982.716 7      2600.000          50.500
                  21945044.055    89861290.207 8      2025.976          37.300

  20985105.523                   110277482.225 7     -1720.451          49.500
                  20985111.242    85930507.974 9     -1340.615          41.300

 18  7  1  0  6 25.0000000  0 11G01G08G10G11G14G18G20G22G27G31G32
  23590579.883                   123969340.058 5      3267.592          41.300
                  23590586.844    96599487.733 6      2546.169          25.500

  23418636.781                   123065739.371 6     -2024.030          44.500
                  23418642.402    95895377.067 7     -1577.160          29.500

  21950082.914                   115348466.745 7     -1596.934          47.300
                  21950089.113    89881917.675 8     -1244.360          37.500

  23400465.281                   122970276.417 6      1787.450          44.300
                  23400469.102    95820994.896 7      1392.821          30.500

  20073587.172                   105487423.083 6       -40.445          47.000
                  20073590.031    82197997.758 8       -31.512          39.000

  21872124.539                   114938792.490 7      2183.472          47.800
                  21872128.117    89562699.286 8      1701.405          36.000

  23627554.625                   124163621.412 5     -2292.570          39.500
                  23627558.363    96750877.708 6     -1786.418          22.500

  23758502.102                   124851781.836 5      2732.505          41.800
                  23758503.742    97287103.419 7      2129.223          27.300

  23916205.766                   125680485.863 5     -2960.343          41.000
                  23916214.246    97932838.687 6     -2306.769          24.800

  21942567.055                   115308988.299 7      2598.124          50.800
                  21942570.977    89851164.695 8      2024.508          37.500

  20986743.102                   110286089.153 7     -1722.015          50.000
                  20986749.203    85937214.667 9     -1341.830          41.500

 18  7  1  0  6 30.0000000  0 11G01G08G10G11G14G18G20G22G27G31G32
  23587471.742                   123953005.185 5      3266.548          40.800
                  23587478.504    96586759.258 6      2545.366          25.500

  23420563.484                   123075864.437 6     -2025.714          45.300
                  23420569.684    95903266.737 7     -1578.482          30.000

  21951602.711                   115356454.199 7     -1597.891          48.300
                  21951608.852    89888141.672 8     -1245.114          37.000

  23398765.523                   122961345.548 6      1785.304          44.500
                  23398769.523    95814035.776 7      1391.148          30.300

  20073627.469                   105487632.804 7       -42.970          47.800
                  20073629.750    82198161.178 8       -33.486          39.500

  21870048.258                   114927881.305 6      2181.415          47.000
                  21870052.180    89554197.058 8      1699.810          36.000

  23629736.523                   124175086.505 5     -2293.368          40.500
                  23629740.363    96759811.535 6     -1787.040          22.000

  23755902.680                   124838119.306 6      2732.445          43.300
                  23755903.879    97276457.290 6      2129.182          25.800

  23919022.781                   125695287.711 5     -2960.422          40.000
                  23919031.020    97944372.574 6     -2306.812          23.500

  21940095.813                   115296003.024 7      2596.308          50.500
                  21940099.953    89841046.295 8      2023.099          37.300

  20988382.398                   110294703.612 7     -1723.523          50.500
                  20988388.500    85943927.230 9     -1342.999          41.300

 18  7  1  0  6 35.0000000  0 11G01G08G10G11G14G18G20G22G27G31G32
  23584364.164                   123936675.711 5      3265.487          40.800
                  23584371.402    96574034.997 6      2544.550          25.500

  23422492.141                   123085998.066 6     -2027.422          44.500
                  23422498.441    95911163.065 7     -1579.811          29.500

  21953123.352                   115364446.619 7     -1598.897          48.000
                  21953129.430    89894369.526 8     -1245.894          37.000

  23397067.867                   122952425.530 6      1783.107          45.000
                  23397072.547    95807085.113 7      1389.434          30.000

  20073669.445                   105487855.260 6       -45.516          47.000
                  20073672.184    82198334.517 8       -35.463          39.000

  21867973.758                   114916980.499 6      2179.311          47.000
                  21867977.738    89545702.927 8      1698.164          36.000

  23631918.781                   124186555.709 5     -2294.196          41.000
                  23631923.422    96768748.578 6     -1787.681          23.800

  23753302.742                   124824457.126 6      2732.390          44.000
                  23753303.703    97265811.447 7      2129.127          26.300

  23921839.578                   125710090.166 5     -2960.542          39.800
                  23921848.000    97955906.962 6     -2306.908          25.800

  21937626.695                   115283027.081 7      2594.429          50.300
                  21937630.957    89830935.186 8      2021.637          37.500

  20990023.180                   110303325.701 7     -1725.047          49.800
                  20990029.078    85950645.737 9     -1344.186          41.300

 18  7  1  0  6 40.0000000  0 11G01G08G10G11G14G18G20G22G27G31G32
  23581257.406                   123920351.661 5      3264.399          40.000
                  23581264.906    96561314.968 7      2543.681          26.500

  23424421.867                   123096140.245 6     -2029.108          45.500
                  23424428.027    95919066.054 7     -1581.113          30.000

  21954645.352                   115372443.990 6     -1599.848          46.300
                  21954651.613    89900601.239 8     -1246.641          36.800

  23395372.664                   122943516.442 6      1780.945          44.500
                  23395377.125    95800142.983 7      1387.741          30.000

  20073714.008                   105488090.473 6       -48.055          46.500
                  20073716.930    82198517.797 8       -37.443          39.500

  21865901.516                   114906090.047 7      2177.264          47.500
                  21865905.617    89537216.857 8      1696.567          36.300

  23634102.367                   124198028.860 5     -2294.945          40.800
                  23634106.688    96777688.685 6     -1788.271          24.000

  23750702.922                   124810795.295 6      2732.364          43.500
                  23750704.160    97255165.869 7      2129.106          27.000

  23924656.500                   125724893.120 5     -2960.616          39.800
                  23924664.859    97967441.734 6     -2306.982          25.300

  21935159.156                   115270060.378 7      2592.606          50.500
                  21935163.496    89820831.262 8      2020.212          37.300

  20991665.383                   110311955.373 7     -1726.526          48.800
                  20991671.223    85957370.159 9     -1345.347          41.300

 18  7  1  0  6 45.0000000  0 11G01G08G10G11G14G18G20G22G27G31G32
  23578151.922                   123904033.039 5      3263.282          40.000
                  23578159.422    96548599.165 6      2542.820          26.000

  23426353.781                   123106290.992 6     -2030.853          45.000
                  23426359.781    95926975.735 7     -1582.491          30.000

  21956168.234                   115380446.276 6     -1600.884          46.500
                  21956174.656    89906836.774 8     -1247.440          37.300

  23393679.406                   122934618.222 6      1778.738          45.300
                  23393683.566    95793209.291 7      1386.031          29.800

  20073761.406                   105488338.392 6       -50.614          46.500
                  20073764.227    82198710.981 8       -39.435          39.800

  21863831.336                   114895209.988 7      2175.151          47.500
                  21863835.156    89528738.886 8      1694.917          36.000

  23636286.383                   124209506.072 5     -2295.794          40.800
                  23636290.703    96786631.972 6     -1788.926          22.500

  23748102.680                   124797133.834 6      2732.248          43.500
                  23748104.121    97244520.573 7      2129.010          27.000

  23927473.781                   125739696.587 5     -2960.747          39.500
                  23927482.242    97978976.880 6     -2307.068          24.500

  21932693.477                   115257102.974 7      2590.722          49.500
                  21932698.215    89810734.588 8      2018.749          37.500

  20993309.117                   110320592.644 7     -1728.071          48.500
                  20993315.195    85964100.498 8     -1346.551          40.800

 18  7  1  0  6 50.0000000  0 11G01G08G10G11G14G18G20G22G27G31G32
  23575048.047                   123887719.827 5      3262.229          40.000
                  23575055.027    96535887.572 7      2542.005          26.300

  23428286.742                   123116450.184 6     -2032.514          44.800
                  23428293.641    95934891.989 7     -1583.785          29.000

  21957691.555                   115388453.513 7     -1601.832          47.500
                  21957698.375    89913076.178 8     -1248.181          37.300

  23391988.961                   122925730.782 6      1776.628          45.300
                  23391992.500    95786284.021 7      1384.385          30.500

  20073810.711                   105488598.992 6       -53.121          46.800
                  20073813.609    82198914.048 8       -41.391          39.000

  21861762.438                   114884340.291 6      2173.128          47.000
                  21861766.496    89520268.991 8      1693.342          35.800

  23638471.227                   124220987.350 5     -2296.561          40.300
                  23638475.168    96795578.406 6     -1789.532          22.800

  23745503.883                   124783472.726 6      2732.193          43.000
                  23745504.781    97233875.551 7      2128.975          26.500

  23930290.859                   125754500.589 5     -2960.855          40.000
                  23930299.281    97990512.468 6     -2307.144          23.500

  21930229.656                   115244154.900 7      2588.875          49.300
                  21930233.656    89800645.188 8      2017.303          37.800

  20994954.141                   110329237.498 7     -1729.574          48.500
                  20994959.801    85970836.744 9     -1347.714          41.500

 18  7  1  0  6 55.0000000  0 11G01G08G10G11G14G18G20G22G27G31G32
  23571944.047                   123871412.059 5      3261.186          39.500
                  23571951.867    96523180.233 6      2541.171          25.800

  23430221.602                   123126617.843 6     -2034.161          44.500
                  23430228.383    95942814.827 7     -1585.061          31.000

  21959216.656                   115396465.621 6     -1602.757          46.300
                  21959222.598    89919319.371 8     -1248.893          36.800

  23390299.281                   122916854.202 6      1774.505          45.300
                  23390302.883    95779367.200 7      1382.731          30.000

  20073862.891                   105488872.254 6       -55.590          46.500
                  20073865.652    82199126.973 8       -43.313          38.800

  21859696.133                   114873481.015 6      2171.089          46.800
                  21859700.074    89511807.219 8      1691.760          35.500

  23640656.266                   124232472.677 5     -2297.331          40.300
                  23640660.805    96804528.027 6     -1790.138          24.000

  23742904.281                   124769811.914 6      2732.214          43.000
                  23742905.102    97223230.755 7      2129.004          27.300

  23933107.844                   125769304.967 5     -2960.884          40.300
                  23933116.504    98002048.352 7     -2307.170          26.300

  21927767.477                   115231216.081 7      2587.083          49.800
                  21927771.336    89790562.995 8      2015.907          37.000

  20996600.703                   110337889.859 7     -1731.024          48.500
                  20996606.344    85977578.843 8     -1348.848          41.000

 18  7  1  0  7  0.0000000  0 11G01G08G10G11G14G18G20G22G27G31G32
  23568842.445                   123855109.631 5      3260.040          39.800
                  23568849.664    96510477.039 6      2540.299          25.500

  23432158.344                   123136793.959 6     -2035.922          45.000
                  23432165.344    95950744.262 7     -1586.426          30.300

  21960742.156                   115404482.601 6     -1603.813          47.000
                  21960747.855    89925566.372 8     -1249.723          37.500

  23388612.008                   122907988.514 6      1772.232          46.000
                  23388615.887    95772458.865 7      1380.964          30.000

  20073916.891                   105489158.170 6       -58.218          46.800
                  20073919.992    82199349.767 8       -45.367          39.000

  21857631.516                   114862632.029 6      2168.971          46.800
                  21857635.797    89503353.457 8      1690.112          35.300

  23642843.266                   124243961.990 5     -2298.219          40.300
                  23642847.004    96813480.714 6     -1790.824          22.800

  23740304.320                   124756151.386 6      2732.062          43.300
                  23740305.559    97212586.186 6      2128.867          26.000

  23935925.180                   125784109.766 5     -2961.039          40.500
                  23935933.480    98013584.534 6     -2307.291          26.000

  21925307.477                   115218286.513 7      2585.136          49.500
                  21925311.117    89780488.015 8      2014.390          37.500

  20998248.438                   110346549.708 7     -1732.606          48.500
                  20998254.219    85984326.782 8     -1350.083          41.000

 18  7  1  0  7  5.0000000  0 11G01G08G10G11G14G18G20G22G27G31G32
  23565741.422                   123838812.773 5      3258.929          39.800
                  23565748.160    96497778.201 6      2539.423          25.500

  23434096.461                   123146978.522 6     -2037.590          46.000
                  23434103.262    95958680.282 7     -1587.733          30.000

  21962268.336                   115412504.575 7     -1604.817          47.800
                  21962274.555    89931817.249 8     -1250.503          37.300

  23386927.063                   122899133.745 6      1770.051          45.300
                  23386931.141    95765559.047 7      1379.263          30.000

  20073973.828                   105489456.813 7       -60.774          48.000
                  20073977.109    82199582.477 8       -47.363          39.000

  21855568.797                   114851793.413 6      2166.867          46.800
                  21855573.277    89494907.793 8      1688.467          36.000

  23645030.266                   124255455.435 5     -2299.007          40.300
                  23645033.906    96822436.631 6     -1791.426          24.500

  23737704.680                   124742491.229 6      2731.990          43.300
                  23737706.258    97201941.905 7      2128.834          27.500

  23938742.680                   125798915.061 5     -2961.084          41.000
                  23938751.141    98025121.144 6     -2307.342          24.800

  21922848.594                   115205366.346 7      2583.273          50.800
                  21922852.555    89770420.357 8      2012.942          38.000

  20999897.922                   110355217.163 7     -1734.114          49.300
                  20999903.543    85991080.639 9     -1351.256          41.500

 18  7  1  0  7 10.0000000  0 11G01G08G10G11G14G18G20G22G27G31G32
  23562640.961                   123822521.419 5      3257.809          40.300
                  23562648.262    96485083.646 6      2538.551          25.300

  23436035.664                   123157171.591 6     -2039.343          45.500
                  23436042.742    95966622.937 7     -1589.096          30.300

  21963796.133                   115420531.529 7     -1605.797          48.000
                  21963802.133    89938072.016 8     -1251.270          37.300

  23385244.164                   122890289.988 6      1767.849          45.500
                  23385247.945    95758667.811 7      1377.539          29.800

  20074033.391                   105489768.179 7       -63.323          47.300
                  20074036.191    82199825.099 8       -49.345          38.800

  21853508.180                   114840965.354 7      2164.744          47.500
                  21853512.441    89486470.341 8      1686.819          36.000

  23647218.523                   124266952.977 5     -2299.882          40.300
                  23647222.445    96831395.761 6     -1792.128          24.500

  23735105.461                   124728831.442 6      2731.898          43.500
                  23735106.602    97191297.908 7      2128.748          26.800

  23941560.563                   125813720.887 5     -2961.223          41.000
                  23941568.621    98036658.122 6     -2307.444          25.500

  21920392.070                   115192455.564 7      2581.373          50.500
                  21920396.031    89760360.010 8      2011.464          38.000

  21001548.539                   110363892.197 7     -1735.657          49.300
                  21001553.980    85997840.412 8     -1352.458          41.000

 18  7  1  0  7 15.0000000  0 11G01G08G10G11G14G18G20G22G27G31G32
  23559541.664                   123806235.533 5      3256.790          40.300
                  23559548.563    96472393.346 6      2537.760          26.000

  23437977.086                   123167373.112 6     -2040.956          45.800
                  23437983.867    95974572.168 7     -1590.347          30.300

  21965324.758                   115428563.401 7     -1606.743          48.500
                  21965330.879    89944330.618 8     -1252.011          37.300

  23383563.289                   122881457.114 6      1765.729          45.500
                  23383566.770    95751785.051 7      1375.888          30.800

  20074095.125                   105490092.210 6       -65.788          47.000
                  20074097.605    82200077.589 8       -51.261          39.500

  21851449.938                   114830147.685 7      2162.720          48.000
                  21851454.199    89478040.990 8      1685.237          36.000

  23649406.586                   124278454.555 5     -2300.597          39.300
                  23649410.727    96840358.013 6     -1792.661          23.000

  23732506.266                   124715172.010 6      2731.904          43.800
                  23732507.785    97180654.200 7      2128.748          27.500

  23944377.781                   125828527.057 5     -2961.226          41.000
                  23944386.223    98048195.386 6     -2307.444          25.800

  21917936.813                   115179554.124 7      2579.565          51.000
                  21917940.512    89750306.939 8      2010.045          37.500

  21003200.883                   110372574.732 7     -1737.078          50.000
                  21003206.621    86004606.019 9     -1353.563          41.500

 18  7  1  0  7 20.0000000  0 11G01G08G10G11G14G18G20G22G27G31G32
  23556443.641                   123789955.194 5      3255.634          40.300
                  23556450.402    96459707.384 6      2536.849          24.800

  23439919.703                   123177583.129 6     -2042.672          44.800
                  23439926.902    95982528.031 7     -1591.690          30.000

  21966853.992                   115436600.216 7     -1607.765          48.500
                  21966860.031    89950593.067 8     -1252.808          37.300

  23381884.563                   122872635.191 6      1763.503          46.000
                  23381888.582    95744910.832 7      1374.152          30.500

  20074159.328                   105490428.898 6       -68.355          47.000
                  20074162.129    82200339.941 8       -53.266          39.000

  21849393.336                   114819340.610 7      2160.618          47.500
                  21849397.555    89469619.893 8      1683.599          35.800

  23651596.508                   124289960.221 5     -2301.472          40.000
                  23651600.488    96849323.453 6     -1793.342          23.800

  23729907.383                   124701512.943 6      2731.786          43.000
                  23729908.762    97170010.770 7      2128.678          26.800

  23947195.266                   125843333.663 5     -2961.346          39.800
                  23947203.965    98059732.993 6     -2307.539          26.000

  21915483.438                   115166662.064 7      2577.645          51.000
                  21915487.898    89740261.176 8      2008.550          38.300

  21004854.617                   110381264.800 7     -1738.634          50.000
                  21004860.398    86011377.495 9     -1354.777          41.500

 18  7  1  0  7 25.0000000  0 11G01G08G10G11G14G18G20G22G27G31G32
  23553346.906                   123773680.363 5      3254.517          40.800
                  23553353.805    96447025.703 6      2535.983          25.000

  23441864.266                   123187801.514 6     -2044.340          45.000
                  23441870.824    95990490.405 7     -1592.988          31.000

  21968384.336                   115444641.979 7     -1608.758          47.800
                  21968390.117    89956859.369 8     -1253.574          37.000

  23380207.664                   122863824.205 6      1761.333          45.500
                  23380212.164    95738045.118 7      1372.471          30.500

  20074225.609                   105490778.268 7       -70.880          47.500
                  20074228.289    82200612.178 8       -55.225          39.000

  21847338.977                   114808543.895 6      2158.537          47.000
                  21847342.875    89461206.868 8      1681.983          35.800

  23653786.188                   124301469.903 5     -2302.263          39.500
                  23653790.367    96858292.052 6     -1793.969          24.000

  23727308.125                   124687854.226 6      2731.733          43.000
                  23727309.766    97159367.632 6      2128.615          26.000

  23950013.203                   125858140.664 5     -2961.446          40.500
                  23950020.984    98071270.911 6     -2307.623          26.000

  21913032.070                   115153779.368 7      2575.798          50.800
                  21913036.309    89730222.714 8      2007.117          37.800

  21006509.617                   110389962.370 7     -1740.105          50.000
                  21006515.457    86018154.824 9     -1355.924          41.300

 18  7  1  0  7 30.0000000  0 11G01G08G10G11G14G18G20G22G27G31G32
  23550251.266                   123757411.107 5      3253.411          41.300
                  23550258.266    96434348.352 7      2535.127          26.500

  23443810.523                   123198028.304 6     -2046.051          44.500
                  23443816.785    95998459.339 7     -1594.321          29.500

  21969915.414                   115452688.749 7     -1609.762          48.000
                  21969921.535    89963129.580 8     -1254.356          37.500

  23378533.063                   122855024.199 6      1759.107          45.500
                  23378537.441    95731187.976 7      1370.731          31.000

  20074294.406                   105491140.374 7       -73.447          47.500
                  20074297.547    82200894.338 8       -57.229          38.800

  21845286.273                   114797757.722 6      2156.406          47.000
                  21845290.074    89452802.060 8      1680.319          35.800

  23655977.641                   124312983.764 5     -2303.109          39.500
                  23655981.699    96867263.890 6     -1794.630          24.000

  23724708.539                   124674195.942 6      2731.625          43.000
                  23724710.699    97148724.807 6      2128.533          24.300

  23952830.898                   125872948.103 5     -2961.533          40.800
                  23952838.578    98082809.161 6     -2307.682          26.000

  21910582.297                   115140906.173 7      2573.866          50.300
                  21910586.219    89720191.663 8      2005.612          38.300

  21008166.023                   110398667.520 7     -1741.642          50.000
                  21008171.703    86024938.054 9     -1357.122          41.300

 18  7  1  0  7 35.0000000  0 11G01G08G10G11G14G18G20G22G27G31G32
  23547155.945                   123741147.326 5      3252.331          40.000
                  23547163.586    96421675.289 6      2534.286          25.300

  23445758.227                   123208263.340 6     -2047.680          44.500
                  23445764.668    96006434.689 7     -1595.599          30.800

  21971447.672                   115460740.362 7     -1610.708          48.000
                  21971453.691    89969403.564 8     -1255.093          37.000

  23376860.766                   122846235.057 6      1756.948          45.000
                  23376864.785    95724339.301 7      1369.046          30.800

  20074365.648                   105491515.021 6       -75.935          46.800
                  20074368.629    82201186.271 8       -59.172          39.000

  21843235.695                   114786981.967 7      2154.323          47.300
                  21843239.715    89444405.366 8      1678.693          36.300

  23658169.281                   124324501.543 4     -2303.865          39.000
                  23658173.242    96876238.754 6     -1795.208          22.500

  23722109.805                   124660537.958 6      2731.567          42.500
                  23722111.504    97138082.222 6      2128.504          25.000

  23955648.781                   125887755.795 5     -2961.557          41.000
                  23955656.242    98094347.616 6     -2307.711          26.000

  21908134.070                   115128042.285 7      2572.030          50.800
                  21908138.711    89710167.858 8      2004.175          38.000

  21009824.141                   110407380.057 7     -1743.114          50.000
                  21009830.063    86031727.049 9     -1358.276          41.300

 18  7  1  0  7 40.0000000  0 11G01G08G10G11G14G18G20G22G27G31G32
  23544062.422                   123724889.135 5      3251.180          40.800
                  23544069.500    96409006.574 6      2533.391          25.500

  23447707.484                   123218506.891 6     -2049.377          44.300
                  23447713.906    96014416.681 7     -1596.917          30.500

  21972980.477                   115468796.996 7     -1611.733          47.800
                  21972986.816    89975681.461 8     -1255.893          36.800

  23375190.406                   122837456.923 6      1754.725          45.000
                  23375194.785    95717499.198 7      1367.320          30.800

  20074439.445                   105491902.407 7       -78.513          47.500
                  20074442.664    82201488.134 8       -61.179          39.300

  21841187.539                   114776216.778 7      2152.179          47.500
                  21841191.340    89436016.910 8      1677.020          36.800

  23660361.945                   124336023.416 5     -2304.711          39.500
                  23660366.086    96885216.856 6     -1795.854          22.800

  23719510.898                   124646880.420 6      2731.462          42.800
                  23719512.117    97127439.980 7      2128.400          26.500

  23958466.445                   125902563.928 5     -2961.675          41.000
                  23958474.305    98105886.417 6     -2307.788          26.000

  21905688.391                   115115187.880 7      2570.112          50.500
                  21905692.652    89700151.436 8      2002.684          37.500

  21011483.578                   110416100.136 7     -1744.630          50.800
                  21011489.020    86038521.913 9     -1359.448          42.000

 18  7  1  0  7 45.0000000  0 11G01G08G10G11G14G18G20G22G27G31G32
  23540969.867                   123708636.453 5      3250.098          40.500
                  23540976.945    96396342.145 7      2532.556          27.000

  23449658.266                   123228758.703 6     -2051.030          44.800
                  23449664.344    96022405.096 7     -1598.197          30.300

  21974514.656                   115476858.486 7     -1612.697          48.000
                  21974520.996    89981963.137 8     -1256.645          36.300

  23373522.227                   122828689.658 6      1752.552          45.500
                  23373526.508    95710667.569 7      1365.623          29.800

  20074515.688                   105492302.378 7       -80.996          47.500
                  20074518.387    82201799.802 8       -63.116          39.000

  21839141.016                   114765462.024 6      2150.106          47.000
                  21839144.438    89427636.583 8      1675.405          36.000

  23662555.266                   124347549.267 5     -2305.497          39.500
                  23662559.305    96894198.048 6     -1796.497          23.000

  23716911.805                   124633223.164 6      2731.423          42.500
                  23716913.824    97116797.964 6      2128.379          25.300

  23961284.141                   125917372.289 5     -2961.707          40.300
                  23961292.121    98117425.400 6     -2307.825          26.000

  21903243.977                   115102342.831 7      2568.246          50.300
                  21903248.238    89690142.310 8      2001.231          38.000

  21013144.344                   110424827.599 7     -1746.101          49.500
                  21013150.043    86045322.537 9     -1360.600          41.800

 18  7  1  0  7 50.0000000  0 11G01G08G10G11G14G18G20G22G27G31G32
  23537877.805                   123692389.454 5      3248.910          39.800
                  23537885.086    96383682.150 6      2531.622          25.500

  23451610.688                   123239018.902 6     -2052.717          45.300
                  23451617.227    96030400.052 7     -1599.511          29.800

  21976049.734                   115484925.036 7     -1613.732          48.500
                  21976056.094    89988248.758 8     -1257.452          36.500

  23371856.328                   122819933.458 6      1750.326          46.000
                  23371860.008    95703844.556 7      1363.891          31.000

  20074593.969                   105492715.096 6       -83.573          47.000
                  20074597.250    82202121.394 8       -65.124          39.000

  21837096.094                   114754717.884 7      2147.935          47.500
                  21837099.953    89419264.527 8      1673.714          36.000

  23664749.125                   124359079.262 5     -2306.351          40.000
                  23664753.566    96903182.445 6     -1797.171          23.000

  23714313.281                   124619566.354 6      2731.297          43.000
                  23714314.242    97106156.296 6      2128.279          26.000

  23964102.445                   125932181.079 5     -2961.796          39.300
                  23964110.684    98128964.722 6     -2307.911          24.500

  21900801.313                   115089507.304 7      2566.323          50.500
                  21900805.332    89680140.607 8      1999.726          38.000

  21014806.844                   110433562.640 7     -1747.644          50.500
                  21014811.945    86052129.060 9     -1361.798          42.000

 18  7  1  0  7 55.0000000  0 11G01G08G10G11G14G18G20G22G27G31G32
  23534787.102                   123676147.966 5      3247.830          40.500
                  23534794.523    96371026.457 7      2530.789          26.800

  23453564.688                   123249287.271 6     -2054.359          45.000
                  23453571.207    96038401.386 7     -1600.803          30.800

  21977585.813                   115492996.458 7     -1614.686          48.300
                  21977592.051    89994538.172 8     -1258.197          36.800

  23370191.242                   122811188.159 6      1748.172          46.000
                  23370196.023    95697030.035 7      1362.216          31.000

  20074674.984                   105493140.344 6       -86.056          47.000
                  20074677.984    82202452.754 8       -67.057          39.500

  21835053.578                   114743984.111 7      2145.902          48.000
                  21835057.418    89410900.547 8      1672.127          36.500

  23666944.906                   124370613.224 5     -2307.131          40.000
                  23666948.527    96912169.938 6     -1797.754          22.000

  23711714.523                   124605909.867 6      2731.276          43.300
                  23711715.723    97095514.887 7      2128.265          27.000

  23966920.063                   125946990.116 5     -2961.880          39.800
                  23966928.363    98140504.201 6     -2307.950          24.500

  21898360.758                   115076681.171 7      2564.447          50.300
                  21898364.637    89670146.225 8      1998.268          38.500

  21016470.359                   110442305.033 7     -1749.089          50.800
                  21016475.758    86058941.314 9     -1362.926          41.300

 18  7  1  0  8  0.0000000  0 11G01G08G10G11G14G18G20G22G27G31G32
  23531697.547                   123659912.135 5      3246.719          41.000
                  23531705.328    96358375.154 7      2529.925          27.500

  23455520.523                   123259564.047 6     -2055.983          45.300
                  23455526.625    96046409.237 7     -1602.054          30.500

  21979122.555                   115501072.856 7     -1615.645          47.800
                  21979128.516    90000831.463 8     -1258.944          36.500

  23368529.523                   122802453.909 6      1745.991          46.500
                  23368533.805    95690224.126 7      1360.525          31.500

  20074758.367                   105493578.261 6       -88.566          47.000
                  20074761.207    82202793.995 8       -69.020          39.300

  21833013.117                   114733260.935 7      2143.813          47.500
                  21833017.059    89402544.823 8      1670.497          36.000

  23669139.945                   124382151.277 5     -2307.906          40.800
                  23669144.367    96921160.625 6     -1798.383          23.000

  23709115.805                   124592253.772 6      2731.205          42.800
                  23709117.266    97084873.765 7      2128.205          26.800

  23969738.180                   125961799.426 5     -2961.872          39.800
                  23969746.758    98152043.903 7     -2307.954          26.500

  21895921.813                   115063864.578 7      2562.581          50.500
                  21895925.734    89660159.274 8      1996.810          37.800

  21018135.422                   110451054.916 7     -1750.555          51.300
                  21018140.660    86065759.406 9     -1364.067          41.300

 18  7  1  0  8  5.0000000  0 11G01G08G10G11G14G18G20G22G27G31G32
  23528609.727                   123643681.897 5      3245.573          41.500
                  23528616.426    96345728.230 7      2529.006          26.300

  23457477.766                   123269849.165 6     -2057.651          45.500
                  23457483.664    96054423.622 7     -1603.365          30.000

  21980660.531                   115509154.208 7     -1616.646          48.300
                  21980667.090    90007128.614 8     -1259.720          37.000

  23366869.945                   122793730.650 6      1743.797          46.000
                  23366873.844    95683426.786 7      1358.811          31.300

  20074844.047                   105494028.770 6       -91.096          47.000
                  20074847.008    82203145.032 8       -70.982          39.300

  21830974.914                   114722548.338 7      2141.685          48.500
                  21830978.113    89394197.339 8      1668.847          36.000

  23671336.086                   124393693.374 5     -2308.713          41.000
                  23671340.066    96930154.460 6     -1799.001          23.300

  23706517.023                   124578598.013 6      2731.142          43.000
                  23706518.824    97074232.933 7      2128.160          26.500

  23972556.484                   125976609.035 4     -2961.925          39.000
                  23972565.344    98163583.846 6     -2307.991          24.800

  21893484.531                   115051057.455 7      2560.679          50.300
                  21893488.813    89650179.696 8      1995.334          38.000

  21019801.844                   110459812.220 7     -1752.050          50.800
                  21019807.184    86072583.283 8     -1365.238          41.000

 18  7  1  0  8 10.0000000  0 11G01G08G10G11G14G18G20G22G27G31G32
  23525522.063                   123627457.277 5      3244.435          41.800
                  23525529.043    96333085.661 7      2528.137          27.000

  23459436.844                   123280142.661 6     -2059.391          45.500
                  23459442.145    96062444.531 7     -1604.714          30.500

  21982199.477                   115517240.538 7     -1617.689          47.800
                  21982205.277    90013429.654 8     -1260.537          37.000

  23365212.148                   122785018.411 6      1741.542          45.800
                  23365215.910    95676638.032 7      1357.046          30.800

  20074932.469                   105494491.923 6       -93.668          47.000
                  20074935.309    82203505.930 8       -72.984          38.800

  21828938.438                   114711846.290 7      2139.477          48.000
                  21828941.656    89385858.083 8      1667.127          36.500

  23673533.383                   124405239.575 5     -2309.599          41.000
                  23673537.762    96939151.492 6     -1799.681          23.800

  23703918.484                   124564942.588 6      2731.023          43.000
                  23703919.926    97063592.331 7      2128.068          26.500

  23975374.461                   125991418.960 5     -2962.017          39.500
                  23975383.359    98175124.045 6     -2308.065          25.300

  21891049.234                   115038259.820 7      2558.740          50.500
                  21891053.293    89640207.508 8      1993.829          38.000

  21021469.680                   110468576.978 7     -1753.582          51.000
                  21021475.160    86079412.960 9     -1366.425          41.500

 18  7  1  0  8 15.0000000  0 11G01G08G10G11G14G18G20G22G27G31G32
  23522435.445                   123611238.320 5      3243.319          41.500
                  23522442.324    96320447.526 7      2527.255          26.800

  23461396.383                   123290444.369 6     -2061.020          44.500
                  23461402.621    96070471.843 7     -1605.989          31.300

  21983739.016                   115525331.816 7     -1618.659          48.000
                  21983744.957    90019734.542 8     -1261.297          36.500

  23363556.242                   122776317.183 6      1739.359          46.500
                  23363559.902    95669857.859 7      1355.345          30.000

  20075022.727                   105494967.666 6       -96.162          47.000
                  20075026.086    82203876.636 8       -74.925          39.000

  21826903.492                   114701154.752 7      2137.457          48.000
                  21826907.414    89377527.008 8      1665.555          36.300

  23675731.766                   124416789.814 5     -2310.376          41.800
                  23675735.965    96948151.654 6     -1800.299          23.500

  23701320.383                   124551287.560 6      2730.955          43.300
                  23701321.621    97052952.062 6      2128.017          26.000

  23978192.625                   126006229.087 5     -2962.059          40.000
                  23978200.984    98186664.410 6     -2308.091          25.300

  21888615.836                   115025471.704 7      2556.856          50.500
                  21888619.715    89630242.737 8      1992.357          37.800

  21023138.844                   110477349.133 7     -1755.037          50.800
                  21023144.504    86086248.403 9     -1367.562          41.300

 18  7  1  0  8 20.0000000  0 11G01G08G10G11G14G18G20G22G27G31G32
  23519350.063                   123595024.943 5      3242.231          41.500
                  23519357.043    96307813.726 7      2526.416          26.800

  23463358.523                   123300754.237 6     -2062.644          44.500
                  23463365.043    96078505.489 7     -1607.255          30.000

  21985279.414                   115533427.981 7     -1619.639          47.800
                  21985286.035    90026043.236 8     -1262.056          36.800

  23361902.883                   122767626.874 6      1737.168          46.500
                  23361906.223    95663086.189 7      1353.629          31.000

  20075115.852                   105495455.975 6       -98.658          46.000
                  20075118.793    82204257.144 8       -76.880          39.000

  21824870.992                   114690473.785 7      2135.339          47.500
                  21824874.813    89369204.170 8      1663.911          35.800

  23677930.664                   124428344.061 5     -2311.175          41.000
                  23677935.004    96957154.969 6     -1800.932          24.800

  23698722.203                   124537632.899 6      2730.908          43.000
                  23698722.484    97042312.048 6      2127.984          25.300

  23981010.984                   126021039.438 5     -2962.119          40.500
                  23981019.504    98198204.931 6     -2308.136          24.300

  21886183.977                   115012693.043 7      2554.964          50.500
                  21886187.875    89620285.344 8      1990.875          37.500

  21024809.398                   110486128.639 7     -1756.506          50.300
                  21024815.199    86093089.571 8     -1368.704          41.000

 18  7  1  0  8 25.0000000  0 11G01G08G10G11G14G18G20G22G27G31G32
  23516266.445                   123578817.226 5      3241.088          41.500
                  23516272.766    96295184.336 7      2525.515          26.500

  23465321.227                   123311072.375 6     -2064.278          43.300
                  23465328.828    96086545.595 7     -1608.528          30.000

  21986821.031                   115541529.096 7     -1620.624          48.000
                  21986827.551    90032355.796 8     -1262.822          36.800

  23360251.008                   122758947.604 6      1734.971          46.500
                  23360254.828    95656323.116 7      1351.923          32.000

  20075210.672                   105495956.775 6      -101.157          46.000
                  20075213.633    82204647.371 8       -78.821          39.800

  21822840.734                   114679803.385 7      2133.229          48.300
                  21822843.914    89360889.575 8      1662.256          35.800

  23680128.867                   124439902.356 5     -2311.977          41.000
                  23680134.469    96966161.406 6     -1801.544          22.300

  23696123.523                   124523978.628 6      2730.821          42.800
                  23696124.184    97031672.364 6      2127.908          26.000

  23983828.977                   126035849.909 5     -2962.101          39.300
                  23983837.918    98209745.554 6     -2308.122          25.000

  21883754.094                   114999923.911 7      2553.067          50.800
                  21883758.152    89610335.375 8      1989.401          37.800

  21026481.641                   110494915.531 7     -1757.970          50.500
                  21026487.281    86099936.502 9     -1369.842          41.500

 18  7  1  0  8 30.0000000  0 11G01G08G10G11G14G18G20G22G27G31G32
  23513182.227                   123562615.192 5      3239.945          41.300
                  23513189.367    96282559.375 7      2524.643          27.000

  23467286.922                   123321398.751 6     -2065.923          44.000
                  23467293.762    96094592.114 7     -1609.806          30.000

  21988363.852                   115549635.152 7     -1621.601          48.300
                  21988369.891    90038672.192 8     -1263.581          37.300

  23358602.047                   122750279.350 6      1732.766          46.500
                  23358605.105    95649568.625 7      1350.212          30.800

  20075308.688                   105496470.202 6      -103.690          46.800
                  20075311.707    82205047.445 8       -80.797          38.800

  21820812.117                   114669143.609 7      2131.090          48.000
                  21820815.957    89352583.256 8      1660.590          36.300

  23682329.102                   124451464.685 5     -2312.812          40.500
                  23682334.363    96975171.009 6     -1802.195          22.300

  23693525.039                   124510324.789 6      2730.735          42.800
                  23693526.598    97021033.012 6      2127.839          24.500

  23986647.883                   126050660.636 4     -2962.166          39.000
                  23986656.121    98221286.369 7     -2308.171          26.300

  21881326.297                   114987164.340 7      2551.138          50.500
                  21881329.438    89600392.853 8      1987.902          37.800

  21028155.281                   110503709.815 7     -1759.446          50.500
                  21028161.020    86106789.184 8     -1370.989          40.800

 18  7  1  0  8 35.0000000  0 11G01G08G10G11G14G18G20G22G27G31G32
  23510100.461                   123546418.889 5      3238.799          41.500
                  23510107.301    96269938.891 6      2523.733          26.000

  23469253.008                   123331733.307 6     -2067.586          44.500
                  23469260.227    96102645.008 7     -1611.106          29.800

  21989907.773                   115557746.251 7     -1622.626          48.300
                  21989913.672    90044992.528 8     -1264.380          37.000

  23356954.203                   122741622.139 6      1730.552          46.000
                  23356957.504    95642822.745 7      1348.490          31.000

  20075409.086                   105496996.299 6      -106.231          47.000
                  20075411.805    82205457.393 8       -82.781          39.300

  21818785.273                   114658494.513 7      2128.951          47.300
                  21818789.492    89344285.255 8      1658.927          36.000

  23684530.266                   124463031.120 5     -2313.626          39.500
                  23684535.086    96984183.812 6     -1802.805          22.800

  23690926.422                   124496671.435 6      2730.608          42.500
                  23690928.621    97010394.042 7      2127.741          26.500

  23989466.297                   126065471.606 5     -2962.229          39.300
                  23989474.578    98232827.391 6     -2308.235          25.500

  21878900.078                   114974414.405 7      2549.210          51.500
                  21878903.738    89590457.842 8      1986.397          38.300

  21029829.820                   110512511.521 7     -1760.933          50.500
                  21029835.980    86113647.657 8     -1372.154          41.000

 18  7  1  0  8 40.0000000  0 11G01G08G10G11G14G18G20G22G27G31G32
  23507020.188                   123530228.293 5      3237.677          42.000
                  23507026.207    96257322.838 7      2522.863          27.800

  23471221.422                   123342076.060 6     -2069.204          44.300
                  23471228.363    96110704.288 7     -1612.363          30.500

  21991451.391                   115565862.294 6     -1623.593          47.000
                  21991458.129    90051316.712 8     -1265.142          37.000

  23355308.406                   122732975.984 6      1728.373          46.000
                  23355311.984    95636085.488 7      1346.784          31.300

  20075510.930                   105497534.969 7      -108.719          47.300
                  20075514.191    82205877.137 8       -84.716          39.500

  21816760.938                   114647855.970 6      2126.894          47.000
                  21816764.879    89335995.483 8      1657.318          35.800

  23686731.844                   124474601.600 5     -2314.389          39.500
                  23686736.402    96993199.786 6     -1803.422          22.000

  23688328.961                   124483018.459 5      2730.582          41.500
                  23688330.883    96999755.360 6      2127.720          24.000

  23992285.461                   126080282.734 4     -2962.208          38.800
                  23992293.063    98244368.518 7     -2308.210          26.500

  21876475.555                   114961674.021 7      2547.331          51.500
                  21876479.316    89580530.262 8      1984.938          38.800

  21031506.344                   110521320.582 7     -1762.376          50.300
                  21031512.063    86120511.860 9     -1373.276          42.000

 18  7  1  0  8 45.0000000  0 11G01G08G10G11G14G18G20G22G27G31G32
  23503939.945                   123514043.393 5      3236.550          42.000
                  23503946.645    96244711.240 7      2521.977          28.300

  23473191.102                   123352427.040 6     -2070.802          44.000
                  23473198.461    96118769.991 7     -1613.612          30.000

  21992996.672                   115573983.278 7     -1624.555          47.500
                  21993003.031    90057644.744 8     -1265.887          37.000

  23353665.047                   122724340.881 6      1726.166          46.000
                  23353669.086    95629356.834 7      1345.065          31.500

  20075616.008                   105498086.230 6      -111.223          47.000
                  20075619.008    82206306.690 8       -86.667          39.000

  21814738.477                   114637228.086 7      2124.766          47.300
                  21814742.516    89327714.012 8      1655.658          36.000

  23688934.703                   124486176.144 5     -2315.229          39.300
                  23688938.883    97002218.899 6     -1804.069          22.800

  23685730.219                   124469365.853 5      2730.543          41.800
                  23685732.320    96989116.949 6      2127.685          26.000

  23995103.242                   126095094.005 4     -2962.216          39.000
                  23995111.344    98255909.761 7     -2308.229          26.500

  21874052.695                   114948943.204 7      2545.418          50.500
                  21874057.074    89570610.147 8      1983.441          38.500

  21033183.922                   110530136.981 7     -1763.832          50.500
                  21033189.922    86127381.785 8     -1374.412          41.000

 18  7  1  0  8 50.0000000  0 11G01G08G10G11G14G18G20G22G27G31G32
  23500861.227                   123497864.227 5      3235.402          41.800
                  23500867.707    96232104.083 7      2521.092          27.300

  23475162.766                   123362786.304 6     -2072.460          44.000
                  23475169.805    96126842.130 7     -1614.902          30.000

  21994543.172                   115582109.255 6     -1625.574          47.000
                  21994549.633    90063976.668 8     -1266.681          36.500

  23352024.484                   122715716.821 6      1723.943          46.000
                  23352027.586    95622636.797 7      1343.324          30.800

  20075723.547                   105498650.091 6      -113.743          47.000
                  20075726.605    82206746.057 8       -88.629          39.000

  21812717.953                   114626610.868 7      2122.640          47.500
                  21812722.273    89319440.854 8      1654.003          35.500

  23691138.000                   124497754.695 5     -2315.978          39.500
                  23691142.699    97011241.145 6     -1804.665          22.500

  23683133.242                   124455713.699 6      2730.403          42.800
                  23683134.141    96978478.913 6      2127.583          25.500

  23997922.523                   126109905.451 5     -2962.277          39.500
                  23997930.203    98267451.142 6     -2308.270          26.000

  21871632.094                   114936221.964 7      2543.516          50.500
                  21871636.172    89560697.500 8      1981.958          38.300

  21034863.203                   110538960.758 7     -1765.308          50.800
                  21034868.703    86134257.460 9     -1375.567          41.300

 18  7  1  0  8 55.0000000  0 11G01G08G10G11G14G18G20G22G27G31G32
  23497783.320                   123481690.825 6      3234.185          42.500
                  23497789.742    96219501.449 7      2520.136          26.300

  23477135.766                   123373153.567 6     -2074.131          44.000
                  23477142.945    96134920.517 7     -1616.204          30.000

  21996090.352                   115590240.169 6     -1626.617          47.000
                  21996096.672    90070312.443 8     -1267.490          37.000

  23350385.328                   122707103.821 6      1721.694          46.500
                  23350388.387    95615925.354 7      1341.576          31.000

  20075832.688                   105499226.536 7      -116.320          47.500
                  20075835.867    82207195.233 8       -90.637          39.500

  21810699.555                   114616004.236 6      2120.441          47.000
                  21810703.754    89311175.956 8      1652.286          35.800

  23693342.039                   124509337.353 5     -2316.866          40.500
                  23693346.777    97020266.580 6     -1805.342          24.500

  23680535.164                   124442061.926 5      2730.291          42.000
                  23680536.383    96967841.174 6      2127.501          26.000

  24000740.203                   126124717.047 5     -2962.361          40.500
                  24000749.563    98278992.618 7     -2308.319          26.500

  21869213.039                   114923510.330 7      2541.538          50.800
                  21869217.320    89550792.341 8      1980.417          37.800

  21036543.500                   110547791.887 7     -1766.851          50.500
                  21036549.961    86141138.857 9     -1376.769          41.300

 18  7  1  0  9  0.0000000  0 11G01G08G10G11G14G18G20G22G27G31G32
  23494707.203                   123465523.217 5      3233.021          42.000
                  23494713.363    96206903.313 7      2519.231          28.000

  23479109.602                   123383529.041 6     -2075.802          43.000
                  23479117.262    96143005.302 7     -1617.510          30.500

  21997638.477                   115598376.152 7     -1627.658          47.300
                  21997644.875    90076652.168 8     -1268.305          36.800

  23348748.648                   122698501.969 6      1719.424          46.500
                  23348751.809    95609222.620 7      1339.807          30.500

  20075945.672                   105499815.594 6      -118.874          47.000
                  20075948.531    82207654.242 8       -92.629          39.300

  21808683.094                   114605408.416 6      2118.237          47.000
                  21808687.855    89302919.471 8      1650.570          36.800

  23695548.164                   124520924.104 5     -2317.747          40.800
                  23695551.926    97029295.222 6     -1806.032          24.500

  23677936.961                   124428410.673 5      2730.170          41.800
                  23677938.961    96957203.831 6      2127.423          25.500

  24003559.000                   126139528.785 5     -2962.418          40.500
                  24003567.840    98290534.220 7     -2308.372          27.300

  21866796.273                   114910808.333 7      2539.577          51.300
                  21866800.273    89540894.684 8      1978.889          38.800

  21038225.500                   110556630.402 7     -1768.356          50.500
                  21038231.219    86148026.006 9     -1377.938          41.300

 18  7  1  0  9  5.0000000  0 11G01G08G10G11G14G18G20G22G27G31G32
  23491631.945                   123449361.245 6      3231.905          42.500
                  23491638.086    96194309.558 7      2518.377          26.800

  23481085.547                   123393912.586 6     -2077.392          42.500
                  23481093.746    96151096.388 7     -1618.757          29.500

  21999188.031                   115606516.938 7     -1628.588          47.500
                  21999194.211    90082995.639 8     -1269.038          36.500

  23347113.523                   122689911.029 6      1717.259          46.300
                  23347116.883    95602528.373 7      1338.128          30.800

  20076059.367                   105500417.052 6      -121.336          46.300
                  20076062.668    82208122.908 8       -94.544          39.800

  21806669.078                   114594823.111 6      2116.163          46.500
                  21806673.898    89294671.180 8      1648.961          36.000

  23697752.523                   124532514.763 5     -2318.469          40.500
                  23697757.184    97038326.895 6     -1806.605          24.500

  23675339.461                   124414759.681 5      2730.122          41.500
                  23675341.742    96946566.710 7      2127.378          26.500

  24006377.656                   126154340.525 5     -2962.403          40.300
                  24006386.598    98302075.844 7     -2308.380          27.300

  21864380.734                   114898115.844 7      2537.693          51.000
                  21864384.215    89531004.428 8      1977.423          38.000

  21039908.961                   110565476.104 7     -1769.754          50.300
                  21039914.680    86154918.760 8     -1379.025          40.800

 18  7  1  0  9 10.0000000  0 11G01G08G10G11G14G18G20G22G27G31G32
  23488556.742                   123433205.104 5      3230.767          42.000
                  23488563.863    96181720.374 7      2517.479          28.000

  23483062.906                   123404304.288 6     -2078.997          42.300
                  23483070.785    96159193.806 7     -1619.998          28.800

  22000737.914                   115614662.787 6     -1629.576          46.000
                  22000744.313    90089343.050 8     -1269.797          37.000

  23345481.008                   122681331.211 6      1715.070          46.800
                  23345484.566    95595842.805 7      1336.427          31.300

  20076176.750                   105501031.113 6      -123.830          47.000
                  20076180.109    82208601.403 8       -96.491          39.000

  21804656.898                   114584248.550 6      2114.069          47.000
                  21804661.238    89286431.266 8      1647.327          36.500

  23699959.625                   124544109.541 5     -2319.299          40.800
                  23699963.727    97047361.788 6     -1807.236          24.800

  23672741.281                   124401109.203 5      2730.054          41.500
                  23672744.141    96935929.991 7      2127.294          27.000

  24009195.883                   126169152.415 5     -2962.392          40.000
                  24009204.762    98313617.559 7     -2308.358          26.300

  21861966.977                   114885433.055 7      2535.778          50.500
                  21861970.715    89521121.735 8      1975.929          38.300

  21041593.422                   110574329.178 7     -1771.202          49.300
                  21041599.160    86161817.255 9     -1380.157          41.800

 18  7  1  0  9 15.0000000  0 11G01G08G10G11G14G18G20G22G27G31G32
  23485483.063                   123417054.735 5      3229.614          41.800
                  23485490.824    96169135.671 7      2516.580          28.500

  23485042.547                   123414704.103 6     -2080.618          42.500
                  23485049.508    96167297.547 7     -1621.263          30.000

  22002288.992                   115622813.557 6     -1630.551          46.500
                  22002295.391    90095694.293 8     -1270.553          37.000

  23343850.289                   122672762.453 6      1712.871          46.000
                  23343853.910    95589165.859 7      1334.701          31.800

  20076296.008                   105501657.705 7      -126.318          47.500
                  20076298.449    82209089.653 8       -98.430          39.800

  21802646.156                   114573684.673 7      2111.896          47.500
                  21802650.695    89278199.674 8      1645.634          36.000

  23702166.742                   124555708.377 5     -2320.093          41.000
                  23702170.523    97056399.821 6     -1807.871          24.000

  23670144.227                   124387459.146 5      2729.973          41.800
                  23670146.648    96925293.570 7      2127.261          27.000

  24012015.242                   126183964.348 5     -2962.387          40.300
                  24012023.121    98325159.301 6     -2308.335          25.500

  21859555.555                   114872759.896 7      2533.865          49.800
                  21859559.094    89511246.553 8      1974.442          37.500

  21043279.359                   110583189.562 7     -1772.673          50.000
                  21043285.480    86168721.445 9     -1381.298          41.300

 18  7  1  0  9 20.0000000  0 11G01G08G10G11G14G18G20G22G27G31G32
  23482411.508                   123400910.339 6      3228.402          42.500
                  23482418.469    96156555.626 7      2515.638          27.300

  23487022.508                   123425112.094 6     -2082.258          43.000
                  23487029.609    96175407.675 7     -1622.535          29.800

  22003841.273                   115630969.472 7     -1631.589          47.300
                  22003847.215    90102049.548 8     -1271.364          37.000

  23342222.086                   122664204.943 6      1710.606          46.500
                  23342225.305    95582497.669 7      1332.938          30.800

  20076417.586                   105502296.983 7      -128.864          47.500
                  20076420.527    82209587.793 8      -100.413          39.000

  21800638.633                   114563131.655 7      2109.747          47.500
                  21800642.973    89269976.551 8      1643.957          36.500

  23704374.719                   124567311.393 5     -2320.944          40.800
                  23704378.340    97065441.150 6     -1808.524          21.500

  23667547.086                   124373809.665 5      2729.844          42.000
                  23667549.125    96914657.621 7      2127.157          27.300

  24014833.758                   126198776.498 5     -2962.450          40.500
                  24014842.098    98336701.231 7     -2308.388          26.300

  21857145.938                   114860096.498 7      2531.895          50.300
                  21857149.598    89501378.978 8      1972.913          37.500

  21044966.820                   110592057.369 7     -1774.153          49.800
                  21044972.699    86175631.426 9     -1382.454          41.800

 18  7  1  0  9 25.0000000  0 11G01G08G10G11G14G18G20G22G27G31G32
  23479340.203                   123384771.557 5      3227.325          41.800
                  23479346.922    96143979.944 7      2514.792          28.500

  23489005.102                   123435528.024 6     -2083.819          43.300
                  23489012.301    96183523.984 7     -1623.753          29.800

  22005394.297                   115639130.213 7     -1632.519          47.300
                  22005400.398    90108408.565 8     -1272.086          36.500

  23340595.469                   122655658.353 6      1708.459          46.500
                  23340599.027    95575837.989 7      1331.271          31.000

  20076541.805                   105502948.628 7      -131.313          47.500
                  20076544.004    82210095.569 8      -102.322          39.800

  21798632.336                   114552589.174 6      2107.640          47.000
                  21798636.676    89261761.635 8      1642.311          36.500

  23706583.625                   124578918.326 5     -2321.696          40.800
                  23706587.086    97074485.488 6     -1809.122          22.500

  23664950.383                   124360160.464 5      2729.823          41.500
                  23664951.543    96904021.874 7      2127.141          26.300

  24017652.680                   126213588.562 5     -2962.392          41.300
                  24017660.039    98348243.080 6     -2308.358          25.800

  21854738.195                   114847442.669 7      2530.008          50.500
                  21854742.137    89491518.856 8      1971.437          37.800

  21046655.883                   110600932.317 7     -1775.563          49.800
                  21046661.781    86182546.962 9     -1383.552          41.500

 18  7  1  0  9 30.0000000  0 11G01G08G10G11G14G18G20G22G27G31G32
  23476269.906                   123368638.743 6      3226.124          42.500
                  23476276.867    96131408.932 7      2513.859          27.500

  23490988.742                   123445952.115 6     -2085.448          43.000
                  23490995.801    96191646.654 7     -1625.016          29.800

  22006947.977                   115647296.042 7     -1633.570          47.500
                  22006954.336    90114771.546 8     -1272.909          36.800

  23338971.445                   122647123.004 6      1706.189          46.500
                  23338975.266    95569187.069 7      1329.500          31.800

  20076667.789                   105503612.896 7      -133.843          47.500
                  20076670.848    82210613.184 8      -104.291          39.800

  21796628.078                   114542057.526 7      2105.464          47.300
                  21796632.738    89253555.152 8      1640.621          36.500

  23708793.445                   124590529.419 5     -2322.529          41.500
                  23708796.445    97083533.084 6     -1809.781          23.000

  23662352.320                   124346511.865 5      2729.686          42.000
                  23662354.742    96893386.608 7      2127.024          27.500

  24020471.578                   126228400.770 5     -2962.437          42.000
                  24020478.637    98359785.058 6     -2308.390          24.500

  21852331.875                   114834798.665 7      2528.024          50.300
                  21852336.234    89481666.381 8      1969.893          38.500

  21048346.320                   110609814.646 7     -1777.045          50.500
                  21048351.781    86189468.259 9     -1384.715          42.000

 18  7  1  0  9 35.0000000  0 11G01G08G10G11G14G18G20G22G27G31G32
  23473201.688                   123352511.672 6      3224.947          42.500
                  23473207.766    96118842.385 7      2512.948          28.500

  23492973.945                   123456384.141 6     -2087.045          43.500
                  23492981.344    96199775.493 7     -1626.263          29.300

  22008502.773                   115655466.723 6     -1634.542          47.000
                  22008508.734    90121138.309 8     -1273.669          37.300

  23337349.125                   122638598.595 6      1703.990          46.300
                  23337353.066    95562544.671 7      1327.780          31.000

  20076796.609                   105504289.595 7      -136.342          47.500
                  20076799.609    82211140.484 8      -106.245          39.800

  21794625.633                   114531536.498 7      2103.333          47.500
                  21794630.352    89245356.952 8      1638.957          36.300

  23711003.219                   124602144.442 5     -2323.333          41.000
                  23711006.840    97092583.727 6     -1810.385          23.300

  23659755.461                   124332863.550 5      2729.644          41.800
                  23659757.883    96882751.559 7      2127.006          28.800

  24023290.320                   126243212.868 5     -2962.429          41.300
                  24023297.398    98371326.949 7     -2308.378          26.300

  21849927.195                   114822164.209 7      2526.119          50.800
                  21849931.836    89471821.363 8      1968.403          38.500

  21050037.938                   110618704.145 7     -1778.488          51.000
                  21050043.496    86196395.140 9     -1385.835          41.300

 18  7  1  0  9 40.0000000  0 11G01G08G10G11G14G18G20G22G27G31G32
  23470133.766                   123336390.558 6      3223.751          43.000
                  23470140.707    96106280.478 7      2512.018          29.000

  23494960.188                   123466824.288 6     -2088.648          43.500
                  23494967.867    96207910.671 7     -1627.508          28.800

  22010058.695                   115663642.510 7     -1635.567          47.800
                  22010064.754    90127509.046 8     -1274.464          36.000

  23335729.508                   122630085.430 6      1701.730          46.500
                  23335733.148    95555911.038 7      1326.024          31.800

  20076927.984                   105504978.914 7      -138.867          48.000
                  20076930.684    82211677.616 8      -108.206          39.500

  21792625.680                   114521026.312 6      2101.189          47.000
                  21792630.258    89237167.197 8      1637.288          36.000

  23713214.344                   124613763.610 5     -2324.171          41.300
                  23713218.145    97101637.628 6     -1811.054          23.800

  23657158.125                   124319215.816 5      2729.526          41.500
                  23657161.066    96872116.969 7      2126.901          27.000

  24026107.797                   126258025.071 5     -2962.448          41.300
                  24026116.598    98382868.937 7     -2308.415          27.000

  21847525.016                   114809539.583 7      2524.151          50.500
                  21847528.977    89461983.986 8      1966.871          38.300

  21051730.758                   110627601.002 7     -1779.959          50.800
                  21051736.656    86203327.757 9     -1386.983          41.300

 18  7  1  0  9 45.0000000  0 11G01G08G10G11G14G18G20G22G27G31G32
  23467066.766                   123320275.261 5      3222.622          42.000
                  23467073.906    96093723.100 7      2511.134          28.800

  23496948.844                   123477272.444 6     -2090.248          43.500
                  23496955.922    96216052.073 7     -1628.755          28.800

  22011615.391                   115671823.260 7     -1636.523          48.300
                  22011621.430    90133883.656 8     -1275.215          36.300

  23334111.227                   122621583.353 6      1699.549          47.000
                  23334115.348    95549286.049 7      1324.318          31.500

  20077061.445                   105505680.726 7      -141.329          47.800
                  20077064.445    82212224.485 8      -110.126          39.800

  21790628.195                   114510526.877 7      2099.056          47.800
                  21790632.637    89228985.823 8      1635.630          36.300

  23715425.766                   124625386.857 5     -2324.959          41.300
                  23715430.004    97110694.684 6     -1811.646          24.000

  23654561.367                   124305568.481 5      2729.465          41.800
                  23654564.508    96861482.687 7      2126.860          27.500

  24028927.422                   126272837.290 5     -2962.405          41.300
                  24028934.980    98394410.905 6     -2308.352          24.800

  21845124.477                   114796924.663 7      2522.241          50.500
                  21845128.238    89452154.178 8      1965.385          37.800

  21053425.281                   110636505.081 7     -1781.362          50.500
                  21053431.223    86210266.003 9     -1388.079          41.300

 18  7  1  0  9 50.0000000  0 11G01G08G10G11G14G18G20G22G27G31G32
  23464001.602                   123304165.892 6      3221.416          42.500
                  23464008.781    96081170.349 7      2510.200          28.000

  23498938.008                   123487728.590 6     -2091.822          43.000
                  23498945.668    96224199.727 7     -1629.983          28.500

  22013173.414                   115680009.008 7     -1637.506          48.300
                  22013179.113    90140262.159 8     -1275.979          37.000

  23332495.727                   122613092.432 6      1697.321          46.800
                  23332499.305    95542669.743 7      1322.586          32.000

  20077197.727                   105506395.077 7      -143.851          47.300
                  20077200.246    82212781.122 8      -112.090          39.500

  21788632.578                   114500038.341 6      2096.883          47.000
                  21788636.816    89220812.940 8      1633.939          36.800

  23717638.320                   124637014.170 5     -2325.774          40.800
                  23717642.680    97119754.911 6     -1812.275          24.000

  23651964.367                   124291921.645 5      2729.374          42.000
                  23651967.445    96850848.799 7      2126.795          28.000

  24031745.820                   126287649.490 5     -2962.413          41.500
                  24031754.340    98405952.878 6     -2308.370          26.000

  21842726.078                   114784319.480 7      2520.283          50.800
                  21842729.316    89442331.961 8      1963.857          38.000

  21055121.102                   110645416.431 7     -1782.813          50.500
                  21055126.680    86217209.904 9     -1389.201          41.300

 18  7  1  0  9 55.0000000  0 11G01G08G10G11G14G18G20G22G27G31G32
  23460937.367                   123288062.341 6      3220.239          43.000
                  23460944.027    96068622.131 7      2509.266          28.500

  23500929.586                   123498192.564 6     -2093.443          42.500
                  23500936.664    96232353.457 7     -1631.246          28.800

  22014732.414                   115688199.688 7     -1638.541          48.500
                  22014737.574    90146644.507 8     -1276.785          37.000

  23330882.609                   122604612.591 7      1695.096          47.500
                  23330886.148    95536062.077 7      1320.854          32.500

  20077335.211                   105507121.838 7      -146.340          47.500
                  20077338.473    82213347.433 8      -114.029          39.300

  21786638.633                   114489560.394 7      2094.736          48.000
                  21786642.813    89212648.304 8      1632.264          37.000

  23719851.320                   124648645.497 5     -2326.601          40.300
                  23719856.000    97128818.293 6     -1812.932          22.000

  23649367.484                   124278275.219 5      2729.266          42.000
                  23649369.984    96840215.226 7      2126.705          27.000

  24034564.383                   126302461.580 5     -2962.411          40.800
                  24034572.645    98417494.762 6     -2308.362          25.500

  21840329.078                   114771723.995 7      2518.323          50.500
                  21840332.898    89432517.298 8      1962.332          38.000

  21056818.117                   110654334.978 7     -1784.303          50.000
                  21056824.039    86224159.417 9     -1390.362          41.300

 18  7  1  0 10  0.0000000  0 11G01G08G10G11G14G18G20G22G27G31G32
  23457874.008                   123271964.730 6      3219.080          43.300
                  23457880.668    96056078.532 7      2508.384          29.800

  23502922.266                   123508664.628 6     -2095.041          43.800
                  23502929.266    96240513.521 7     -1632.505          28.800

  22016291.656                   115696395.402 7     -1639.534          48.000
                  22016297.355    90153030.771 8     -1277.557          37.000

  23329270.703                   122596143.939 6      1692.849          46.800
                  23329274.441    95529463.127 7      1319.101          32.000

  20077476.406                   105507861.177 6      -148.836          46.800
                  20077479.406    82213923.545 8      -115.978          38.800

  21784647.078                   114479093.357 7      2092.552          47.800
                  21784650.840    89204492.167 8      1630.564          37.000

  23722065.805                   124660280.908 5     -2327.395          40.300
                  23722070.246    97137884.828 6     -1813.542          22.300

  23646770.305                   124264629.277 6      2729.184          42.300
                  23646772.965    96829582.026 7      2126.627          27.500

  24037383.117                   126317273.672 5     -2962.379          41.300
                  24037390.879    98429036.658 6     -2308.358          26.000

  21837934.133                   114759138.341 7      2516.358          50.800
                  21837937.871    89422710.296 8      1960.801          38.300

  21058516.578                   110663260.758 7     -1785.719          49.800
                  21058522.719    86231114.574 9     -1391.471          41.500

 18  7  1  0 10  5.0000000  0 11G01G08G10G11G14G18G20G22G27G31G32
  23454811.961                   123255872.991 6      3217.853          43.000
                  23454818.699    96043539.525 7      2507.424          28.800

  23504917.188                   123519144.582 6     -2096.665          43.500
                  23504923.148    96248679.721 7     -1633.769          28.500

  22017851.695                   115704596.045 7     -1640.556          48.800
                  22017857.617    90159420.879 8     -1278.360          37.500

  23327660.688                   122587686.353 6      1690.608          47.000
                  23327664.766    95522872.792 7      1317.361          31.800

  20077619.328                   105508612.955 6      -151.379          46.500
                  20077622.387    82214509.346 8      -117.956          39.500

  21782657.078                   114468637.019 7      2090.374          48.500
                  21782660.859    89196344.369 8      1628.869          37.000

  23724280.461                   124671920.286 5     -2328.222          40.300
                  23724284.980    97146954.484 6     -1814.195          22.300

  23644173.625                   124250983.755 5      2729.053          42.000
                  23644176.387    96818949.152 7      2126.537          27.300

  24040202.156                   126332085.670 5     -2962.413          41.500
                  24040209.555    98440578.448 7     -2308.370          26.500

  21835541.094                   114746562.397 7      2514.372          50.300
                  21835545.074    89412910.858 8      1959.251          38.300

  21060216.477                   110672193.738 7     -1787.211          50.000
                  21060222.457    86238075.327 8     -1392.628          40.800

 18  7  1  0 10 10.0000000  0 11G01G08G10G11G14G18G20G22G27G31G32
  23451750.906                   123239787.231 6      3216.681          43.000
                  23451756.926    96031005.172 7      2506.507          29.000

  23506912.422                   123529632.527 6     -2098.218          42.500
                  23506919.000    96256852.137 7     -1634.975          27.800

  22019413.391                   115712801.735 7     -1641.550          48.800
                  22019419.410    90165814.923 8     -1279.136          36.800

  23326053.742                   122579239.971 6      1688.398          46.500
                  23326057.383    95516291.202 7      1315.637          32.000

  20077765.031                   105509377.229 7      -153.833          47.500
                  20077767.570    82215104.882 8      -119.870          39.800

  21780669.336                   114458191.603 7      2088.217          48.300
                  21780673.316    89188205.084 8      1627.182          37.000

  23726496.305                   124683563.776 5     -2329.013          40.300
                  23726501.246    97156027.327 6     -1814.816          22.800

  23641577.703                   124237338.758 5      2728.956          41.500
                  23641579.781    96808316.691 7      2126.457          27.500

  24043020.758                   126346897.629 5     -2962.390          41.300
                  24043027.918    98452120.216 7     -2308.347          26.500

  21833149.836                   114733996.262 7      2512.448          50.500
                  21833154.035    89403119.072 8      1957.748          38.300

  21061917.797                   110681133.948 7     -1788.625          50.500
                  21061923.598    86245041.729 8     -1393.732          40.800

 18  7  1  0 10 15.0000000  0 11G01G08G10G11G14G18G20G22G27G31G32
  23448691.125                   123223707.334 6      3215.464          43.000
                  23448697.703    96018475.381 7      2505.552          29.800

  23508910.383                   123540128.320 6     -2099.810          42.800
                  23508916.422    96265030.667 7     -1636.211          29.500

  22020976.195                   115721012.313 7     -1642.535          48.300
                  22020982.297    90172212.766 8     -1279.893          36.800

  23324448.883                   122570804.715 6      1686.149          46.500
                  23324451.984    95509718.271 7      1313.886          31.000

  20077912.570                   105510153.952 7      -156.356          47.300
                  20077915.609    82215710.117 8      -121.827          39.500

  21778683.914                   114447756.889 7      2086.073          48.300
                  21778687.652    89180074.132 8      1625.516          36.800

  23728713.164                   124695211.255 5     -2329.854          40.300
                  23728718.023    97165103.293 6     -1815.463          23.000

  23638981.266                   124223694.122 5      2728.895          41.800
                  23638983.746    96797684.513 7      2126.410          28.300

  24045839.781                   126361709.401 5     -2962.358          41.500
                  24045846.602    98463661.858 6     -2308.325          25.300

  21830760.195                   114721439.867 7      2510.488          50.000
                  21830763.836    89393334.869 8      1956.224          38.000

  21063620.477                   110690081.250 7     -1790.041          50.500
                  21063626.398    86252013.647 8     -1394.837          41.000

 18  7  1  0 10 20.0000000  0 11G01G08G10G11G14G18G20G22G27G31G32
  23445632.125                   123207633.405 6      3214.313          43.500
                  23445638.863    96005950.244 7      2504.662          29.500

  23510908.320                   123550632.127 6     -2101.391          43.300
                  23510915.020    96273215.443 7     -1637.448          29.000

  22022539.570                   115729227.946 7     -1643.528          47.800
                  22022545.430    90178614.564 8     -1280.671          37.000

  23322846.148                   122562380.612 6      1683.926          47.000
                  23322849.348    95503154.039 7      1312.150          32.500

  20078062.828                   105510943.179 7      -158.839          47.300
                  20078065.867    82216325.105 8      -123.772          39.300

  21776700.273                   114437333.022 7      2083.890          48.500
                  21776703.773    89171951.640 8      1623.810          37.000

  23730930.625                   124706862.869 5     -2330.687          40.500
                  23730935.285    97174182.477 6     -1816.107          24.000

  23636384.406                   124210050.011 5      2728.767          41.500
                  23636387.227    96787052.745 7      2126.307          28.000

  24048657.539                   126376521.134 5     -2962.353          41.500
                  24048664.738    98475203.480 6     -2308.343          25.800

  21828372.953                   114708893.346 7      2508.518          50.800
                  21828376.133    89383558.371 8      1954.685          38.300

  21065324.117                   110699035.818 7     -1791.489          51.300
                  21065330.258    86258991.230 9     -1395.963          41.500

 18  7  1  0 10 25.0000000  0 11G01G08G10G11G14G18G20G22G27G31G32
  23442574.547                   123191565.443 6      3213.134          43.500
                  23442581.348    95993429.748 7      2503.740          28.000

  23512908.703                   123561143.864 6     -2102.942          44.000
                  23512915.563    96281406.405 7     -1638.656          29.500

  22024103.711                   115737448.561 7     -1644.508          47.500
                  22024109.711    90185020.236 8     -1281.437          36.800

  23321244.664                   122553967.691 6      1681.738          47.000
                  23321248.563    95496598.514 7      1310.445          32.500

  20078215.391                   105511744.827 7      -161.301          47.500
                  20078218.949    82216949.774 8      -125.689          39.800

  21774718.414                   114426920.069 7      2081.751          48.300
                  21774722.195    89163837.647 8      1622.141          37.300

  23733148.984                   124718518.509 5     -2331.410          41.300
                  23733153.383    97183264.806 6     -1816.685          24.500

  23633787.922                   124196406.315 5      2728.714          40.300
                  23633790.723    96776421.287 7      2126.275          28.000

  24051475.742                   126391332.716 5     -2962.284          41.300
                  24051482.883    98486744.970 6     -2308.290          24.500

  21825987.195                   114696356.632 7      2506.576          50.300
                  21825990.234    89373789.507 8      1953.174          38.500

  21067029.742                   110707997.535 7     -1792.895          50.800
                  21067035.422    86265974.388 9     -1397.063          41.500

 18  7  1  0 10 30.0000000  0 11G01G08G10G11G14G18G20G22G27G31G32
  23439517.844                   123175503.525 6      3211.925          42.800
                  23439524.242    95980913.973 7      2502.799          27.800

  23514910.703                   123571663.515 6     -2104.544          43.500
                  23514917.723    96289603.552 7     -1639.913          29.500

  22025669.195                   115745674.221 7     -1645.512          48.300
                  22025675.016    90191429.837 8     -1282.213          37.000

  23319646.563                   122545566.048 7      1679.454          47.300
                  23319649.363    95490051.780 7      1308.672          31.800

  20078370.625                   105512559.000 7      -163.807          47.800
                  20078373.246    82217584.193 8      -127.638          39.500

  21772739.258                   114416517.945 7      2079.567          48.500
                  21772742.777    89155732.097 8      1620.446          36.500

  23735367.242                   124730178.342 5     -2332.274          41.300
                  23735372.023    97192350.388 6     -1817.367          22.300

  23631191.242                   124182763.158 5      2728.625          40.500
                  23631194.641    96765790.253 7      2126.217          28.000

  24054294.680                   126406144.213 5     -2962.261          41.800
                  24054301.820    98498286.383 6     -2308.257          24.300

  21823603.336                   114683829.783 7      2504.603          50.300
                  21823606.695    89364028.318 8      1951.642          38.500

  21068736.703                   110716966.485 7     -1794.340          51.500
                  21068742.781    86272963.176 9     -1398.187          41.500

 18  7  1  0 10 35.0000000  0 11G01G08G10G11G14G18G20G22G27G31G32
  23436462.766                   123159447.534 6      3210.701          43.300
                  23436469.344    95968402.827 7      2501.838          27.800

  23516914.102                   123582190.909 6     -2106.111          43.500
                  23516920.301    96297806.712 7     -1641.125          30.000

  22027235.852                   115753904.839 7     -1646.537          47.500
                  22027241.313    90197843.297 8     -1283.009          36.000

  23318049.266                   122537175.546 7      1677.181          47.300
                  23318052.766    95483513.722 7      1306.901          32.000

  20078527.766                   105513385.565 7      -166.343          47.500
                  20078530.426    82218228.271 8      -129.618          39.000

  21770761.695                   114406126.645 7      2077.365          47.500
                  21770765.094    89147634.975 8      1618.732          36.500

  23737586.898                   124741842.148 5     -2333.112          41.500
                  23737591.777    97201439.054 6     -1818.016          24.300

  23628596.063                   124169120.447 5      2728.506          41.000
                  23628598.602    96755159.584 7      2126.107          26.500

  24057113.180                   126420955.517 6     -2962.229          42.300
                  24057120.418    98509827.649 6     -2308.241          23.800

  21821221.297                   114671312.714 7      2502.608          50.000
                  21821225.578    89354274.758 8      1950.078          38.000

  21070444.758                   110725942.532 7     -1795.801          51.000
                  21070450.539    86279957.501 8     -1399.327          41.000

 18  7  1  0 10 40.0000000  0 11G01G08G10G11G14G18G20G22G27G31G32
  23433408.883                   123143397.536 6      3209.487          42.500
                  23433414.961    95955896.332 7      2500.895          28.000

  23518918.867                   123592726.088 6     -2107.692          42.800
                  23518925.488    96306015.951 7     -1642.358          30.000

  22028802.977                   115762140.454 7     -1647.551          48.000
                  22028808.137    90204260.651 8     -1283.802          36.500

  23316455.203                   122528796.221 7      1674.943          47.300
                  23316458.344    95476984.384 7      1305.150          32.500

  20078687.086                   105514224.592 7      -168.807          47.500
                  20078690.305    82218882.060 8      -131.540          39.500

  21768786.633                   114395746.274 7      2075.190          48.000
                  21768789.852    89139546.374 8      1617.029          36.800

  23739806.898                   124753510.001 5     -2333.893          42.000
                  23739812.098    97210530.881 6     -1818.628          24.300

  23625999.781                   124155478.228 5      2728.380          40.800
                  23626002.180    96744529.288 7      2126.013          28.300

  24059932.063                   126435766.685 5     -2962.237          41.800
                  24059939.281    98521368.824 6     -2308.253          25.800

  21818841.516                   114658805.491 7      2500.637          49.800
                  21818845.695    89344528.873 8      1948.549          38.500

  21072154.578                   110734925.742 7     -1797.217          51.300
                  21072160.180    86286957.404 9     -1400.433          41.500

 18  7  1  0 10 45.0000000  0 11G01G08G10G11G14G18G20G22G27G31G32
  23430354.625                   123127353.542 6      3208.312          42.800
                  23430361.566    95943394.504 7      2499.998          28.300

  23520925.727                   123603269.219 5     -2109.258          42.000
                  23520932.008    96314231.377 7     -1643.584          29.500

  22030370.836                   115770381.062 7     -1648.536          47.300
                  22030376.375    90210681.904 8     -1284.572          37.000

  23314862.328                   122520428.076 7      1672.730          47.300
                  23314865.547    95470463.741 8      1303.437          33.300

  20078849.227                   105515076.039 6      -171.275          46.500
                  20078852.188    82219545.522 8      -133.459          39.500

  21766812.992                   114385376.723 7      2073.056          47.500
                  21766816.230    89131466.202 8      1615.371          36.300

  23742028.500                   124765181.962 6     -2334.702          42.300
                  23742033.141    97219625.891 6     -1819.246          23.500

  23623404.008                   124141836.450 5      2728.325          40.500
                  23623406.207    96733899.337 7      2125.984          27.800

  24062750.563                   126450577.640 6     -2962.193          42.800
                  24062758.023    98532909.818 6     -2308.216          25.500

  21816463.133                   114646308.126 7      2498.696          49.800
                  21816467.832    89334790.679 8      1947.034          37.800

  21073865.117                   110743916.088 7     -1798.620          51.000
                  21073870.777    86293962.865 9     -1401.524          41.500

 18  7  1  0 10 50.0000000  0 11G01G08G10G11G14G18G20G22G27G31G32
  23427303.625                   123111315.681 6      3207.106          43.000
                  23427309.523    95930897.478 7      2499.050          28.300

  23522933.461                   123613820.258 6     -2110.811          43.500
                  23522940.180    96322452.960 7     -1644.786          29.500

  22031940.031                   115778626.751 6     -1649.529          46.300
                  22031945.711    90217107.111 8     -1285.345          36.500

  23313272.242                   122512071.238 6      1670.481          46.800
                  23313275.281    95463951.915 7      1301.680          32.000

  20079014.148                   105515939.974 7      -173.779          47.300
                  20079016.629    82220218.720 8      -135.410          39.500

  21764841.938                   114375018.191 7      2070.865          48.000
                  21764845.777    89123394.617 8      1613.667          36.800

  23744250.602                   124776858.039 5     -2335.540          42.000
                  23744255.160    97228724.151 6     -1819.914          24.300

  23620808.406                   124128195.219 5      2728.225          41.000
                  23620810.406    96723269.808 7      2125.902          28.500

  24065568.281                   126465388.471 5     -2962.119          42.000
                  24065576.223    98544450.728 6     -2308.157          25.000

  21814087.195                   114633820.719 7      2496.696          50.500
                  21814091.297    89325060.236 8      1945.478          38.500

  21075577.141                   110752913.642 7     -1800.052          50.300
                  21075582.801    86300973.944 9     -1402.640          41.800

 18  7  1  0 10 55.0000000  0 11G01G08G10G11G14G18G20G22G27G31G32
  23424252.188                   123095283.756 6      3205.953          42.300
                  23424259.086    95918405.072 7      2498.145          28.300

  23524942.922                   123624379.069 6     -2112.393          42.500
                  23524948.941    96330680.599 7     -1646.033          30.000

  22033510.055                   115786877.393 6     -1650.528          47.000
                  22033515.754    90223536.176 8     -1286.121          37.000

  23311684.289                   122503725.548 6      1668.264          47.000
                  23311687.168    95457448.786 7      1299.952          31.800

  20079180.805                   105516816.294 6      -176.249          47.000
                  20079183.727    82220901.566 8      -137.337          39.500

  21762872.719                   114364670.454 7      2068.674          48.000
                  21762876.719    89115331.443 8      1611.958          36.500

  23746472.719                   124788538.073 6     -2336.307          42.500
                  23746477.520    97237825.476 6     -1820.511          23.300

  23618212.305                   124114554.395 5      2728.125          40.500
                  23618214.844    96712640.611 7      2125.804          28.000

  24068386.563                   126480199.079 6     -2962.098          42.300
                  24068394.402    98555991.439 6     -2308.124          23.500

  21811712.680                   114621343.150 7      2494.741          51.000
                  21811716.281    89315337.449 8      1943.965          38.300

  21077290.758                   110761918.263 7     -1801.487          50.000
                  21077296.559    86307990.528 9     -1403.754          41.500

 18  7  1  0 11  0.0000000  0 11G01G08G10G11G14G18G20G22G27G31G32
  23421202.820                   123079257.865 6      3204.726          42.500
                  23421209.539    95905917.357 7      2497.193          27.800

  23526953.523                   123634945.600 6     -2113.891          43.500
                  23526959.504    96338914.246 7     -1647.179          29.500

  22035080.875                   115795132.954 7     -1651.487          47.800
                  22035086.797    90229969.075 8     -1286.867          37.000

  23310097.383                   122495391.043 6      1666.035          46.500
                  23310100.902    95450954.369 7      1298.205          33.000

  20079349.688                   105517704.975 7      -178.716          47.300
                  20079352.367    82221594.054 8      -139.255          39.300

  21760906.180                   114354333.625 7      2066.501          47.800
                  21760910.320    89107276.773 8      1610.254          36.300

  23748695.883                   124800222.153 5     -2337.140          41.300
                  23748700.902    97246929.946 6     -1821.161          24.000

  23615617.023                   124100914.038 5      2728.039          40.500
                  23615619.043    96702011.770 7      2125.740          28.500

  24071205.680                   126495009.380 5     -2962.009          41.500
                  24071212.719    98567531.924 6     -2308.069          25.000

  21809340.359                   114608875.423 7      2492.787          50.500
                  21809343.160    89305622.341 8      1942.425          38.800

  21079005.977                   110770929.940 7     -1802.890          50.500
                  21079011.215    86315012.609 9     -1404.845          41.300

 18  7  1  0 11  5.0000000  0 11G01G08G10G11G14G18G20G22G27G31G32
  23418154.008                   123063238.145 6      3203.459          43.000
                  23418161.066    95893434.474 7      2496.194          26.500

  23528965.242                   123645520.006 6     -2115.483          44.000
                  23528971.961    96347154.052 7     -1648.428          29.800

  22036652.773                   115803393.657 7     -1652.522          47.300
                  22036658.793    90236405.986 8     -1287.686          36.500

  23308513.984                   122487067.858 6      1663.747          46.800
                  23308517.363    95444468.770 7      1296.418          31.800

  20079520.930                   105518606.211 6      -181.215          46.500
                  20079524.191    82222296.318 8      -141.208          39.500

  21758940.914                   114344007.780 7      2064.309          47.800
                  21758944.754    89099230.654 8      1608.557          36.500

  23750920.563                   124811910.371 5     -2337.949          41.500
                  23750924.883    97256037.634 6     -1821.781          24.300

  23613021.102                   124087274.265 5      2727.934          40.800
                  23613023.262    96691383.384 7      2125.660          28.500

  24074023.422                   126509819.541 5     -2961.972          41.300
                  24074030.941    98579072.308 6     -2308.026          23.000

  21806969.516                   114596417.731 7      2490.766          51.000
                  21806972.594    89295915.036 8      1940.859          38.300

  21080721.719                   110779948.818 7     -1804.322          50.500
                  21080727.898    86322040.302 8     -1405.963          41.000

 18  7  1  0 11 10.0000000  0 11G01G08G10G11G14G18G20G22G27G31G32
  23415106.586                   123047224.412 5      3202.240          41.800
                  23415113.547    95880956.239 7      2495.256          26.500

  23530979.023                   123656102.181 6     -2117.062          43.500
                  23530985.984    96355399.885 7     -1649.653          29.300

  22038225.531                   115811659.297 7     -1653.536          47.300
                  22038231.391    90242846.736 8     -1288.468          37.000

  23306932.266                   122478755.824 6      1661.495          46.500
                  23306935.504    95437991.864 7      1294.665          32.300

  20079694.531                   105519519.802 6      -183.753          46.000
                  20079697.910    82223008.206 8      -143.186          39.500

  21756977.797                   114333692.850 7      2062.073          48.000
                  21756982.219    89091193.054 8      1606.804          36.500

  23753145.180                   124823602.604 5     -2338.806          41.500
                  23753149.840    97265148.459 6     -1822.461          24.500

  23610425.844                   124073634.984 5      2727.792          41.500
                  23610428.266    96680755.374 7      2125.546          28.300

  24076841.703                   126524629.442 5     -2961.953          41.000
                  24076848.781    98590612.489 6     -2308.018          25.500

  21804600.539                   114583969.910 7      2488.751          50.300
                  21804604.398    89286215.442 8      1939.282          37.500

  21082439.461                   110788974.743 7     -1805.772          50.800
                  21082445.000    86329073.501 9     -1407.101          41.500

 18  7  1  0 11 15.0000000  0 11G01G08G10G11G14G18G20G22G27G31G32
  23412060.664                   123031216.765 6      3201.065          42.500
                  23412067.203    95868482.744 7      2494.337          27.300

  23532994.703                   123666692.010 6     -2118.547          44.000
                  23533001.262    96363651.712 7     -1650.824          30.000

  22039799.273                   115819929.935 7     -1654.509          47.500
                  22039805.215    90249291.395 8     -1289.231          36.300

  23305352.906                   122470455.009 6      1659.291          46.500
                  23305356.746    95431523.699 7      1292.956          31.500

  20079871.211                   105520445.715 6      -186.160          46.300
                  20079874.211    82223729.704 8      -145.064          39.500

  21755016.680                   114323388.763 7      2059.945          47.800
                  21755021.441    89083163.892 8      1605.150          37.500

  23755371.320                   124835298.837 5     -2339.542          41.500
                  23755375.699    97274262.394 6     -1823.020          24.300

  23607830.008                   124059996.180 5      2727.726          41.800
                  23607833.047    96670127.729 7      2125.511          28.500

  24079660.258                   126539439.031 5     -2961.856          41.000
                  24079667.219    98602152.430 6     -2307.962          23.300

  21802233.977                   114571531.961 7      2486.822          51.000
                  21802237.617    89276523.536 8      1937.777          38.300

  21084158.219                   110798007.721 7     -1807.128          50.800
                  21084163.980    86336112.177 8     -1408.147          41.000

 18  7  1  0 11 20.0000000  0 11G01G08G10G11G14G18G20G22G27G31G32
  23409015.422                   123015215.266 6      3199.825          42.500
                  23409022.203    95856014.049 7      2493.375          27.500

  23535010.906                   123677289.680 6     -2120.144          44.300
                  23535017.625    96371909.620 7     -1652.050          29.800

  22041374.313                   115828205.670 6     -1655.546          47.000
                  22041380.152    90255740.005 8     -1290.028          36.500

  23303774.906                   122462165.501 6      1656.989          46.500
                  23303778.906    95425064.344 7      1291.160          32.000

  20080049.547                   105521384.139 6      -188.682          47.000
                  20080052.625    82224460.943 8      -147.027          39.800

  21753058.180                   114313095.770 7      2057.698          48.000
                  21753062.840    89075143.383 8      1603.395          36.300

  23757597.484                   124846999.210 5     -2340.367          41.300
                  23757601.945    97283379.568 6     -1823.677          24.800

  23605234.406                   124046357.989 5      2727.574          41.800
                  23605237.727    96659500.579 7      2125.394          26.800

  24082478.203                   126554248.443 5     -2961.830          40.800
                  24082485.242    98613692.209 6     -2307.924          22.300

  21799869.336                   114559104.081 7      2484.781          50.300
                  21799873.297    89266839.483 8      1936.191          38.800

  21085878.563                   110807047.882 7     -1808.602          50.800
                  21085884.344    86343156.463 9     -1409.304          41.500

 18  7  1  0 11 25.0000000  0 11G01G08G10G11G14G18G20G22G27G31G32
  23405971.547                   122999219.863 6      3198.617          43.000
                  23405978.469    95843550.093 7      2492.435          27.500

  23537029.047                   123687895.043 6     -2121.636          44.000
                  23537035.508    96380173.542 7     -1653.227          30.000

  22042949.617                   115836486.336 6     -1656.529          46.800
                  22042955.559    90262192.471 8     -1290.802          36.000

  23302200.164                   122453887.157 6      1654.787          46.800
                  23302203.703    95418613.686 7      1289.444          31.300

  20080230.547                   105522334.840 6      -191.107          46.300
                  20080233.047    82225201.741 8      -148.907          39.500

  21751101.016                   114302813.691 6      2055.565          46.800
                  21751105.836    89067131.374 8      1601.739          36.000

  23759824.781                   124858703.572 5     -2341.171          41.300
                  23759829.223    97292499.828 6     -1824.297          22.800

  23602639.688                   124032720.231 5      2727.516          40.800
                  23602643.109    96648873.767 7      2125.343          27.800

  24085295.797                   126569057.514 5     -2961.780          40.500
                  24085302.797    98625231.749 6     -2307.881          23.800

  21797506.055                   114546686.109 7      2482.813          51.000
                  21797509.977    89257163.142 8      1934.657          38.300

  21087600.117                   110816095.020 7     -1809.981          50.300
                  21087605.578    86350206.180 8     -1410.381          41.000

 18  7  1  0 11 30.0000000  0 11G01G08G10G11G14G18G20G22G27G31G32
  23402929.406                   122983230.608 6      3197.329          42.800
                  23402935.906    95831090.929 7      2491.434          28.500

  23539048.523                   123698508.202 6     -2123.289          43.500
                  23539055.383    96388443.532 7     -1654.513          29.300

  22044526.117                   115844772.051 6     -1657.580          46.800
                  22044532.598    90268648.855 8     -1291.621          36.800

  23300626.523                   122445620.129 6      1652.475          46.800
                  23300630.145    95412171.845 7      1287.639          31.800

  20080413.750                   105523297.991 6      -193.656          45.800
                  20080417.129    82225952.254 8      -150.901          39.300

  21749146.914                   114292542.572 7      2053.295          48.000
                  21749151.434    89059127.915 8      1599.966          36.500

  23762053.078                   124870411.998 5     -2342.030          40.800
                  23762056.918    97301623.267 6     -1824.958          22.800

  23600044.820                   124019083.028 5      2727.376          40.500
                  23600047.559    96638247.373 7      2125.235          28.300

  24088113.742                   126583866.301 5     -2961.764          40.800
                  24088120.883    98636771.068 6     -2307.893          22.000

  21795144.914                   114534278.129 7      2480.776          51.000
                  21795148.355    89247494.580 8      1933.070          38.500

  21089323.000                   110825149.267 7     -1811.450          50.300
                  21089328.461    86357261.432 9     -1411.522          42.000

 18  7  1  0 11 35.0000000  0 11G01G08G10G11G14G18G20G22G27G31G32
  23399888.125                   122967247.475 6      3196.157          43.000
                  23399895.105    95818636.546 7      2490.502          26.500

  23541069.945                   123709128.997 6     -2124.748          43.800
                  23541076.984    96396719.469 7     -1655.649          29.500

  22046104.234                   115853062.778 6     -1658.544          46.300
                  22046110.293    90275109.156 8     -1292.370          36.500

  23299055.586                   122437364.348 6      1650.260          46.500
                  23299059.086    95405738.770 7      1285.913          31.800

  20080599.484                   105524273.528 6      -196.097          46.300
                  20080602.605    82226712.419 8      -152.809          39.300

  21747194.938                   114282282.515 7      2051.172          48.300
                  21747199.137    89051133.061 8      1598.318          36.500

  23764281.203                   124882124.474 5     -2342.790          40.800
                  23764285.781    97310749.853 6     -1825.548          23.000

  23597449.641                   124005446.335 5      2727.311          40.300
                  23597452.340    96627621.395 7      2125.161          28.800

  24090931.563                   126598674.781 5     -2961.675          39.500
                  24090938.664    98648310.118 6     -2307.797          21.500

  21792785.313                   114521880.137 7      2478.811          50.500
                  21792788.352    89237833.807 8      1931.539          38.500

  21091047.523                   110834210.543 7     -1812.803          51.000
                  21091052.742    86364322.164 8     -1412.574          40.800

 18  7  1  0 11 40.0000000  0 11G01G08G10G11G14G18G20G22G27G31G32
  23396847.141                   122951270.486 6      3194.930          42.500
                  23396854.359    95806186.946 7      2489.558          27.300

  23543092.688                   123719757.529 6     -2126.321          44.000
                  23543099.629    96405001.441 7     -1656.874          30.300

  22047682.453                   115861358.467 7     -1659.543          47.300
                  22047688.754    90281573.329 8     -1293.150          36.000

  23297486.969                   122429119.833 6      1648.011          46.500
                  23297490.648    95399314.475 7      1284.162          32.000

  20080787.547                   105525261.406 6      -198.559          47.000
                  20080790.188    82227482.186 8      -154.715          39.300

  21745244.680                   114272033.422 7      2048.925          48.000
                  21745248.480    89043146.755 8      1596.565          36.500

  23766511.063                   124893841.017 5     -2343.630          40.800
                  23766514.844    97319879.614 6     -1826.181          23.000

  23594854.984                   123991810.143 5      2727.198          40.500
                  23594858.043    96616995.783 7      2125.091          28.300

  24093750.297                   126613482.890 5     -2961.585          40.500
                  24093757.035    98659848.882 6     -2307.729          22.300

  21790427.594                   114509492.092 7      2476.811          49.500
                  21790431.313    89228180.789 8      1929.979          37.500

  21092773.156                   110843278.859 7     -1814.217          50.800
                  21092778.598    86371388.386 9     -1413.676          41.300

 18  7  1  0 11 45.0000000  0 11G01G08G10G11G14G18G20G22G27G31G32
  23393808.320                   122935299.653 6      3193.698          42.500
                  23393815.500    95793742.127 7      2488.606          27.500

  23545116.820                   123730393.771 6     -2127.848          43.800
                  23545124.121    96413289.417 7     -1658.061          30.500

  22049262.070                   115869659.213 6     -1660.531          47.000
                  22049267.969    90288041.441 8     -1293.918          35.800

  23295920.109                   122420886.627 7      1645.748          47.300
                  23295923.750    95392898.986 7      1282.403          32.300

  20080978.008                   105526261.694 6      -201.026          46.500
                  20080980.887    82228261.633 8      -156.642          39.300

  21743296.016                   114261795.268 7      2046.744          47.800
                  21743300.234    89035168.974 8      1594.860          37.000

  23768740.766                   124905561.596 5     -2344.416          40.300
                  23768744.688    97329012.535 6     -1826.811          23.000

  23592260.383                   123978174.519 5      2727.098          40.000
                  23592263.441    96606370.611 7      2125.018          27.500

  24096566.422                   126628290.645 5     -2961.525          40.500
                  24096574.242    98671387.415 6     -2307.707          22.000

  21788072.438                   114497114.095 7      2474.801          49.500
                  21788076.117    89218535.609 8      1928.414          38.300

  21094500.141                   110852354.208 7     -1815.623          50.500
                  21094505.500    86378460.089 8     -1414.775          41.000

 18  7  1  0 11 50.0000000  0 11G01G08G10G11G14G18G20G22G27G31G32
  23390770.688                   122919335.042 6      3192.405          42.500
                  23390777.266    95781302.178 7      2487.594          27.300

  23547142.047                   123741037.646 6     -2129.369          44.000
                  23547149.469    96421583.351 7     -1659.255          30.300

  22050842.875                   115877964.986 6     -1661.563          46.800
                  22050848.535    90294513.474 8     -1294.727          36.300

  23294355.469                   122412664.717 6      1643.455          47.000
                  23294359.168    95386492.300 7      1280.612          31.800

  20081170.406                   105527274.350 6      -203.525          46.300
                  20081173.465    82229050.718 8      -158.593          39.300

  21741349.719                   114251568.233 6      2044.524          47.000
                  21741354.418    89027199.854 8      1593.134          37.000

  23770972.703                   124917286.245 5     -2345.259          41.000
                  23770976.344    97338148.635 6     -1827.471          22.000

  23589665.461                   123964539.373 5      2726.964          40.000
                  23589667.801    96595745.840 7      2124.899          27.500

  24099385.258                   126643098.076 5     -2961.457          40.000
                  24099391.977    98682925.642 6     -2307.627          22.300

  21785719.375                   114484746.133 7      2472.768          50.000
                  21785723.316    89208898.246 8      1926.830          38.300

  21096228.281                   110861436.585 7     -1817.034          49.800
                  21096233.480    86385537.260 8     -1415.868          41.000

 18  7  1  0 11 55.0000000  0 11G01G08G10G11G14G18G20G22G27G31G32
  23387733.641                   122903376.555 6      3191.204          42.500
                  23387740.141    95768866.994 7      2486.659          27.500

  23549169.266                   123751689.167 6     -2130.891          44.000
                  23549176.586    96429883.240 7     -1660.438          30.000

  22052423.977                   115886275.745 6     -1662.554          45.500
                  22052430.258    90300989.390 8     -1295.501          36.000

  23292793.742                   122404454.079 7      1641.240          47.300
                  23292797.141    95380094.400 7      1278.890          30.800

  20081365.789                   105528299.348 6      -205.976          46.800
                  20081368.848    82229849.419 8      -160.497          39.500

  21739405.875                   114241352.189 7      2042.328          48.300
                  21739410.035    89019239.301 8      1591.426          36.800

  23773205.164                   124929015.006 5     -2346.079          41.500
                  23773208.145    97347287.923 6     -1828.109          22.800

  23587070.602                   123950904.737 5      2726.904          40.300
                  23587073.480    96585121.452 7      2124.852          27.500

  24102203.281                   126657905.106 5     -2961.383          39.500
                  24102209.703    98694463.585 6     -2307.573          22.500

  21783367.594                   114472388.202 7      2470.797          50.500
                  21783372.355    89199268.683 8      1925.300          38.000

  21097957.656                   110870525.944 7     -1818.421          49.500
                  21097963.438    86392619.875 8     -1416.945          41.000

 18  7  1  0 12  0.0000000  0 11G01G08G10G11G14G18G20G22G27G31G32
  23384697.867                   122887424.288 6      3189.914          42.500
                  23384705.289    95756436.676 7      2485.629          27.000

  23551197.047                   123762348.357 6     -2132.480          43.500
                  23551204.625    96438189.094 7     -1661.667          29.500

  22054006.453                   115894591.545 6     -1663.602          45.800
                  22054012.555    90307469.234 8     -1296.318          36.000

  23291232.969                   122396254.739 7      1638.948          47.300
                  23291236.289    95373705.309 7      1277.094          32.000

  20081562.867                   105529336.670 6      -208.488          46.000
                  20081566.008    82230657.725 8      -162.458          39.300

  21737463.734                   114231147.225 7      2040.078          48.000
                  21737468.254    89011287.381 8      1589.671          36.800

  23775437.445                   124940747.881 5     -2346.936          41.500
                  23775440.887    97356430.428 6     -1828.781          22.500

  23584475.688                   123937270.697 5      2726.707          40.000
                  23584478.406    96574497.521 7      2124.704          27.500

  24105020.641                   126672711.759 5     -2961.349          39.500
                  24105027.820    98706001.221 6     -2307.531          21.800

  21781017.680                   114460040.290 7      2468.755          50.500
                  21781022.102    89189646.928 8      1923.699          38.300

  21099688.641                   110879622.350 7     -1819.877          49.300
                  21099694.379    86399707.984 8     -1418.088          40.500

 18  7  1  0 12  5.0000000  0 11G01G08G10G11G14G18G20G22G27G31G32
  23381663.844                   122871478.156 6      3188.713          42.500
                  23381670.184    95744011.111 7      2484.714          26.500

  23553226.602                   123773015.102 6     -2133.944          44.000
                  23553234.363    96446500.849 7     -1662.813          30.300

  22055589.758                   115902912.289 6     -1664.548          46.000
                  22055595.777    90313952.929 8     -1297.051          35.300

  23289674.828                   122388066.605 6      1636.728          47.000
                  23289678.387    95367324.943 7      1275.366          31.500

  20081762.906                   105530386.272 6      -210.913          47.000
                  20081765.926    82231475.596 8      -164.350          39.000

  21735524.078                   114220953.208 7      2037.926          48.000
                  21735528.598    89003343.991 8      1587.989          36.800

  23777670.422                   124952484.727 5     -2347.703          41.300
                  23777674.480    97365575.993 6     -1829.371          22.800

  23581880.984                   123923637.143 5      2726.649          39.800
                  23581884.086    96563873.967 6      2124.659          26.000

  24107837.977                   126687517.953 5     -2961.215          40.000
                  24107845.496    98717538.499 6     -2307.428          21.500

  21778669.516                   114447702.363 7      2466.774          50.000
                  21778673.676    89180032.954 8      1922.166          38.500

  21101421.063                   110888725.659 7     -1821.227          49.500
                  21101426.484    86406801.465 8     -1419.138          40.500

 18  7  1  0 12 10.0000000  0 11G01G08G10G11G14G18G20G22G27G31G32
  23378630.469                   122855538.328 6      3187.450          42.500
                  23378637.027    95731590.463 7      2483.733          27.500

  23555257.961                   123783689.366 6     -2135.499          44.500
                  23555266.039    96454818.450 7     -1664.019          29.300

  22057174.617                   115911238.131 6     -1665.594          46.000
                  22057179.836    90320440.596 8     -1297.865          36.000

  23288118.867                   122379889.833 6      1634.439          46.800
                  23288122.129    95360953.430 7      1273.585          31.800

  20081965.086                   105531448.267 6      -213.407          46.800
                  20081967.984    82232303.131 8      -166.287          39.300

  21733586.594                   114210770.331 7      2035.672          48.500
                  21733590.875    88995409.286 8      1586.238          37.000

  23779904.781                   124964225.701 5     -2348.533          40.800
                  23779908.680    97374724.810 6     -1830.018          22.500

  23579287.266                   123910004.136 5      2726.562          40.000
                  23579290.027    96553250.852 7      2124.594          26.500

  24110655.523                   126702323.758 5     -2961.152          39.500
                  24110662.785    98729075.512 6     -2307.404          22.800

  21776323.438                   114435374.512 7      2464.751          49.800
                  21776326.977    89170426.841 8      1920.585          38.300

  21103154.703                   110897836.017 7     -1822.643          49.800
                  21103160.523    86413900.443 8     -1420.242          40.500

 18  7  1  0 12 15.0000000  0 11G01G08G10G11G14G18G20G22G27G31G32
  23375598.008                   122839604.742 6      3186.217          42.800
                  23375604.949    95719174.695 7      2482.765          27.500

  23557291.164                   123794371.298 6     -2137.002          43.800
                  23557298.844    96463142.033 7     -1665.194          29.000

  22058760.336                   115919568.996 6     -1666.582          46.300
                  22058765.055    90326932.179 8     -1298.633          36.000

  23286565.188                   122371724.404 6      1632.182          46.500
                  23286568.688    95354590.758 7      1271.835          31.500

  20082169.188                   105532522.596 6      -215.848          47.000
                  20082172.266    82233140.266 8      -168.185          39.300

  21731650.734                   114200598.517 7      2033.502          48.000
                  21731654.813    88987483.198 8      1584.545          37.000

  23782139.742                   124975970.739 5     -2349.308          41.500
                  23782143.684    97383876.770 6     -1830.618          22.800

  23576693.141                   123896371.733 5      2726.433          39.800
                  23576696.102    96542628.205 7      2124.489          27.800

  24113473.477                   126717129.164 4     -2961.026          39.000
                  24113480.137    98740612.157 6     -2307.297          22.000

  21773979.695                   114423056.743 7      2462.751          49.000
                  21773982.816    89160828.592 8      1919.025          38.000

  21104889.883                   110906953.369 7     -1824.031          49.500
                  21104895.484    86421004.871 8     -1421.325          40.500

 18  7  1  0 12 20.0000000  0 11G01G08G10G11G14G18G20G22G27G31G32
  23372567.203                   122823677.384 6      3185.001          42.500
                  23372574.223    95706763.772 7      2481.811          28.000

  23559325.242                   123805060.694 6     -2138.463          44.000
                  23559332.504    96471471.447 7     -1666.341          29.800

  22060346.453                   115927904.891 6     -1667.573          46.800
                  22060351.191    90333427.678 8     -1299.405          36.500

  23285012.969                   122363570.318 6      1629.904          46.500
                  23285016.488    95348236.918 7      1270.055          32.000

  20082376.070                   105533609.230 6      -218.286          46.500
                  20082378.750    82233986.998 8      -170.087          39.000

  21729716.992                   114190437.793 7      2031.300          47.800
                  21729721.512    88979565.745 8      1582.835          37.000

  23784376.523                   124987719.798 5     -2350.123          40.800
                  23784379.004    97393031.866 6     -1831.232          22.000

  23574099.281                   123882739.819 5      2726.352          40.300
                  23574101.980    96532005.928 7      2124.440          26.800

  24116290.398                   126731934.125 5     -2960.939          40.000
                  24116296.957    98752148.482 6     -2307.234          23.300

  21771638.195                   114410749.098 7      2460.728          51.000
                  21771641.117    89151238.217 8      1917.448          38.500

  21106626.281                   110916077.672 7     -1825.410          50.000
                  21106631.883    86428114.715 8     -1422.400          40.800

 18  7  1  0 12 25.0000000  0 11G01G08G10G11G14G18G20G22G27G31G32
  23369537.805                   122807756.366 6      3183.711          43.000
                  23369544.746    95694357.776 7      2480.824          28.500

  23561360.727                   123815757.771 6     -2140.008          43.800
                  23561367.566    96479806.823 7     -1667.531          30.500

  22061933.570                   115936245.849 6     -1668.582          47.000
                  22061938.191    90339927.121 8     -1300.189          36.000

  23283463.625                   122355427.588 6      1627.666          47.000
                  23283466.703    95341891.936 7      1268.315          31.500

  20082585.008                   105534708.249 6      -220.764          47.000
                  20082588.129    82234843.387 8      -172.030          40.300

  21727785.938                   114180288.217 7      2029.037          48.300
                  21727790.438    88971656.993 8      1581.068          37.500

  23786612.383                   124999472.939 5     -2350.908          40.800
                  23786615.922    97402190.168 6     -1831.879          22.500

  23571504.508                   123869108.507 5      2726.234          39.500
                  23571507.727    96521384.139 7      2124.323          27.000

  24119108.461                   126746738.656 5     -2960.847          40.800
                  24119114.563    98763684.458 6     -2307.135          22.000

  21769297.813                   114398451.616 7      2458.702          51.000
                  21769301.973    89141655.759 8      1915.868          39.000

  21108363.563                   110925208.981 7     -1826.811          50.500
                  21108369.563    86435230.018 8     -1423.487          40.800

 18  7  1  0 12 30.0000000  0 11G01G08G10G11G14G18G20G22G27G31G32
  23366509.164                   122791841.538 6      3182.470          43.300
                  23366516.324    95681956.622 6      2479.849          26.000

  23563397.945                   123826462.354 6     -2141.503          43.000
                  23563405.324    96488148.061 7     -1668.700          30.500

  22063522.055                   115944591.791 7     -1669.559          47.500
                  22063526.414    90346430.449 8     -1300.959          35.800

  23281916.344                   122347296.140 6      1625.406          47.000
                  23281919.645    95335555.741 7      1266.552          32.000

  20082796.930                   105535819.498 7      -223.208          47.800
                  20082799.309    82235709.285 8      -173.924          40.000

  21725856.539                   114170149.593 7      2026.862          49.000
                  21725860.918    88963756.769 8      1579.371          37.300

  23788849.242                   125011230.080 5     -2351.728          40.800
                  23788853.402    97411351.575 6     -1832.522          22.300

  23568911.188                   123855477.696 5      2726.155          40.300
                  23568913.988    96510762.740 7      2124.268          27.300

  24121925.500                   126761542.640 5     -2960.719          40.500
                  24121932.238    98775220.028 6     -2307.053          23.000

  21766959.555                   114386164.206 7      2456.698          50.000
                  21766963.875    89132081.147 8      1914.310          38.300

  21110102.844                   110934347.160 7     -1828.143          50.800
                  21110108.582    86442350.678 8     -1424.525          41.000

 18  7  1  0 12 35.0000000  0 11G01G08G10G11G14G18G20G22G27G31G32
  23363482.109                   122775933.069 6      3181.151          42.500
                  23363488.969    95669560.414 7      2478.821          27.800

  23565436.508                   123837174.584 6     -2143.085          44.000
                  23565443.270    96496495.253 7     -1669.932          29.500

  22065111.234                   115952942.865 7     -1670.652          47.800
                  22065115.813    90352937.771 8     -1301.809          36.300

  23280371.586                   122339176.109 6      1623.068          46.800
                  23280374.824    95329228.446 7      1264.726          30.800

  20083010.430                   105536943.121 7      -225.720          47.800
                  20083013.211    82236584.840 8      -175.881          40.000

  21723929.555                   114160022.212 7      2024.568          48.500
                  21723933.715    88955865.305 8      1577.581          37.300

  23791086.883                   125022991.351 5     -2352.635          40.500
                  23791091.703    97420516.189 6     -1833.234          22.000

  23566317.023                   123841847.519 5      2725.971          40.500
                  23566320.422    96500141.831 7      2124.127          27.000

  24124742.617                   126776346.240 5     -2960.690          40.800
                  24124748.719    98786755.323 6     -2307.051          22.800

  21764622.875                   114373887.008 7      2454.619          50.500
                  21764627.094    89122514.504 8      1912.690          38.500

  21111842.758                   110943492.388 7     -1829.627          51.000
                  21111848.477    86449476.834 8     -1425.684          40.800

 18  7  1  0 12 40.0000000  0 11G01G08G10G11G14G18G20G22G27G31G32
  23360456.188                   122760030.796 6      3179.979          43.000
                  23360463.387    95657169.047 7      2477.892          28.000

  23567475.984                   123847894.194 6     -2144.504          44.500
                  23567482.883    96504848.194 7     -1671.042          30.000

  22066701.297                   115961298.834 7     -1671.593          47.300
                  22066706.035    90359448.911 8     -1302.540          36.500

  23278828.305                   122331067.322 6      1620.860          46.800
                  23278831.086    95322909.908 7      1263.004          31.300

  20083226.227                   105538078.992 6      -228.155          47.000
                  20083229.707    82237469.938 8      -177.783          40.000

  21722004.477                   114149905.801 7      2022.387          48.500
                  21722008.297    88947982.379 8      1575.890          36.800

  23793325.898                   125034756.556 5     -2353.368          40.500
                  23793330.680    97429683.840 6     -1833.769          22.800

  23563724.125                   123828217.830 5      2725.910          40.000
                  23563726.844    96489521.315 7      2124.074          27.500

  24127560.000                   126791149.231 5     -2960.535          40.800
                  24127565.199    98798290.093 6     -2306.910          23.000

  21762288.680                   114361619.837 7      2452.646          48.800
                  21762292.480    89112955.680 8      1911.153          38.300

  21113584.742                   110952644.431 7     -1830.949          50.800
                  21113590.320    86456608.296 8     -1426.714          40.500

 18  7  1  0 12 45.0000000  0 11G01G08G10G11G14G18G20G22G27G31G32
  23357431.266                   122744134.949 6      3178.653          43.000
                  23357438.086    95644782.673 7      2476.880          27.300

  23569517.563                   123858621.400 6     -2146.054          44.500
                  23569524.102    96513207.052 7     -1672.258          29.500

  22068291.992                   115969659.908 6     -1672.628          47.000
                  22068297.254    90365964.032 8     -1303.350          36.300

  23277287.664                   122322969.922 6      1618.556          46.800
                  23277290.125    95316600.234 7      1261.217          32.300

  20083445.266                   105539227.191 7      -230.638          47.800
                  20083448.246    82238364.646 8      -179.724          40.300

  21720081.297                   114139800.668 7      2020.115          48.500
                  21720085.418    88940108.249 8      1574.119          37.000

  23795565.898                   125046525.910 5     -2354.214          40.000
                  23795570.738    97438854.783 6     -1834.458          22.000

  23561130.383                   123814588.825 5      2725.742          40.800
                  23561132.563    96478901.302 7      2123.953          26.800

  24130375.602                   126805951.804 5     -2960.440          40.000
                  24130382.262    98809824.555 6     -2306.838          22.000

  21759956.234                   114349362.908 7      2450.560          49.500
                  21759959.254    89103404.828 8      1909.531          38.300

  21115327.539                   110961803.496 7     -1832.365          50.000
                  21115332.777    86463745.223 8     -1427.815          41.000

 18  7  1  0 12 50.0000000  0 11G01G08G10G11G14G18G20G22G27G31G32
  23354407.430                   122728245.393 6      3177.394          43.300
                  23354414.609    95632401.205 7      2475.887          26.500

  23571560.320                   123869356.043 6     -2147.523          43.800
                  23571567.121    96521571.711 7     -1673.392          29.000

  22069884.273                   115978026.021 6     -1673.632          46.500
                  22069889.313    90372483.067 8     -1304.124          36.500

  23275749.484                   122314883.893 6      1616.283          47.000
                  23275751.563    95310299.439 7      1259.448          32.000

  20083665.891                   105540387.676 7      -233.103          47.300
                  20083668.949    82239268.913 8      -181.641          39.500

  21718160.492                   114129706.627 7      2017.897          48.500
                  21718164.371    88932242.765 8      1572.393          36.300

  23797806.203                   125058299.280 5     -2355.015          40.000
                  23797810.664    97448028.841 6     -1835.077          23.000

  23558536.844                   123800960.332 5      2725.658          40.800
                  23558539.223    96468281.708 6      2123.879          26.000

  24133192.063                   126820753.831 5     -2960.361          40.300
                  24133199.383    98821358.610 6     -2306.787          22.500

  21757626.219                   114337116.140 7      2448.529          49.800
                  21757628.777    89093861.890 8      1907.948          38.300

  21117071.938                   110970969.452 7     -1833.763          50.000
                  21117077.117    86470887.523 8     -1428.910          41.000

 18  7  1  0 12 55.0000000  0 11G01G08G10G11G14G18G20G22G27G31G32
  23351385.430                   122712362.164 6      3176.125          42.500
                  23351392.508    95620024.665 7      2474.905          27.000

  23573603.922                   123880098.207 6     -2149.049          43.500
                  23573611.500    96529942.218 7     -1674.586          29.500

  22071477.734                   115986397.167 6     -1674.643          47.000
                  22071482.594    90379006.035 8     -1304.921          36.500

  23274212.406                   122306809.200 7      1614.032          47.500
                  23274215.008    95304007.470 7      1257.689          31.800

  20083888.906                   105541560.395 6      -235.520          47.000
                  20083891.848    82240182.728 8      -183.526          39.000

  21716241.555                   114119623.678 7      2015.674          48.500
                  21716245.676    88924385.921 8      1570.655          36.800

  23800048.602                   125070076.714 5     -2355.817          40.000
                  23800051.980    97457206.045 6     -1835.716          22.000

  23555944.281                   123787332.440 5      2725.548          40.500
                  23555945.020    96457662.573 7      2123.791          26.800

  24136009.039                   126835555.308 5     -2960.264          40.800
                  24136016.117    98832892.184 6     -2306.675          22.800

  21755297.398                   114324879.546 7      2446.495          49.500
                  21755300.277    89084326.867 8      1906.368          38.500

  21118817.180                   110980142.274 7     -1835.114          50.500
                  21118822.680    86478035.170 8     -1429.963          40.500

 18  7  1  0 13  0.0000000  0 11G01G08G10G11G14G18G20G22G27G31G32
  23348363.063                   122696485.286 6      3174.803          43.300
                  23348370.824    95607653.077 7      2473.875          27.500

  23575649.266                   123890847.803 6     -2150.552          43.000
                  23575656.406    96538318.533 7     -1675.755          28.800

  22073071.711                   115994773.336 6     -1675.681          47.000
                  22073076.313    90385532.900 8     -1305.719          36.500

  23272677.688                   122298745.874 7      1611.717          47.500
                  23272680.867    95297724.348 7      1255.891          32.000

  20084114.352                   105542745.401 7      -238.029          47.300
                  20084117.590    82241106.104 8      -185.475          39.500

  21714325.156                   114109551.903 7      2013.414          48.300
                  21714329.078    88916537.791 8      1568.892          36.500

  23802290.039                   125081858.240 5     -2356.665          40.300
                  23802294.238    97466386.447 6     -1836.363          22.500

  23553350.781                   123773705.103 5      2725.380          40.500
                  23553352.063    96447043.855 7      2123.679          27.000

  24138825.156                   126850356.179 5     -2960.148          40.800
                  24138832.957    98844425.337 6     -2306.607          21.300

  21752970.656                   114312653.096 7      2444.430          49.500
                  21752974.355    89074799.761 8      1904.750          38.800

  21120564.141                   110989322.014 7     -1836.532          50.000
                  21120569.422    86485188.215 8     -1431.068          41.000

 18  7  1  0 13  5.0000000  0 11G01G08G10G11G14G18G20G22G27G31G32
  23345343.547                   122680614.729 6      3173.605          43.000
                  23345350.125    95595286.410 7      2472.939          28.500

  23577696.586                   123901604.845 6     -2151.971          43.300
                  23577703.164    96546700.629 7     -1676.859          30.500

  22074666.672                   116003154.539 7     -1676.643          47.500
                  22074671.352    90392063.708 8     -1306.477          37.000

  23271145.406                   122290693.927 7      1609.481          47.300
                  23271148.746    95291450.106 7      1254.149          31.300

  20084342.586                   105543942.650 6      -240.431          47.000
                  20084345.285    82242039.032 8      -187.351          39.500

  21712410.336                   114099491.303 7      2011.215          48.500
                  21712414.535    88908698.363 8      1567.177          36.500

  23804532.602                   125093643.782 5     -2357.425          40.500
                  23804537.602    97475569.980 6     -1836.956          22.500

  23550756.781                   123760078.287 5      2725.343          41.000
                  23550759.043    96436425.573 6      2123.629          26.000

  24141641.602                   126865156.510 5     -2960.033          39.800
                  24141648.762    98855958.068 6     -2306.511          22.000

  21750645.813                   114300436.836 7      2442.443          49.000
                  21750649.992    89065280.610 8      1903.196          39.000

  21122312.320                   110998508.607 7     -1837.870          50.500
                  21122317.941    86492346.595 8     -1432.108          40.800

 18  7  1  0 13 10.0000000  0 11G01G08G10G11G14G18G20G22G27G31G32
  23342324.289                   122664750.552 5      3172.354          42.000
                  23342331.270    95582924.701 7      2471.977          27.500

  23579745.344                   123912369.251 6     -2153.445          43.500
                  23579751.945    96555088.472 7     -1677.999          29.300

  22076262.352                   116011540.764 7     -1677.620          48.300
                  22076266.992    90398598.431 8     -1307.236          37.000

  23269615.508                   122282653.366 7      1607.237          47.300
                  23269618.367    95285184.736 7      1252.396          32.500

  20084572.766                   105545152.157 7      -242.851          47.500
                  20084575.324    82242981.509 8      -189.237          39.500

  21710498.156                   114089441.967 7      2008.990          48.000
                  21710502.297    88900867.718 8      1565.442          36.800

  23806775.922                   125105433.430 5     -2358.242          40.500
                  23806781.102    97484756.703 6     -1837.564          23.500

  23548164.727                   123746452.085 5      2725.230          41.000
                  23548166.668    96425807.761 7      2123.545          27.000

  24144458.617                   126879956.238 5     -2959.878          39.500
                  24144465.816    98867490.309 6     -2306.378          22.500

  21748323.414                   114288230.750 7      2440.438          48.800
                  21748327.473    89055769.390 8      1901.634          39.300

  21124061.797                   111007702.089 7     -1839.226          50.500
                  21124067.695    86499510.343 8     -1433.161          40.500

 18  7  1  0 13 15.0000000  0 11G01G08G10G11G14G18G20G22G27G31G32
  23339306.969                   122648892.860 6      3171.004          43.000
                  23339313.891    95570568.062 7      2470.914          26.800

  23581794.703                   123923141.144 6     -2154.988          44.500
                  23581801.922    96563482.163 7     -1679.217          29.300

  22077859.516                   116019932.128 6     -1678.687          47.000
                  22077864.375    90405137.141 8     -1308.057          37.000

  23268087.547                   122274624.268 6      1604.888          46.500
                  23268090.785    95278928.298 7      1250.560          31.500

  20084805.211                   105546373.961 7      -245.363          47.500
                  20084808.051    82243933.562 8      -191.196          39.500

  21708587.875                   114079403.862 7      2006.727          47.800
                  21708592.336    88893045.813 8      1563.684          37.000

  23809020.000                   125117227.178 5     -2359.085          41.000
                  23809025.219    97493946.638 6     -1838.248          22.800

  23545572.047                   123732826.511 5      2725.056          42.000
                  23545573.445    96415190.443 7      2123.415          26.300

  24147274.758                   126894755.435 5     -2959.809          39.500
                  24147281.699    98879022.173 6     -2306.359          22.500

  21746003.094                   114276034.979 7      2438.318          49.500
                  21746006.355    89046266.201 8      1899.984          38.800

  21125812.078                   111016902.506 7     -1840.655          50.300
                  21125817.957    86506679.501 8     -1434.279          40.800

 18  7  1  0 13 20.0000000  0 11G01G08G10G11G14G18G20G22G27G31G32
  23336291.047                   122633041.471 6      3169.753          42.800
                  23336297.086    95558216.334 7      2469.932          27.000

  23583846.164                   123933920.436 6     -2156.469          43.500
                  23583853.344    96571881.607 7     -1680.372          28.500

  22079456.352                   116028328.445 6     -1679.688          47.000
                  22079462.031    90411679.722 8     -1308.838          36.300

  23266561.508                   122266606.492 6      1602.633          47.000
                  23266565.008    95272680.685 7      1248.799          31.800

  20085040.086                   105547607.979 7      -247.791          47.300
                  20085042.625    82244895.129 8      -193.077          39.500

  21706679.836                   114069376.886 7      2004.502          47.800
                  21706684.035    88885232.592 8      1561.947          36.800

  23811265.383                   125129024.922 5     -2359.887          41.000
                  23811270.664    97503139.685 6     -1838.877          22.000

  23542978.945                   123719201.460 5      2724.964          41.500
                  23542980.645    96404573.529 7      2123.353          26.300

  24150090.938                   126909553.959 5     -2959.667          40.000
                  24150097.418    98890553.449 6     -2306.226          24.000

  21743684.016                   114263849.364 7      2436.292          50.500
                  21743687.637    89036770.912 8      1898.406          38.500

  21127564.523                   111026109.685 7     -1841.995          50.300
                  21127570.203    86513853.920 8     -1435.319          40.800

 18  7  1  0 13 25.0000000  0 11G01G08G10G11G14G18G20G22G27G31G32
  23333275.469                   122617196.586 6      3168.442          43.300
                  23333282.469    95545869.654 7      2468.926          27.300

  23585897.742                   123944707.168 6     -2157.949          43.500
                  23585906.223    96580286.847 7     -1681.523          29.500

  22081055.258                   116036729.868 6     -1680.697          46.500
                  22081061.297    90418226.277 8     -1309.628          36.300

  23265038.430                   122258600.191 7      1600.355          47.500
                  23265041.230    95266442.004 7      1247.030          31.300

  20085276.805                   105548854.279 6      -250.234          46.500
                  20085280.145    82245866.284 8      -194.986          39.500

  21704774.039                   114059361.212 7      2002.247          48.000
                  21704778.480    88877428.172 8      1560.193          37.300

  23813511.523                   125140826.741 5     -2360.672          40.000
                  23813516.164    97512335.899 6     -1839.499          24.800

  23540386.906                   123705577.061 5      2724.831          41.800
                  23540387.887    96393957.109 7      2123.236          28.300

  24152906.617                   126924351.907 5     -2959.539          39.300
                  24152913.195    98902084.306 6     -2306.124          22.500

  21741366.578                   114251674.046 7      2434.232          50.300
                  21741370.238    89027283.639 8      1896.808          38.300

  21129318.000                   111035323.799 7     -1843.375          50.500
                  21129323.859    86521033.747 8     -1436.392          40.500

 18  7  1  0 13 30.0000000  0 11G01G08G10G11G14G18G20G22G27G31G32
  23330261.766                   122601358.079 6      3167.168          43.000
                  23330268.047    95533527.975 7      2467.911          27.000

  23587952.906                   123955501.243 6     -2159.420          43.000
                  23587960.465    96588697.787 7     -1682.653          29.300

  22082654.914                   116045136.329 7     -1681.714          47.500
                  22082661.234    90424776.766 8     -1310.428          36.300

  23263517.125                   122250605.345 6      1598.033          46.800
                  23263520.145    95260212.252 7      1245.226          32.000

  20085516.430                   105550112.842 6      -252.699          46.800
                  20085519.531    82246846.986 8      -196.916          40.000

  21702870.156                   114049356.715 7      1999.975          47.500
                  21702874.578    88869632.458 8      1558.428          36.300

  23815757.625                   125152632.661 5     -2361.524          40.300
                  23815763.023    97521535.320 6     -1840.144          22.800

  23537794.305                   123691953.242 6      2724.707          42.300
                  23537795.504    96383341.161 7      2123.132          28.000

  24155722.078                   126939149.246 4     -2959.436          39.000
                  24155729.457    98913614.694 6     -2306.060          22.500

  21739051.617                   114239508.977 7      2432.172          50.000
                  21739055.277    89017804.361 8      1895.195          38.800

  21131072.617                   111044544.738 7     -1844.749          50.500
                  21131078.398    86528218.897 8     -1437.471          41.000

 18  7  1  0 13 35.0000000  0 11G01G08G10G11G14G18G20G22G27G31G32
  23327249.023                   122585525.956 6      3165.886          43.000
                  23327255.684    95521191.257 7      2466.924          27.800

  23590007.844                   123966302.721 6     -2160.899          43.800
                  23590016.184    96597114.538 7     -1683.826          29.000

  22084255.234                   116053547.794 6     -1682.720          46.500
                  22084262.016    90431331.144 8     -1311.210          37.000

  23261997.547                   122242621.822 7      1595.768          47.300
                  23262000.988    95253991.331 7      1243.457          31.800

  20085758.352                   105551383.604 7      -255.153          47.300
                  20085761.273    82247837.188 8      -198.825          39.800

  21700968.633                   114039363.371 7      1997.754          48.500
                  21700973.055    88861845.439 8      1556.690          36.800

  23818005.398                   125164442.584 5     -2362.330          40.500
                  23818009.660    97530737.849 6     -1840.775          22.500

  23535201.766                   123678329.978 5      2724.586          42.000
                  23535203.207    96372725.628 7      2123.052          28.500

  24158538.320                   126953945.816 5     -2959.271          40.000
                  24158545.121    98925144.484 6     -2305.911          24.300

  21736738.758                   114227354.122 7      2430.128          49.500
                  21736742.457    89008333.049 8      1893.604          38.500

  21132828.641                   111053772.457 7     -1846.115          50.800
                  21132834.359    86535409.323 8     -1438.533          40.800

