     2.11           OBSERVATION DATA    G (GPS)             RINEX VERSION / TYPE
teqc  2019Feb25                         20240504 22:35:50UTCPGM / RUN BY / DATE
Linux 2.6.32-573.12.1.x86_64|x86_64|gcc -static|Linux 64|=+ COMMENT
BIT 2 OF LLI FLAGS DATA COLLECTED UNDER A/S CONDITION       COMMENT
Report gap > than       : 10.00 minute(s                    MARKER NAME
IOD slips >  10.0 deIOD or MP slips <  10.0*:      0        OBSERVER / AGENCY
other               TURBOROGUE          msec                REC # / TYPE / VERS
-Unknown-           -Unknown-                               ANT # / TYPE
        0.0000        0.0000        0.0000                  APPROX POSITION XYZ
        0.0000        0.0000        0.0000                  ANTENNA: DELTA H/E/N
     1     1                                                WAVELENGTH FACT L1/2
     7    L1    L2    C1    P2    P1    S1    S2            # / TYPES OF OBSERV
 SNR is mapped to RINEX snr flag value [0-9]                COMMENT
  L1 & L2: min(max(int(snr_dBHz/6), 0), 9)                  COMMENT
teqc edited: all GLONASS satellites excluded                COMMENT
  2047     4     6    17    18   54.0000000     GPS         TIME OF FIRST OBS
                                                            END OF HEADER
 47  4  6 17 18 54.0000000  0  1G32
         0.00116                                        -1.273  -127272727.273
        39.000          39.000
 47  4  6 20 31 39.0000000  0  1G32
    283683.42011         0.41311                     53984.200  -127218742.956
         6.500           6.500
 47  4  6 23 44 24.0000000  0  1G32
    567505.01311    221163.46411                    107996.171  -127164732.220
         9.000           6.500
 47  4  7  2 57  9.0000000  0  1G32
    851567.68311    442514.36711                    162054.017  -127110675.608
         9.000           6.500
 47  4  7  6  9 54.0000000  0  1G32
   1135354.97211    663650.68711                    216059.459  -127056671.399
        11.000           6.500
 47  4  7  9 22 39.0000000  0  1G32
   1419176.70011    884813.84311                    270071.456  -127002660.637
         9.000           6.500
 47  4  7 12 35 24.0000000  0  1G32
   1703101.74711   1106057.50611                    324103.113  -126948630.214
         9.000           6.500
 47  4  7 15 48  9.0000000  0  1G32
   1987164.55111   1327408.51311                    378160.984  -126894573.576
         9.000           6.500
 47  4  7 19  0 54.0000000  0  1G32
   2270951.97411   1548544.93811                    432166.453  -126840569.342
        11.000           6.500
 47  4  7 22 13 39.0000000  0  1G32
   2554808.27711   1769735.03511                    486185.028  -126786552.000
         9.000           6.500
 47  4  8  1 26 24.0000000  0  1G32
   2838836.77611   1991059.31111                    540236.372  -126732501.891
         9.000           6.500
 47  4  8  4 39  9.0000000  0  1G32
   3122658.77311   2212222.67611                    594248.419  -126678491.077
         9.000           6.500
 47  4  8  7 51 54.0000000  0  1G32
   3406515.21011   2433412.87811                    648267.020  -126624473.710
         9.000           6.500
 47  4  8 11  4 39.0000000  0  1G32
   4423796.85353   3226110.15954                    841855.1134
        19.9004         24.2004
 47  4  8 14 17 24.0000000  0  1G32
   4707030.7931    3446815.2981                     895754.384  -126376990.226
         3.000           3.000
 47  4  8 17 30  9.0000000  0  1G32
   5116422.44453   3765833.42853                    973662.9354
        22.6004         23.0004
 47  4  8 20 42 54.0000000  0  1G32
   6010895.64553   4462837.18253                   1143879.4354
        22.6004         23.0004
 47  4  8 23 55 39.0000000  0  1G32
   6294856.0521    4684108.4041                    1197917.361  -126074834.232
         3.000           3.000
 47  4  9  3  8 24.0000000  0  1G32
   6578644.2621    4905245.4481                    1251922.646  -126020829.769
         3.000           3.000
 47  4  9  6 21  9.0000000  0  1G32
   6862604.53511   5126516.56511                   1305960.546  -125966792.692
         9.000           9.000
 47  4  9  9 33 54.0000000  0  1G32
   7146392.6111    5347653.5041                    1359965.806  -125912788.254
         3.000           3.000
 47  4  9 12 46 39.0000000  0  1G32
   7430352.7491    5568924.5171                    1414003.680  -125858751.202
         3.000           3.000
 47  4  9 15 59 24.0000000  0  1G32
   7714140.6901    5790061.35011                   1468008.915  -125804746.790
         3.000           9.000
 47  4  9 19 12  9.0000000  0  1G32
   7998100.69311   6011332.25811                   1522046.763  -125750709.764
         9.000           9.000
 47  4  9 22 24 54.0000000  0  1G32
   8281888.5001    6232468.98711                   1576051.972  -125696705.378
         3.000          11.000
 47  4 10  1 37 39.0000000  0  1G32
   8565848.36911   6453739.79011                   1630089.795  -125642668.378
         9.000          11.000
 47  4 10  4 50 24.0000000  0  1G32
   8849636.04111   6674876.41411                   1684094.977  -125588664.017
         9.000           9.000
 47  4 10  8  3  9.0000000  0  1G32
   9133595.77511   6896147.11211                   1738132.775  -125534627.042
         9.000           9.000
 47  4 10 11 15 54.0000000  0  1G32
   9417383.31311   7117283.63111                   1792137.932  -125480622.708
         9.000           9.000
 47  4 10 14 28 39.0000000  0  1G32
   9701342.91311   7338554.22511                   1846175.703  -125426585.759
         9.000           9.000
 47  4 10 17 41 24.0000000  0  1G32
   9985130.31611   7559690.63911                   1900180.835  -125372581.450
         9.000           9.000
 47  4 10 20 54  9.0000000  0  1G32
  10269089.78111   7780961.12811                   1954218.580  -125318544.526
         9.000           9.000
 47  4 11  0  6 54.0000000  0  1G32
  10552877.05011   8002097.43711                   2008223.686  -125264540.243
         9.000           9.000
 47  4 11  3 19 39.0000000  0  1G32
  10836834.2281    8223366.1441                    2062260.997  -125210503.755
         3.000           3.000
 47  4 11  6 32 24.0000000  0  1G32
  11120619.2091    8444500.6711                    2116265.665  -125156499.908
         3.000           3.000
 47  4 11  9 45  9.0000000  0  1G32
  11403853.1601    8665205.8311                    2170165.349  -125102601.048
         3.000           3.000
 47  4 11 12 57 54.0000000  0  1G32
  11687087.1111    8885910.9781                    2224064.622  -125048702.596
         3.000           3.000
 47  4 11 16 10 39.0000000  0  1G32
  11970908.7051    9107074.0291                    2278076.593  -124994691.860
         3.000           3.000
 47  4 11 19 23 24.0000000  0  1G32
  12254971.3751    9328424.9321                    2332134.439  -124940635.248
         3.000           3.000
 47  4 11 22 36  9.0000000  0  1G32
  12538758.6641    9549561.2521                    2386139.882  -124886631.039
         3.000           3.000
 47  4 12  1 48 54.0000000  0  1G32
  12822580.3921    9770724.4071                    2440151.878  -124832620.277
         3.000           3.000
 47  4 12  5  1 39.0000000  0  1G32
  13106505.4391    9991968.0711                    2494183.535  -124778589.854
         3.000           3.000
 47  4 12  8 14 24.0000000  0  1G32
  13390568.2431   10213319.0781                    2548241.406  -124724533.216
         3.000           3.000
 47  4 12 11 27  9.0000000  0  1G32
  13674355.6661   10434455.5031                    2602246.875  -124670528.982
         3.000           3.000
 47  4 12 14 39 54.0000000  0  1G32
  13958211.9681   10655645.6001                    2656265.450  -124616511.640
         3.000           3.000
 47  4 12 17 52 39.0000000  0  1G32
  14242240.4681   10876969.8761                    2710316.794  -124562461.531
         3.000           3.000
 47  4 12 21  5 24.0000000  0  1G32
  14526062.4651   11098133.2411                    2764328.841  -124508450.717
         3.000           3.000
 47  4 13  0 18  9.0000000  0  1G32
  14809918.9021   11319323.4431                    2818347.442  -124454433.350
         3.000           3.000
 47  4 13  3 30 54.0000000  0  1G32
  15668611.14253  11988437.67954                   2981754.4834
        22.6004         24.2004
 47  4 13  6 43 39.0000000  0  1G32
  16527820.29853  12657954.70553                   3145261.9714
        22.6004         20.5004
 47  4 13  9 56 24.0000000  0  1G32
  17235795.3761   13209628.85911                   3279990.948  -123992796.909
         3.000           9.000
 47  4 13 13  9  9.0000000  0  1G32
  17519755.7831   13430900.0821                    3334028.874  -123938759.806
         3.000           3.000
 47  4 13 16 21 54.0000000  0  1G32
  17803543.9931   13652037.1251                    3388034.159  -123884755.343
         3.000           3.000
 47  4 13 19 34 39.0000000  0  1G32
  18087504.26611  13873308.24311                   3442072.059  -123830718.265
         9.000           9.000
 47  4 13 22 47 24.0000000  0  1G32
  18371292.3421   14094445.1811                    3496077.319  -123776713.828
         3.000           3.000
 47  4 14  2  0  9.0000000  0  1G32
  18655252.4801   14315716.1941                    3550115.193  -123722676.776
         3.000           3.000
 47  4 14  5 12 54.0000000  0  1G32
  18939040.4211   14536853.02711                   3604120.428  -123668672.364
         3.000           9.000
 47  4 14  8 25 39.0000000  0  1G32
  19223000.42411  14758123.93611                   3658158.276  -123614635.338
         9.000           9.000
 47  4 14 11 38 24.0000000  0  1G32
  19506788.2311   14979260.66411                   3712163.485  -123560630.952
         3.000          11.000
 47  4 14 14 51  9.0000000  0  1G32
  19790748.10011  15200531.46711                   3766201.308  -123506593.951
         9.000          11.000
 47  4 14 18  3 54.0000000  0  1G32
  20074535.77211  15421668.09111                   3820206.490  -123452589.591
         9.000           9.000
 47  4 14 21 16 39.0000000  0  1G32
  20358495.50611  15642938.79011                   3874244.288  -123398552.616
         9.000           9.000
 47  4 15  0 29 24.0000000  0  1G32
  20642283.04411  15864075.30911                   3928249.445  -123344548.281
         9.000           9.000
 47  4 15  3 42  9.0000000  0  1G32
  20926242.64411  16085345.90211                   3982287.216  -123290511.332
         9.000           9.000
 47  4 15  6 54 54.0000000  0  1G32
  21210030.04711  16306482.31711                   4036292.348  -123236507.023
         9.000           9.000
 47  4 15 10  7 39.0000000  0  1G32
  21493989.51211  16527752.80511                   4090330.093  -123182470.100
         9.000           9.000
 47  4 15 13 20 24.0000000  0  1G32
  21777776.78111  16748889.11511                   4144335.199  -123128465.816
         9.000           9.000
 47  4 15 16 33  9.0000000  0  1G32
  22061733.9591   16970157.8221                    4198372.510  -123074429.328
         3.000           3.000
 47  4 15 19 45 54.0000000  0  1G32
  22345518.9401   17191292.3491                    4252377.178  -123020425.482
         3.000           3.000
 47  4 15 22 58 39.0000000  0  1G32
  22628752.8911   17411997.5081                    4306276.862  -122966526.621
         3.000           3.000
 47  4 16  2 11 24.0000000  0  1G32
  22911986.8421   17632702.6551                    4360176.135  -122912628.170
         3.000           3.000
 47  4 16  5 24  9.0000000  0  1G32
  23195808.4361   17853865.7071                    4414188.106  -122858617.433
         3.000           3.000
 47  4 16  8 36 54.0000000  0  1G32
  23479871.1061   18075216.6091                    4468245.952  -122804560.821
         3.000           3.000
 47  4 16 11 49 39.0000000  0  1G32
  23763658.3951   18296352.9291                    4522251.394  -122750556.613
         3.000           3.000
 47  4 16 15  2 24.0000000  0  1G32
  24047480.1231   18517516.0851                    4576263.391  -122696545.850
         3.000           3.000
 47  4 16 18 15  9.0000000  0  1G32
  24331405.1691   18738759.7481                    4630295.048  -122642515.427
         3.000           3.000
 47  4 16 21 27 54.0000000  0  1G32
  24615467.9741   18960110.7551                    4684352.919  -122588458.790
         3.000           3.000
 47  4 17  0 40 39.0000000  0  1G32
  24899255.3971   19181247.1801                    4738358.388  -122534454.555
         3.000           3.000
 47  4 17  3 53 24.0000000  0  1G32
  25183111.6991   19402437.2771                    4792376.963  -122480437.214
         3.000           3.000
 47  4 17  7  6  9.0000000  0  1G32
  25467140.1991   19623761.5531                    4846428.307  -122426387.104
         3.000           3.000
 47  4 17 10 18 54.0000000  0  1G32
  25750962.1961   19844924.9191                    4900440.354  -122372376.291
         3.000           3.000
 47  4 17 13 31 39.0000000  0  1G32
  26034818.6331   20066115.1201                    4954458.955  -122318358.924
         3.000           3.000
 47  4 17 16 44 24.0000000  0  1G32
  26893510.87353  20735229.35654                   5117865.9714
        22.6004         24.2004
 47  4 17 19 57  9.0000000  0  1G32
  27752720.02953-499534739.61753                   5281373.4594
        22.6004         20.5004
 47  4 17 23  9 54.0000000  0  1G32
  28460695.1071 -498983065.56811                   5416102.435  -121856722.483
         3.000           9.000
 47  4 18  2 22 39.0000000  0  1G32
  28744655.5141 -498761794.3451                    5470140.361  -121802685.379
         3.000           3.000
 47  4 18  5 35 24.0000000  0  1G32
  29028443.7241 -498540657.3021                    5524145.647  -121748680.916
         3.000           3.000
 47  4 18  8 48  9.0000000  0  1G32
  29312403.99711-498319386.18411                   5578183.547  -121694643.839
         9.000           9.000
 47  4 18 12  0 54.0000000  0  1G32
  29596192.0731 -498098249.2461                    5632188.806  -121640639.401
         3.000           3.000
 47  4 18 15 13 39.0000000  0  1G32
  29880152.2111 -497876978.2331                    5686226.681  -121586602.349
         3.000           3.000
 47  4 18 18 26 24.0000000  0  1G32
  30163940.1521 -497655841.40011                   5740231.915  -121532597.937
         3.000           9.000
 47  4 18 21 39  9.0000000  0  1G32
  30447900.15511-497434570.49211                   5794269.764  -121478560.911
         9.000           9.000
 47  4 19  0 51 54.0000000  0  1G32
  30731687.9621 -497213433.76311                   5848274.972  -121424556.525
         3.000          11.000
 47  4 19  4  4 39.0000000  0  1G32
  31015647.83111-496992162.96011                   5902312.795  -121370519.525
         9.000          11.000
 47  4 19  7 17 24.0000000  0  1G32
  31299435.50311-496771026.33611                   5956317.978  -121316515.164
         9.000           9.000
 47  4 19 10 30  9.0000000  0  1G32
  31583395.23711-496549755.63711                   6010355.775  -121262478.189
         9.000           9.000
 47  4 19 13 42 54.0000000  0  1G32
  31867182.77511-496328619.11811                   6064360.932  -121208473.855
         9.000           9.000
 47  4 19 16 55 39.0000000  0  1G32
  32151142.37511-496107348.52511                   6118398.704  -121154436.906
         9.000           9.000
 47  4 19 20  8 24.0000000  0  1G32
  32434929.77811-495886212.11011                   6172403.835  -121100432.597
         9.000           9.000
 47  4 19 23 21  9.0000000  0  1G32
  32718889.24311-495664941.62211                   6226441.581  -121046395.673
         9.000           9.000
 47  4 20  2 33 54.0000000  0  1G32
  33002676.51111-495443805.31211                   6280446.686  -120992391.390
         9.000           9.000
 47  4 20  5 46 39.0000000  0  1G32
  33286633.6901 -495222536.6061                    6334483.997  -120938354.902
         3.000           3.000
 47  4 20  8 59 24.0000000  0  1G32
  33570418.6711 -495001402.0781                    6388488.666  -120884351.055
         3.000           3.000
 47  4 20 12 12  9.0000000  0  1G32
  33853652.6221 -494780696.9191                    6442388.349  -120830452.195
         3.000           3.000
 47  4 20 15 24 54.0000000  0  1G32
  34897490.99314-493967312.16513                   6641027.842  -120631813.762
        24.200          23.000
 47  4 20 18 37 39.0000000  0  1G32
  35181451.4001 -493746040.9421                    6695065.767  -120577776.658
         3.000           3.000
 47  4 20 21 50 24.0000000  0  1G32
  35465239.6101 -493524903.8991                    6749071.053  -120523772.195
         3.000           3.000
 47  4 21  1  3  9.0000000  0  1G32
  35749199.88311-493303632.78111                   6803108.953  -120469735.118
         9.000           9.000
 47  4 21  4 15 54.0000000  0  1G32
  36032987.9581 -493082495.8431                    6857114.213  -120415730.680
         3.000           3.000
 47  4 21  7 28 39.0000000  0  1G32
  36316948.0961 -492861224.8301                    6911152.087  -120361693.628
         3.000           3.000
 47  4 21 10 41 24.0000000  0  1G32
  36600736.0371 -492640087.99611                   6965157.321  -120307689.216
         3.000           9.000
 47  4 21 13 54  9.0000000  0  1G32
  36884696.04111-492418817.08811                   7019195.170  -120253652.190
         9.000           9.000
 47  4 21 17  6 54.0000000  0  1G32
  37168483.8471 -492197680.36011                   7073200.379  -120199647.804
         3.000          11.000
 47  4 21 20 19 39.0000000  0  1G32
  37452443.71611-491976409.55611                   7127238.201  -120145610.804
         9.000          11.000
 47  4 21 23 32 24.0000000  0  1G32
  37736231.38811-491755272.93211                   7181243.384  -120091606.443
         9.000           9.000
 47  4 22  2 45  9.0000000  0  1G32
  38020191.12311-491534002.23411                   7235281.181  -120037569.468
         9.000           9.000
 47  4 22  5 57 54.0000000  0  1G32
  38303978.66011-491312865.71511                   7289286.339  -119983565.134
         9.000           9.000
 47  4 22  9 10 39.0000000  0  1G32
  38587938.26011-491091595.12111                   7343324.110  -119929528.185
         9.000           9.000
 47  4 22 12 23 24.0000000  0  1G32
  38871725.66311-490870458.70711                   7397329.241  -119875523.876
         9.000           9.000
 47  4 22 15 36  9.0000000  0  1G32
  39155685.12911-490649188.21811                   7451366.987  -119821486.952
         9.000           9.000
 47  4 22 18 48 54.0000000  0  1G32
  39439472.39711-490428051.90911                   7505372.093  -119767482.669
         9.000           9.000
 47  4 22 22  1 39.0000000  0  1G32
  39723429.5751 -490206783.2021                    7559409.403  -119713446.181
         3.000           3.000
 47  4 23  1 14 24.0000000  0  1G32
  40007214.5571 -489985648.6751                    7613414.072  -119659442.334
         3.000           3.000
 47  4 23  4 27  9.0000000  0  1G32
  40290448.5081 -489764943.5161                    7667313.755  -119605543.474
         3.000           3.000
 47  4 23  7 39 54.0000000  0  1G32
  41334286.87814-488951558.76113                   7865953.248  -119406905.041
        24.200          23.000
 47  4 23 10 52 39.0000000  0  1G32
  41618247.2851 -488730287.5391                    7919991.174  -119352867.937
         3.000           3.000
 47  4 23 14  5 24.0000000  0  1G32
  41902035.4951 -488509150.4961                    7973996.460  -119298863.474
         3.000           3.000
 47  4 23 17 18  9.0000000  0  1G32
  42185995.76811-488287879.37811                   8028034.360  -119244826.397
         9.000           9.000
 47  4 23 20 30 54.0000000  0  1G32
  42469783.8441 -488066742.4401                    8082039.619  -119190821.959
         3.000           3.000
 47  4 23 23 43 39.0000000  0  1G32
  42753743.9821 -487845471.4271                    8136077.494  -119136784.907
         3.000           3.000
 47  4 24  2 56 24.0000000  0  1G32
  43037531.9231 -487624334.59311                   8190082.728  -119082780.495
         3.000           9.000
 47  4 24  6  9  9.0000000  0  1G32
  43321491.92611-487403063.68511                   8244120.577  -119028743.469
         9.000           9.000
 47  4 24  9 21 54.0000000  0  1G32
  43605279.7331 -487181926.95611                   8298125.785  -118974739.083
         3.000          11.000
 47  4 24 12 34 39.0000000  0  1G32
  43889239.60211-486960656.15311                   8352163.608  -118920702.083
         9.000          11.000
 47  4 24 15 47 24.0000000  0  1G32
  44173027.27411-486739519.52911                   8406168.791  -118866697.722
         9.000           9.000
 47  4 24 19  0  9.0000000  0  1G32
  44456987.00811-486518248.83111                   8460206.588  -118812660.747
         9.000           9.000
 47  4 24 22 12 54.0000000  0  1G32
  44740774.54611-486297112.31211                   8514211.745  -118758656.413
         9.000           9.000
 47  4 25  1 25 39.0000000  0  1G32
  45024734.14611-486075841.71811                   8568249.517  -118704619.464
         9.000           9.000
 47  4 25  4 38 24.0000000  0  1G32
  45308521.54911-485854705.30411                   8622254.648  -118650615.155
         9.000           9.000
 47  4 25  7 51  9.0000000  0  1G32
  45592481.01411-485633434.81511                   8676292.394  -118596578.231
         9.000           9.000
 47  4 25 11  3 54.0000000  0  1G32
  45876268.28211-485412298.50611                   8730297.499  -118542573.948
         9.000           9.000
 47  4 25 14 16 39.0000000  0  1G32
  46160225.4611 -485191029.7991                    8784334.810  -118488537.460
         3.000           3.000
 47  4 25 17 29 24.0000000  0  1G32
  46444010.4421 -484969895.2721                    8838339.479  -118434533.613
         3.000           3.000
 47  4 25 20 42  9.0000000  0  1G32
  46727244.3931 -484749190.1131                    8892239.162  -118380634.753
         3.000           3.000
