     2.11           OBSERVATION DATA    M (MIXED)           RINEX VERSION / TYPE
teqc  2019Feb25                         20240504 22:35:50UTCPGM / RUN BY / DATE
NEWE                                                        MARKER NAME
Newcastle East                                              MARKER NUMBER
CORSnet-NSW         NSW                                     OBSERVER / AGENCY
                    LEICA GR30                              REC # / TYPE / VERS
725070              LEIAR25.R4      LEIT                    ANT # / TYPE
 -4722484.6480  2533368.6920 -3446900.9220                  APPROX POSITION XYZ
        0.0000        0.0000        0.0000                  ANTENNA: DELTA H/E/N
     1     1                                                WAVELENGTH FACT L1/2
    14    C1    P1    L1    D1    S1    C2    P2    L2    D2# / TYPES OF OBSERV
          S2    C5    L5    D5    S5                        # / TYPES OF OBSERV
     5.0000                                                 INTERVAL
     0                                                      RCV CLOCK OFFS APPL
    18                                                      LEAP SECONDS
teqc edited: all GLONASS satellites excluded                COMMENT
  2018     7     1     0     0    0.0000000     GPS         TIME OF FIRST OBS
Linux 2.6.32-573.12.1.x86_64|x86_64|gcc -static|Linux 64|=+ COMMENT
TPP                 Reference Data Shop 04-JUL-18 01:00     COMMENT
                                                            END OF HEADER
 18  7  1  0  0  0.0000000  0 11G01G08G10G11G14G18G20G22G27G31G32
  23831416.766                   125234945.74217                        47.800
                  23831418.906    97585683.86419                        42.000

  23299642.086                   122440422.14017                        50.300
                  23299644.324    95408121.13819                        43.000

  21816398.359                   114645942.36218                        53.000
                  21816399.918    89334506.54919                        47.000

  23542575.781                   123717063.73317                        49.500
                  23542573.820    96402904.87618                        40.800

  20080371.766                   105523075.71417                        50.300
                  20080369.824    82225763.69719                        49.500

  22039904.711                   115820486.86317                        51.500
                  22039904.449    90249733.89119                        45.500

  23443875.961                   123198379.75617                        48.500
                  23443874.699    95998737.78918                        39.500

  23968180.805                   125953640.96217                        48.300
                  23968177.344    98145686.24719                        42.000

  23727968.625                   124691295.50416                        46.500
                  23727971.203    97162043.53719                        42.500

  22146184.852                   116378990.14418                        54.500
                  22146183.113    90684942.22819                        45.500

  20851918.102                   109577572.34018                        54.300
                  20851919.262    85385118.00019                        49.800

 18  7  1  0  0  5.0000000  0 11G01G08G10G11G14G18G20G22G27G31G32
  23828238.922                   125218245.836 7      3339.478          47.800
                  23828241.082    97572670.950 9      2602.188          41.500

  23301447.445                   122449909.245 7     -1898.334          50.300
                  23301449.645    95415513.681 9     -1479.217          42.800

  21817848.773                   114653564.323 8     -1524.906          53.000
                  21817850.313    89340445.737 9     -1188.245          47.500

  23540733.047                   123707380.205 7      1935.758          49.000
                  23540731.105    96395359.276 8      1508.385          41.000

  20080200.805                   105522177.365 7       178.506          50.300
                  20080198.863    82225063.686 9       139.095          48.800

  22037690.734                   115808852.209 7      2326.042          51.500
                  22037690.496    90240667.929 9      1812.498          45.000

  23446007.063                   123209578.630 7     -2240.232          48.000
                  23446005.824    96007464.179 8     -1745.631          38.500

  23965565.023                   125939894.924 7      2749.064          48.300
                  23965561.523    98134975.059 8      2142.132          40.800

  23730771.344                   124706024.063 6     -2945.965          46.000
                  23730773.965    97173520.334 9     -2295.555          43.500

  22143572.773                   116365263.568 8      2744.534          54.500
                  22143571.012    90674246.200 9      2138.600          45.300

  20853422.766                   109585479.267 8     -1582.170          54.300
                  20853423.906    85391279.235 9     -1232.858          49.500

 18  7  1  0  0 10.0000000  0 11G01G08G10G11G14G18G20G22G27G31G32
  23825061.945                   125201550.323 7      3338.779          47.300
                  23825064.086    97559661.459 9      2601.650          42.800

  23303254.547                   122459405.735 7     -1900.019          49.800
                  23303256.766    95422913.533 9     -1480.534          43.800

  21819300.133                   114661191.048 8     -1525.697          53.000
                  21819301.633    89346388.644 9     -1188.853          47.800

  23538892.227                   123697706.862 7      1933.871          48.500
                  23538890.285    96387821.610 9      1506.915          42.000

  20080032.305                   105521291.976 7       176.065          50.300
                  20080030.363    82224373.772 9       137.193          49.500

  22035478.594                   115797227.049 7      2324.305          51.300
                  22035478.332    90231609.366 9      1811.149          45.500

  23448138.867                   123220781.444 7     -2240.857          48.300
                  23448137.668    96016193.634 8     -1746.127          40.000

  23962949.281                   125926148.905 7      2749.227          48.500
                  23962945.680    98124263.873 8      2142.257          40.800

  23733574.359                   124720754.077 6     -2946.078          46.500
                  23733576.961    97184998.261 9     -2295.649          43.000

  22140962.234                   116351545.096 8      2743.068          54.300
                  22140960.453    90663556.491 9      2137.454          45.500

  20854928.984                   109593394.411 8     -1583.665          54.500
                  20854930.125    85397446.880 9     -1234.025          49.800

 18  7  1  0  0 15.0000000  0 11G01G08G10G11G14G18G20G22G27G31G32
  23821885.945                   125184859.960 7      3337.507          47.300
                  23821888.105    97546655.985 9      2600.659          43.300

  23305063.609                   122468912.359 7     -1902.291          49.500
                  23305065.809    95430321.297 9     -1482.305          43.300

  21820752.539                   114668823.262 8     -1527.034          53.300
                  21820753.980    89352335.818 9     -1189.895          47.300

  23537053.523                   123688044.504 7      1931.446          49.500
                  23537051.625    96380292.509 8      1505.023          40.300

  20079866.406                   105520420.284 7       173.090          50.500
                  20079864.465    82223694.529 9       134.876          49.000

  22033268.352                   115785612.067 8      2322.035          52.300
                  22033268.090    90222558.725 9      1809.382          45.500

  23450271.547                   123231988.892 7     -2242.029          48.300
                  23450270.387    96024926.727 8     -1747.038          40.000

  23960333.664                   125912403.590 7      2748.846          47.800
                  23960330.043    98113553.231 9      2141.956          42.500

  23736377.781                   124735486.309 6     -2946.766          46.500
                  23736380.480    97196477.916 9     -2296.177          42.300

  22138353.391                   116337835.544 8      2741.045          54.000
                  22138351.609    90652873.727 9      2135.877          45.500

  20856436.898                   109601318.522 8     -1585.683          54.500
                  20856438.039    85403621.511 9     -1235.595          49.800

 18  7  1  0  0 20.0000000  0 11G01G08G10G11G14G18G20G22G27G31G32
  23818710.602                   125168173.430 6      3337.029          46.800
                  23818712.801    97533653.509 9      2600.280          42.300

  23306874.344                   122478427.802 7     -1903.773          49.500
                  23306876.523    95437735.935 9     -1483.464          42.800

  21822205.734                   114676459.638 8     -1527.576          53.800
                  21822207.133    89358286.240 9     -1190.315          47.000

  23535216.688                   123678391.743 7      1929.828          50.000
                  23535214.746    96372770.868 8      1503.764          40.300

  20079702.867                   105519560.933 7       170.920          50.000
                  20079700.945    82223024.913 9       133.182          49.000

  22031059.836                   115774006.011 7      2320.526          52.000
                  22031059.555    90213515.047 9      1808.202          45.300

  23452404.867                   123243199.664 7     -2242.387          48.500
                  23452403.727    96033662.371 8     -1747.314          39.500

  23957717.883                   125898657.681 7      2749.264          47.500
                  23957714.305    98102842.146 9      2142.279          41.500

  23739181.383                   124750219.318 6     -2946.635          46.800
                  23739184.102    97207958.181 9     -2296.081          41.800

  22135745.992                   116324133.551 8      2739.823          54.000
                  22135744.191    90642196.852 9      2134.927          45.500

  20857946.266                   109609250.230 8     -1586.902          54.800
                  20857947.406    85409802.062 9     -1236.547          49.500

 18  7  1  0  0 25.0000000  0 11G01G08G10G11G14G18G20G22G27G31G32
  23815536.023                   125151490.989 6      3336.054          46.500
                  23815538.285    97520654.218 9      2599.519          42.800

  23308686.789                   122487952.283 7     -1905.728          49.800
                  23308688.969    95445157.597 9     -1484.981          42.800

  21823659.773                   114684100.417 8     -1528.608          53.800
                  21823661.133    89364240.088 9     -1191.123          47.000

  23533381.742                   123668748.892 7      1927.684          50.500
                  23533379.781    96365256.971 8      1502.089          40.800

  20079541.727                   105518714.205 7       168.237          50.300
                  20079539.785    82222365.125 9       131.092          49.000

  22028853.055                   115762409.089 7      2318.548          51.800
                  22028852.754    90204478.480 9      1806.661          45.500

  23454538.883                   123254414.041 7     -2243.256          48.500
                  23454537.723    96042400.848 8     -1747.992          38.500

  23955102.039                   125884911.459 7      2749.174          47.800
                  23955098.520    98092130.823 8      2142.208          41.000

  23741985.180                   124764953.395 7     -2947.006          47.500
                  23741987.918    97219439.280 9     -2296.370          42.000

  22133140.055                   116310439.388 8      2738.113          54.300
                  22133138.273    90631526.080 9      2133.594          45.800

  20859457.141                   109617189.795 8     -1588.642          54.500
                  20859458.262    85415988.740 9     -1237.903          49.500

 18  7  1  0  0 30.0000000  0 11G01G08G10G11G14G18G20G22G27G31G32
  23812362.680                   125134814.959 6      3334.935          46.300
                  23812364.918    97507659.905 9      2598.648          42.300

  23310501.367                   122497488.034 7     -1907.809          49.800
                  23310503.527    95452588.050 9     -1486.607          43.000

  21825115.094                   114691747.926 8     -1529.783          53.500
                  21825116.414    89370199.188 9     -1192.041          47.300

  23531549.141                   123659118.275 7      1925.392          50.500
                  23531547.121    96357752.587 8      1500.306          41.000

  20079383.445                   105517882.412 7       165.408          50.000
                  20079381.504    82221716.973 9       128.889          49.500

  22026648.453                   115750823.559 7      2316.430          52.000
                  22026648.133    90195450.793 9      1805.013          45.000

  23456674.047                   123265634.317 7     -2244.284          48.800
                  23456672.848    96051143.908 8     -1748.799          39.300

  23952486.539                   125871167.208 7      2748.938          47.800
                  23952483.059    98081421.015 8      2142.028          40.000

  23744789.664                   124779690.863 7     -2947.510          48.300
                  23744792.383    97230923.005 9     -2296.757          41.300

  22130536.070                   116296755.378 8      2736.258          54.300
                  22130534.270    90620863.217 9      2132.151          45.500

  20860969.945                   109625139.516 8     -1590.500          54.500
                  20860971.023    85422183.325 9     -1239.348          49.800

 18  7  1  0  0 35.0000000  0 11G01G08G10G11G14G18G20G22G27G31G32
  23809190.063                   125118142.831 6      3334.254          46.000
                  23809192.363    97494668.633 9      2598.124          42.800

  23312317.625                   122507032.642 7     -1909.470          49.800
                  23312319.805    95460025.396 9     -1487.896          43.300

  21826571.219                   114699399.657 8     -1530.532          53.500
                  21826572.520    89376161.574 9     -1192.622          47.500

  23529718.383                   123649497.322 7      1923.553          50.800
                  23529716.324    96350255.741 8      1498.871          41.000

  20079227.508                   105517062.970 7       163.043          50.000
                  20079225.566    82221078.449 9       127.044          49.500

  22024445.555                   115739247.008 7      2314.743          51.800
                  22024445.215    90186430.105 9      1803.698          45.300

  23458809.867                   123276857.982 7     -2244.856          48.800
                  23458808.586    96059889.619 8     -1749.241          38.500

  23949870.961                   125857422.437 7      2749.130          47.300
                  23949867.480    98070710.805 9      2142.181          41.500

  23747594.266                   124794429.133 7     -2947.581          47.800
                  23747597.004    97242407.373 9     -2296.810          41.500

  22127933.531                   116283079.009 8      2734.810          54.300
                  22127931.750    90610206.317 9      2131.019          45.500

  20862484.180                   109633096.848 8     -1591.926          54.300
                  20862485.238    85428383.844 9     -1240.460          49.800

 18  7  1  0  0 40.0000000  0 11G01G08G10G11G14G18G20G22G27G31G32
  23806017.742                   125101472.321 6      3333.666          46.500
                  23806020.082    97481678.629 9      2597.666          42.800

  23314135.086                   122516583.679 7     -1911.046          49.000
                  23314137.305    95467467.765 9     -1489.125          43.500

  21828027.695                   114707053.296 8     -1531.218          52.800
                  21828028.977    89382125.442 9     -1193.159          47.800

  23527889.063                   123639883.781 7      1921.782          50.500
                  23527886.922    96342764.664 8      1497.493          40.500

  20079073.484                   105516253.605 7       160.744          50.300
                  20079071.523    82220447.777 9       125.255          49.300

  22022243.891                   115727677.122 7      2313.125          52.000
                  22022243.551    90177414.612 9      1802.431          45.000

  23460945.867                   123288082.717 7     -2245.364          48.500
                  23460944.566    96068636.162 8     -1749.634          39.300

  23947254.844                   125843674.820 7      2749.419          47.300
                  23947251.363    98059998.385 8      2142.400          40.500

  23750398.602                   124809165.908 7     -2947.568          47.500
                  23750401.383    97253890.568 8     -2296.808          41.000

  22125332.016                   116269408.006 8      2733.444          54.000
                  22125330.234    90599553.597 9      2129.954          45.300

  20863999.422                   109641059.501 8     -1593.272          54.500
                  20864000.480    85434588.506 9     -1241.508          49.500

 18  7  1  0  0 45.0000000  0 11G01G08G10G11G14G18G20G22G27G31G32
  23802846.625                   125084808.110 6      3332.281          46.500
                  23802849.023    97468693.540 9      2596.583          41.800

  23315954.688                   122526145.807 7     -1913.395          49.300
                  23315956.906    95474918.784 9     -1490.963          42.800

  21829485.375                   114714713.529 8     -1532.644          53.000
                  21829486.695    89388094.449 9     -1194.268          47.800

  23526062.008                   123630282.334 7      1919.236          50.000
                  23526059.789    96335283.005 8      1495.513          40.800

  20078922.289                   105515459.052 7       157.646          50.300
                  20078920.328    82219828.644 9       122.841          49.300

  22020044.438                   115716118.614 8      2310.702          52.500
                  22020044.039    90168407.980 9      1800.545          45.000

  23463082.984                   123299313.206 7     -2246.638          49.000
                  23463081.625    96077387.182 8     -1750.625          38.500

  23944639.023                   125829929.016 7      2748.941          47.300
                  23944635.602    98049287.365 9      2142.032          41.500

  23753203.539                   124823905.867 7     -2948.324          48.500
                  23753206.277    97265376.234 8     -2297.394          41.000

  22122732.391                   116255747.105 8      2731.307          54.300
                  22122730.629    90588908.745 9      2128.292          45.300

  20865516.578                   109649032.149 8     -1595.395          54.800
                  20865517.617    85440800.955 9     -1243.163          49.800

 18  7  1  0  0 50.0000000  0 11G01G08G10G11G14G18G20G22G27G31G32
  23799676.641                   125068149.873 6      3331.135          46.800
                  23799679.063    97455713.102 9      2595.688          42.500

  23317776.328                   122535718.740 7     -1915.476          49.500
                  23317778.590    95482378.212 9     -1492.577          42.800

  21830944.273                   114722379.998 8     -1533.840          53.300
                  21830945.574    89394068.325 9     -1195.204          47.500

  23524237.141                   123620692.591 7      1916.971          50.500
                  23524234.879    96327810.482 8      1493.738          40.500

  20078773.805                   105514678.876 7       154.842          49.800
                  20078771.863    82219220.711 9       120.658          49.500

  22017847.055                   115704571.136 7      2308.561          51.500
                  22017846.613    90159409.939 9      1798.880          45.000

  23465221.125                   123310549.089 7     -2247.652          48.500
                  23465219.766    96086142.420 8     -1751.417          39.500

  23942023.523                   125816184.708 7      2748.715          47.300
                  23942020.125    98038577.518 8      2141.858          41.000

  23756009.039                   124838648.630 7     -2948.821          47.800
                  23756011.758    97276864.116 9     -2297.785          42.000

  22120134.633                   116242095.897 8      2729.426          54.300
                  22120132.895    90578271.446 9      2126.825          45.300

  20867035.578                   109657014.404 8     -1597.268          55.000
                  20867036.598    85447020.898 9     -1244.626          49.500

 18  7  1  0  0 55.0000000  0 11G01G08G10G11G14G18G20G22G27G31G32
  23796507.461                   125051495.583 6      3330.825          46.800
                  23796509.840    97442735.735 9      2595.450          42.000

  23319599.648                   122545300.351 7     -1916.735          49.800
                  23319601.887    95489844.395 9     -1493.555          43.500

  21832403.953                   114730050.652 8     -1534.176          52.800
                  21832405.293    89400045.456 9     -1195.462          47.800

  23522414.141                   123611112.575 7      1915.534          50.000
                  23522411.820    96320345.532 8      1492.626          41.000

  20078627.688                   105513911.047 7       152.869          50.000
                  20078625.746    82218622.403 9       119.119          49.000

  22015651.375                   115693032.526 7      2307.263          52.000
                  22015650.855    90150418.814 9      1797.865          45.000

  23467359.906                   123321788.362 7     -2247.841          48.300
                  23467358.547    96094900.283 8     -1751.561          39.300

  23939407.898                   125802439.842 7      2749.301          47.500
                  23939404.598    98027867.237 9      2142.314          41.500

  23758814.641                   124853392.129 7     -2948.485          47.500
                  23758817.320    97288352.540 9     -2297.519          41.800

  22117538.313                   116228452.356 8      2728.383          54.000
                  22117536.594    90567640.122 9      2126.013          45.500

  20868556.023                   109665004.220 8     -1598.280          55.000
                  20868557.023    85453246.729 9     -1245.415          49.800

 18  7  1  0  1  0.0000000  0 11G01G08G10G11G14G18G20G22G27G31G32
  23793339.141                   125034845.645 7      3329.538          47.300
                  23793341.461    97429761.757 9      2594.445          41.300

  23321424.703                   122554891.159 7     -1919.016          49.800
                  23321426.941    95497317.747 9     -1495.343          42.800

  21833864.492                   114737725.950 8     -1535.542          52.800
                  21833865.852    89406026.195 9     -1196.525          47.500

  23520593.086                   123601542.763 7      1913.038          50.300
                  23520590.766    96312888.547 8      1490.677          40.500

  20078483.984                   105513156.017 7       149.866          50.000
                  20078482.043    82218034.068 9       116.783          49.300

  22013457.477                   115681503.406 8      2304.958          52.500
                  22013456.918    90141435.089 9      1796.069          44.800

  23469499.422                   123333031.395 7     -2249.029          48.300
                  23469498.000    96103661.083 8     -1752.488          40.300

  23936792.305                   125788694.866 7      2748.893          47.300
                  23936789.086    98017156.858 9      2141.997          41.800

  23761620.500                   124868136.799 7     -2949.131          48.500
                  23761623.141    97299841.887 9     -2298.026          41.500

  22114943.570                   116214816.997 8      2726.310          54.300
                  22114941.852    90557015.181 9      2124.393          45.300

  20870077.984                   109673002.040 8     -1600.305          55.000
                  20870078.965    85459478.796 9     -1246.991          49.500

 18  7  1  0  1  5.0000000  0 11G01G08G10G11G14G18G20G22G27G31G32
  23790171.805                   125018200.816 7      3328.652          47.800
                  23790174.086    97416791.767 9      2593.755          41.500

  23323251.648                   122564491.783 7     -1920.826          49.800
                  23323253.848    95504798.751 9     -1496.750          42.500

  21835326.055                   114745406.557 8     -1536.465          52.800
                  21835327.434    89412011.084 9     -1197.245          47.500

  23518774.047                   123591983.746 7      1911.023          50.000
                  23518771.766    96305439.954 8      1489.109          40.800

  20078342.828                   105512414.455 7       147.317          50.000
                  20078340.949    82217456.231 9       114.788          49.300

  22011265.516                   115669984.403 7      2303.090          52.000
                  22011264.895    90132459.234 9      1794.620          45.300

  23471639.742                   123344278.910 7     -2249.781          48.800
                  23471638.344    96112425.393 8     -1753.072          39.300

  23934176.766                   125774950.402 7      2748.933          48.300
                  23934173.664    98006446.906 8      2142.023          40.500

  23764426.680                   124882883.314 7     -2949.370          47.500
                  23764429.340    97311332.674 9     -2298.208          42.300

  22112350.477                   116201190.443 8      2724.683          54.000
                  22112348.797    90546397.089 9      2123.130          45.300

  20871601.602                   109681008.520 8     -1601.903          54.800
                  20871602.543    85465717.612 9     -1248.236          49.500

 18  7  1  0  1 10.0000000  0 11G01G08G10G11G14G18G20G22G27G31G32
  23787005.266                   125001560.276 6      3327.770          46.500
                  23787007.484    97403825.098 9      2593.069          41.500

  23325080.266                   122574101.353 7     -1922.639          49.000
                  23325082.465    95512286.722 9     -1498.158          43.300

  21836788.453                   114753091.713 8     -1537.395          53.000
                  21836789.895    89417999.517 9     -1197.970          47.300

  23516956.945                   123582434.853 7      1908.968          50.000
                  23516954.684    96297999.261 8      1487.505          40.500

  20078204.070                   105511685.571 7       144.763          49.800
                  20078202.230    82216888.270 9       112.804          49.500

  22009075.336                   115658474.748 8      2301.175          52.300
                  22009074.695    90123490.668 9      1793.125          45.300

  23473780.805                   123355530.144 7     -2250.545          48.300
                  23473779.383    96121192.584 8     -1753.674          40.500

  23931561.242                   125761205.786 7      2748.943          48.800
                  23931558.184    97995736.814 9      2142.034          41.500

  23767233.063                   124897630.859 7     -2949.588          47.800
                  23767235.723    97322824.268 8     -2298.381          41.000

  22109758.938                   116187571.945 8      2723.060          54.300
                  22109757.277    90535785.279 9      2121.865          45.300

  20873126.703                   109689022.888 8     -1603.500          54.500
                  20873127.645    85471962.572 9     -1249.483          49.800

 18  7  1  0  1 15.0000000  0 11G01G08G10G11G14G18G20G22G27G31G32
  23783839.523                   124984924.237 6      3326.797          46.500
                  23783841.785    97390861.971 9      2592.302          41.800

  23326910.648                   122583720.176 7     -1924.557          48.800
                  23326912.887    95519781.902 9     -1499.655          43.800

  21838251.773                   114760781.582 8     -1538.393          53.000
                  21838253.234    89423991.617 9     -1198.748          47.300

  23515141.820                   123572896.209 7      1906.845          49.800
                  23515139.539    96290566.548 8      1485.853          40.500

  20078067.766                   105510969.510 7       142.125          49.300
                  20078065.965    82216330.298 9       110.747          49.300

  22006886.938                   115646974.620 7      2299.209          51.800
                  22006886.297    90114529.533 9      1791.594          45.300

  23475922.547                   123366785.218 7     -2251.370          48.300
                  23475921.188    96129962.760 8     -1754.310          39.800

  23928945.742                   125747461.080 7      2748.914          48.500
                  23928942.703    97985026.648 8      2142.011          40.800

  23770039.703                   124912379.615 7     -2949.914          47.500
                  23770042.305    97334316.793 9     -2298.632          42.300

  22107168.953                   116173961.714 8      2721.325          54.000
                  22107167.313    90525179.916 9      2120.511          45.800

  20874653.320                   109697045.304 8     -1605.169          54.000
                  20874654.242    85478213.803 9     -1250.779          49.800

 18  7  1  0  1 20.0000000  0 11G01G08G10G11G14G18G20G22G27G31G32
  23780674.422                   124968291.845 6      3326.193          46.500
                  23780676.762    97377901.667 9      2591.843          41.500

  23328742.563                   122593347.246 7     -1926.049          48.300
                  23328744.863    95527283.519 9     -1500.818          44.000

  21839715.836                   114768475.304 8     -1539.024          52.800
                  21839717.316    89429986.712 9     -1199.237          47.300

  23513328.445                   123563366.943 7      1905.124          49.800
                  23513326.184    96283141.148 8      1484.514          41.000

  20077933.750                   105510265.445 7       139.881          49.500
                  20077931.969    82215781.676 9       108.994          49.300

  22004700.195                   115635483.158 7      2297.638          51.500
                  22004699.535    90105575.143 9      1790.369          45.500

  23478064.883                   123378043.280 7     -2251.812          48.300
                  23478063.563    96138735.273 8     -1754.656          39.500

  23926330.039                   125733715.413 7      2749.211          48.300
                  23926327.039    97974315.742 8      2142.236          40.800

  23772846.398                   124927128.669 7     -2949.814          47.300
                  23772848.957    97345809.553 9     -2298.559          41.800

  22104580.414                   116160358.854 8      2720.004          53.800
                  22104578.754    90514580.289 9      2119.481          45.500

  20876181.305                   109705074.880 8     -1606.462          54.300
                  20876182.203    85484470.613 9     -1251.786          50.300

 18  7  1  0  1 25.0000000  0 11G01G08G10G11G14G18G20G22G27G31G32
  23777510.422                   124951665.299 6      3324.743          47.000
                  23777512.820    97364945.917 9      2590.707          41.800

  23330576.508                   122602984.781 7     -1928.459          48.300
                  23330578.887    95534793.297 9     -1502.699          44.500

  21841181.055                   114776175.089 8     -1540.553          52.800
                  21841182.535    89435986.543 9     -1200.427          47.500

  23511517.266                   123553849.310 7      1902.494          49.500
                  23511515.004    96275724.802 8      1482.465          39.800

  20077802.430                   105509575.559 7       136.741          49.800
                  20077800.691    82215244.102 9       106.550          49.300

  22002515.555                   115624002.656 7      2295.116          52.000
                  22002514.895    90096629.301 9      1788.404          45.800

  23480208.227                   123389306.598 7     -2253.204          48.300
                  23480206.906    96147511.882 8     -1755.744          39.300

  23923714.578                   125719971.091 7      2748.652          49.000
                  23923711.637    97963605.887 9      2141.804          41.800

  23775653.563                   124941880.234 7     -2950.603          47.500
                  23775656.121    97357304.275 9     -2299.169          42.300

  22101993.672                   116146765.589 8      2717.781          53.800
                  22101992.012    90503988.140 9      2117.751          45.500

  20877711.063                   109713113.836 8     -1608.643          54.500
                  20877711.961    85490734.729 9     -1253.486          50.000

 18  7  1  0  1 30.0000000  0 11G01G08G10G11G14G18G20G22G27G31G32
  23774347.398                   124935043.803 6      3323.715          46.800
                  23774349.820    97351994.106 9      2589.904          42.500

  23332412.266                   122612632.038 7     -1930.401          48.800
                  23332414.727    95542310.630 9     -1504.202          43.300

  21842647.258                   114783880.083 8     -1541.594          52.800
                  21842648.738    89441990.438 9     -1201.240          47.500

  23509708.125                   123544342.449 7      1900.323          48.800
                  23509705.906    96268316.860 8      1480.767          40.500

  20077673.648                   105508899.005 7       134.066          50.000
                  20077671.949    82214716.911 9       104.465          49.000

  22000332.813                   115612532.235 8      2293.108          52.300
                  22000332.172    90087691.315 9      1786.838          45.300

  23482352.383                   123400574.274 7     -2254.069          48.300
                  23482351.043    96156291.871 8     -1756.413          39.000

  23921099.242                   125706227.203 7      2748.539          49.300
                  23921096.301    97952896.364 9      2141.718          41.500

  23778461.039                   124956633.480 6     -2950.957          47.000
                  23778463.598    97368800.316 9     -2299.445          42.300

  22099408.617                   116133181.114 8      2716.021          54.000
                  22099406.977    90493402.846 9      2116.380          45.000

  20879242.445                   109721161.308 8     -1610.353          54.800
                  20879243.344    85497005.491 9     -1254.818          49.500

 18  7  1  0  1 35.0000000  0 11G01G08G10G11G14G18G20G22G27G31G32
  23771185.578                   124918428.448 7      3322.740          47.500
                  23771188.000    97339047.090 9      2589.146          42.300

  23334250.125                   122622290.107 7     -1932.316          48.800
                  23334252.625    95549836.396 9     -1505.697          44.000

  21844114.680                   114791591.432 8     -1542.605          52.800
                  21844116.141    89447999.274 9     -1202.028          47.500

  23507901.242                   123534847.467 7      1898.208          49.000
                  23507899.043    96260918.181 8      1479.125          40.500

  20077547.625                   105508236.923 7       131.428          50.300
                  20077545.965    82214201.011 9       102.414          49.300

  21998152.211                   115601073.007 7      2291.125          52.000
                  21998151.570    90078762.039 9      1785.294          45.500

  23484497.625                   123411847.450 7     -2254.912          47.800
                  23484496.266    96165076.170 8     -1757.080          40.000

  23918484.242                   125692484.943 7      2748.494          49.300
                  23918481.320    97942188.101 9      2141.684          41.500

  23781269.039                   124971389.473 7     -2951.246          47.300
                  23781271.578    97380298.481 9     -2299.677          41.800

  22096825.438                   116119606.554 8      2714.289          54.300
                  22096823.816    90482825.270 9      2115.028          45.300

  20880775.680                   109729218.384 8     -1612.008          54.500
                  20880776.539    85503283.735 9     -1256.115          49.800

 18  7  1  0  1 40.0000000  0 11G01G08G10G11G14G18G20G22G27G31G32
  23768024.539                   124901817.178 7      3321.918          47.800
                  23768027.039    97326103.240 9      2588.506          42.300

  23336089.586                   122631956.724 7     -1934.016          49.000
                  23336092.164    95557368.819 9     -1507.021          43.500

  21845582.898                   114799307.007 8     -1543.462          52.800
                  21845584.320    89454011.403 9     -1202.698          47.500

  23506096.227                   123525362.283 7      1896.248          48.800
                  23506094.027    96253527.125 8      1477.594          40.800

  20077423.969                   105507587.174 7       128.948          50.000
                  20077422.328    82213694.710 9       100.479          49.300

  21995973.336                   115589622.834 8      2289.293          52.300
                  21995972.695    90069839.828 9      1783.865          45.500

  23486643.484                   123423124.002 7     -2255.587          48.300
                  23486642.086    96173863.092 8     -1757.599          39.300

  23915869.125                   125678742.198 7      2748.570          49.300
                  23915866.246    97931479.489 9      2141.743          41.800

  23784077.164                   124986146.117 7     -2951.385          47.300
                  23784079.684    97391797.163 9     -2299.781          42.800

  22094243.758                   116106039.815 8      2712.712          54.300
                  22094242.137    90472253.786 9      2113.802          45.300

  20882310.344                   109737282.987 8     -1613.522          54.800
                  20882311.184    85509567.838 9     -1257.292          49.800

 18  7  1  0  1 45.0000000  0 11G01G08G10G11G14G18G20G22G27G31G32
  23764864.422                   124885210.546 7      3320.846          48.300
                  23764866.941    97313163.013 9      2587.674          41.800

  23337930.805                   122641632.424 7     -1935.950          49.500
                  23337933.406    95564908.321 9     -1508.534          43.000

  21847052.039                   114807027.368 8     -1544.550          52.800
                  21847053.438    89460027.264 9     -1203.543          47.300

  23504293.203                   123515887.464 7      1894.041          49.800
                  23504291.004    96246144.160 8      1475.876          39.800

  20077302.766                   105506950.282 7       126.247          50.300
                  20077301.145    82213198.434 9        98.374          49.000

  21993796.258                   115578182.291 7      2287.272          52.000
                  21993795.637    90060925.115 9      1782.286          45.500

  23488790.102                   123434404.487 7     -2256.497          48.500
                  23488788.723    96182653.082 8     -1758.307          39.500

  23913254.039                   125664999.508 7      2748.447          49.000
                  23913251.117    97920770.889 9      2141.649          41.800

  23786885.500                   125000903.946 7     -2951.743          47.500
                  23786887.980    97403296.770 9     -2300.059          42.500

  22091663.672                   116092481.479 8      2710.905          54.300
                  22091662.070    90461688.859 9      2112.389          45.000

  20883846.523                   109745355.662 8     -1615.290          54.800
                  20883847.363    85515858.236 9     -1258.668          49.800

 18  7  1  0  1 50.0000000  0 11G01G08G10G11G14G18G20G22G27G31G32
  23761705.125                   124868608.118 7      3320.179          48.500
                  23761707.645    97300226.058 9      2587.150          42.000

  23339773.727                   122651316.908 7     -1937.566          49.800
                  23339776.367    95572454.670 9     -1509.787          43.000

  21848522.016                   114814752.100 8     -1545.272          53.000
                  21848523.355    89466046.535 9     -1204.112          47.500

  23502492.125                   123506422.612 7      1892.204          50.000
                  23502489.906    96238768.942 8      1474.453          40.500

  20077183.930                   105506325.876 7       123.914          50.000
                  20077182.328    82212711.882 9        96.554          49.500

  21991620.938                   115566751.018 7      2285.554          52.000
                  21991620.336    90052017.633 9      1780.951          45.500

  23490937.406                   123445688.514 7     -2257.069          48.300
                  23490936.047    96191445.829 8     -1758.757          39.000

  23910638.805                   125651256.400 7      2748.678          48.800
                  23910635.926    97910061.994 9      2141.823          41.500

  23789693.984                   125015662.487 7     -2951.746          48.000
                  23789696.465    97414796.930 9     -2300.063          41.500

  22089085.094                   116078931.113 8      2709.457          54.300
                  22089083.516    90451130.144 9      2111.263          45.300

  20885384.141                   109753435.912 8     -1616.633          54.800
                  20885384.980    85522154.533 9     -1259.714          49.800

 18  7  1  0  1 55.0000000  0 11G01G08G10G11G14G18G20G22G27G31G32
  23758546.602                   124852009.671 7      3319.296          48.500
                  23758549.082    97287292.201 9      2586.464          41.300

  23341618.227                   122661009.716 7     -1939.305          49.300
                  23341620.867    95580007.507 9     -1511.147          43.300

  21849992.797                   114822480.920 8     -1546.155          53.000
                  21849994.059    89472068.998 9     -1204.798          47.300

  23500692.906                   123496967.471 7      1890.181          49.500
                  23500690.668    96231401.295 8      1472.868          41.000

  20077067.406                   105505713.683 7       121.407          49.800
                  20077065.867    82212234.849 9        94.601          49.000

  21989447.352                   115555328.746 8      2283.676          52.300
                  21989446.750    90043117.164 9      1779.487          45.800

  23493085.305                   123456975.771 7     -2257.768          47.800
                  23493083.926    96200241.077 8     -1759.296          39.800

  23908023.445                   125637512.695 7      2748.728          48.000
                  23908020.605    97899352.616 9      2141.866          42.000

  23792502.563                   125030421.504 7     -2951.895          47.800
                  23792505.063    97426297.456 9     -2300.176          41.300

  22086507.977                   116065388.464 8      2707.849          54.000
                  22086506.438    90440577.445 9      2110.008          45.000

  20886923.180                   109761523.533 8     -1618.175          54.800
                  20886924.020    85528456.573 9     -1260.916          49.800

 18  7  1  0  2  0.0000000  0 11G01G08G10G11G14G18G20G22G27G31G32
  23755389.242                   124835417.382 7      3318.111          48.500
                  23755391.664    97274363.143 9      2585.541          42.300

  23343464.703                   122670713.152 7     -1941.405          49.500
                  23343467.363    95587568.620 9     -1512.783          43.000

  21851464.773                   114830216.032 8     -1547.382          53.300
                  21851465.953    89478096.346 9     -1205.746          47.300

  23498895.945                   123487524.222 7      1887.843          49.800
                  23498893.684    96224042.914 8      1471.048          40.800

  20076953.625                   105505115.834 7       118.564          49.800
                  20076952.105    82211768.992 9        92.388          49.500

  21987275.914                   115543917.702 8      2281.466          52.300
                  21987275.293    90034225.437 9      1777.766          45.500

  23495234.266                   123468268.469 7     -2258.827          47.800
                  23495232.867    96209040.589 8     -1760.129          39.500

  23905408.359                   125623770.557 7      2748.447          48.000
                  23905405.598    97888644.458 9      2141.651          42.500

  23795311.602                   125045183.132 7     -2952.392          47.500
                  23795314.121    97437800.032 9     -2300.569          41.500

  22083932.734                   116051855.741 8      2705.886          53.500
                  22083931.234    90430032.470 9      2108.483          45.500

  20888464.000                   109769620.675 8     -1620.046          54.300
                  20888464.840    85534766.028 9     -1262.371          49.800

 18  7  1  0  2  5.0000000  0 11G01G08G10G11G14G18G20G22G27G31G32
  23752232.563                   124818828.833 7      3317.257          48.800
                  23752234.961    97261437.003 9      2584.880          41.500

  23345312.805                   122680424.846 7     -1943.144          49.500
                  23345315.445    95595136.172 9     -1514.136          43.300

  21852937.492                   114837955.020 8     -1548.262          53.300
                  21852938.594    89484126.727 9     -1206.440          47.000

  23497100.781                   123478090.417 7      1885.848          49.800
                  23497098.520    96216691.904 9      1469.488          41.800

  20076842.125                   105504529.926 7       116.065          49.800
                  20076840.645    82211312.438 9        90.441          49.300

  21985106.172                   115532515.444 8      2279.595          52.300
                  21985105.492    90025340.555 9      1776.310          44.800

  23497383.766                   123479564.215 7     -2259.547          47.300
                  23497382.406    96217842.460 8     -1760.680          40.800

  23902793.141                   125610027.572 7      2748.520          48.000
                  23902790.402    97877935.641 9      2141.706          42.300

  23798120.703                   125059944.997 7     -2952.542          48.000
                  23798123.203    97449302.768 9     -2300.680          41.300

  22081358.938                   116038330.512 8      2704.283          53.300
                  22081357.457    90419493.337 9      2107.234          45.500

  20890006.180                   109777724.910 8     -1621.554          54.800
                  20890007.039    85541081.020 9     -1263.553          49.500

 18  7  1  0  2 10.0000000  0 11G01G08G10G11G14G18G20G22G27G31G32
  23749077.000                   124802245.993 7      3316.374          48.500
                  23749079.379    97248515.312 9      2584.188          42.000

  23347162.805                   122690146.594 7     -1944.883          49.800
                  23347165.426    95602711.550 9     -1515.490          43.000

  21854411.313                   114845699.787 8     -1549.156          53.300
                  21854412.371    89490161.611 9     -1207.132          47.000

  23495307.781                   123468668.012 7      1883.833          50.000
                  23495305.543    96209349.773 8      1467.926          41.000

  20076733.250                   105503957.852 7       113.561          49.800
                  20076731.789    82210866.665 9        88.491          49.500

  21982938.477                   115521123.828 8      2277.735          52.500
                  21982937.738    90016463.967 9      1774.860          45.300

  23499534.203                   123490864.895 7     -2260.272          47.500
                  23499532.883    96226648.181 8     -1761.251          40.500

  23900178.125                   125596285.607 7      2748.565          48.000
                  23900175.406    97867227.617 9      2141.739          41.800

  23800930.180                   125074708.922 7     -2952.699          47.300
                  23800932.719    97460807.123 9     -2300.801          41.800

  22078786.891                   116024814.716 8      2702.662          53.300
                  22078785.492    90408961.556 9      2105.969          45.800

  20891550.078                   109785838.138 8     -1623.102          54.800
                  20891550.918    85547403.014 9     -1264.755          49.500

 18  7  1  0  2 15.0000000  0 11G01G08G10G11G14G18G20G22G27G31G32
  23745922.383                   124785668.224 7      3315.257          48.500
                  23745924.742    97235597.562 8      2583.322          40.500

  23349014.625                   122699877.863 7     -1946.899          49.500
                  23349017.227    95610294.357 9     -1517.066          43.000

  21855886.133                   114853449.771 8     -1550.301          53.800
                  21855887.133    89496200.550 9     -1208.025          46.800

  23493516.820                   123459256.406 7      1881.579          50.300
                  23493514.602    96202016.044 8      1466.169          40.500

  20076626.891                   105503398.998 7       110.839          50.000
                  20076625.449    82210431.191 9        86.366          49.500

  21980772.656                   115509742.335 7      2275.596          51.300
                  21980771.895    90007595.273 9      1773.192          45.300

  23501685.461                   123502169.943 7     -2261.255          47.300
                  23501684.160    96235457.305 8     -1762.015          39.500

  23897563.180                   125582544.094 7      2748.391          48.300
                  23897560.520    97856519.960 9      2141.604          41.300

  23803739.945                   125089474.337 7     -2953.083          47.500
                  23803742.484    97472312.637 8     -2301.108          41.000

  22076216.555                   116011307.777 8      2700.791          53.300
                  22076215.195    90398436.670 9      2104.513          45.300

  20893095.578                   109793959.772 8     -1624.881          54.500
                  20893096.398    85553731.564 9     -1266.143          49.500

 18  7  1  0  2 20.0000000  0 11G01G08G10G11G14G18G20G22G27G31G32
  23742768.703                   124769095.435 7      3314.325          48.000
                  23742771.043    97222683.702 9      2582.591          42.300

  23350868.227                   122709618.366 7     -1948.683          49.500
                  23350870.766    95617884.351 9     -1518.452          43.300

  21857361.898                   114861204.769 8     -1551.250          53.800
                  21857362.879    89502243.399 9     -1208.768          47.300

  23491727.883                   123449855.421 7      1879.505          49.800
                  23491725.684    96194690.599 9      1464.550          41.500

  20076523.047                   105502853.260 7       108.259          50.000
                  20076521.586    82210005.937 9        84.360          49.500

  21978608.695                   115498370.828 7      2273.644          51.500
                  21978607.934    89998734.356 9      1771.672          45.300

  23503837.484                   123513479.160 7     -2262.020          47.300
                  23503836.285    96244269.676 8     -1762.613          40.500

  23894948.305                   125568802.930 7      2748.381          48.300
                  23894945.727    97845812.552 8      2141.594          40.500

  23806549.922                   125104241.079 6     -2953.283          46.800
                  23806552.480    97483819.174 9     -2301.251          41.500

  22073647.852                   115997809.532 8      2699.107          53.300
                  22073646.570    90387918.564 9      2103.198          45.300

  20894642.664                   109802089.614 8     -1626.457          54.800
                  20894643.465    85560066.504 9     -1267.371          49.800

 18  7  1  0  2 25.0000000  0 11G01G08G10G11G14G18G20G22G27G31G32
  23739615.984                   124752527.803 7      3313.034          47.800
                  23739618.305    97209773.865 9      2581.583          41.500

  23352723.609                   122719368.383 7     -1950.866          49.500
                  23352726.129    95625481.762 9     -1520.151          42.800

  21858838.656                   114868965.001 8     -1552.542          53.300
                  21858839.617    89508290.337 9     -1209.771          47.300

  23489940.961                   123440465.298 7      1877.096          49.000
                  23489938.820    96187373.624 9      1462.672          41.300

  20076421.688                   105502320.785 7       105.350          49.800
                  20076420.266    82209591.020 9        82.093          49.500

  21976446.656                   115487009.551 7      2271.347          51.800
                  21976445.918    89989881.409 9      1769.881          45.300

  23505990.383                   123524792.760 7     -2263.152          47.500
                  23505989.203    96253085.454 8     -1763.495          39.500

  23892333.523                   125555062.276 7      2748.005          48.300
                  23892330.984    97835105.557 8      2141.305          40.300

  23809360.180                   125119009.318 6     -2953.861          46.000
                  23809362.859    97495326.910 9     -2301.714          42.300

  22071080.875                   115984320.237 8      2697.060          53.500
                  22071079.637    90377407.437 9      2101.607          45.300

  20896191.320                   109810227.885 8     -1628.409          54.500
                  20896192.102    85566408.016 9     -1268.892          49.500

 18  7  1  0  2 30.0000000  0 11G01G08G10G11G14G18G20G22G27G31G32
  23736464.203                   124735965.240 7      3312.125          47.800
                  23736466.582    97196867.978 9      2580.873          41.500

  23354580.789                   122729127.758 7     -1952.624          49.500
                  23354583.289    95633086.473 9     -1521.527          43.500

  21860316.375                   114876730.366 8     -1553.486          53.000
                  21860317.355    89514341.272 9     -1210.508          47.300

  23488156.102                   123431085.924 7      1875.026          49.300
                  23488154.023    96180065.029 9      1461.057          41.500

  20076322.867                   105501801.488 7       102.815          50.000
                  20076321.445    82209186.373 9        80.115          49.300

  21974286.516                   115475658.325 7      2269.442          51.300
                  21974285.816    89981036.306 9      1768.397          45.000

  23508144.102                   123536110.638 7     -2263.896          47.500
                  23508142.941    96261904.569 8     -1764.072          39.500

  23889718.805                   125541322.011 7      2748.026          48.300
                  23889716.266    97824398.867 8      2141.319          40.300

  23812170.703                   125133778.900 6     -2953.992          47.000
                  23812173.422    97506835.648 8     -2301.810          40.800

  22068515.555                   115970839.760 8      2695.397          53.000
                  22068514.375    90366903.175 9      2100.309          44.800

  20897741.539                   109818374.453 8     -1629.975          54.300
                  20897742.320    85572755.991 9     -1270.109          49.500

 18  7  1  0  2 35.0000000  0 11G01G08G10G11G14G18G20G22G27G31G32
  23733313.320                   124719407.196 7      3311.279          47.300
                  23733315.680    97183965.597 8      2580.220          41.000

  23356439.625                   122738895.929 7     -1954.279          49.500
                  23356442.105    95640698.026 9     -1522.813          42.800

  21861794.953                   114884500.299 8     -1554.316          53.300
                  21861795.934    89520395.762 9     -1211.157          47.300

  23486373.164                   123421716.761 7      1873.060          49.300
                  23486371.125    96172764.387 8      1459.527          40.500

  20076226.445                   105501294.811 7       100.379          49.800
                  20076225.023    82208791.557 9        78.220          49.000

  21972128.211                   115464316.679 7      2267.621          51.500
                  21972127.551    89972198.660 9      1766.978          45.000

  23510298.508                   123547432.257 7     -2264.573          47.500
                  23510297.406    96270726.602 8     -1764.603          40.300

  23887104.039                   125527581.570 7      2748.152          48.300
                  23887101.520    97813692.026 8      2141.419          40.300

  23814981.359                   125148549.320 6     -2954.100          46.000
                  23814984.141    97518345.060 9     -2301.892          43.000

  22065951.813                   115957367.563 8      2693.831          53.300
                  22065950.691    90356405.371 9      2099.087          44.800

  20899293.219                   109826528.742 8     -1631.421          54.300
                  20899294.020    85579109.982 9     -1271.239          49.500

 18  7  1  0  2 40.0000000  0 11G01G08G10G11G14G18G20G22G27G31G32
  23730163.242                   124702853.576 6      3310.215          46.800
                  23730165.602    97171066.667 8      2579.393          40.500

  23358300.109                   122748672.688 7     -1956.171          49.800
                  23358302.590    95648316.280 9     -1524.287          43.300

  21863274.375                   114892274.662 8     -1555.380          52.500
                  21863275.355    89526453.709 9     -1211.984          47.500

  23484592.125                   123412357.656 7      1870.869          48.800
                  23484590.184    96165471.584 9      1457.820          42.300

  20076132.406                   105500800.596 7        97.712          49.800
                  20076130.984    82208406.456 9        76.135          49.300

  21969971.711                   115452984.463 7      2265.562          51.500
                  21969971.070    89963368.356 9      1765.377          45.300

  23512453.602                   123558757.447 6     -2265.459          47.000
                  23512452.523    96279551.417 8     -1765.293          39.800

  23884489.203                   125513840.832 7      2748.026          48.300
                  23884486.742    97802984.955 8      2141.319          41.000

  23817792.164                   125163320.392 6     -2954.413          46.500
                  23817795.023    97529854.982 9     -2302.137          41.300

  22063389.656                   115943903.536 8      2692.013          53.300
                  22063388.578    90345913.939 9      2097.670          45.000

  20900846.344                   109834690.645 8     -1633.128          54.300
                  20900847.184    85585469.901 9     -1272.570          49.500

 18  7  1  0  2 45.0000000  0 11G01G08G10G11G14G18G20G22G27G31G32
  23727014.164                   124686305.307 6      3309.267          46.000
                  23727016.523    97158171.926 9      2578.645          42.300

  23360162.430                   122758459.067 7     -1958.000          49.500
                  23360164.910    95655942.034 9     -1525.716          42.800

  21864754.813                   114900054.437 8     -1556.326          52.800
                  21864755.832    89532515.870 9     -1212.722          47.500

  23482813.164                   123403009.646 7      1868.759          48.500
                  23482811.344    96158187.419 9      1456.178          41.500

  20076040.906                   105500319.815 7        95.132          49.800
                  20076039.484    82208031.824 9        74.127          49.300

  21967817.211                   115441662.576 7      2263.591          51.000
                  21967816.570    89954546.104 9      1763.837          45.300

  23514609.563                   123570087.159 6     -2266.247          46.800
                  23514608.523    96288379.752 8     -1765.905          40.500

  23881874.539                   125500100.825 7      2747.997          48.300
                  23881872.117    97792278.470 8      2141.299          41.000

  23820603.203                   125178093.053 6     -2954.612          45.500
                  23820606.164    97541366.143 9     -2302.299          42.500

  22060829.211                   115930448.696 8      2690.281          53.300
                  22060828.191    90335429.656 9      2096.319          45.300

  20902401.063                   109842861.069 8     -1634.731          54.000
                  20902401.961    85591836.465 9     -1273.819          49.500

 18  7  1  0  2 50.0000000  0 11G01G08G10G11G14G18G20G22G27G31G32
  23723866.039                   124669762.256 6      3308.352          46.000
                  23723868.520    97145281.241 9      2577.933          41.300

  23362026.523                   122768254.800 7     -1959.710          50.000
                  23362028.984    95663575.065 9     -1527.043          43.000

  21866236.234                   114907839.456 8     -1557.248          53.000
                  21866237.313    89538582.113 9     -1213.438          47.500

  23481036.320                   123393672.544 7      1866.746          47.800
                  23481034.559    96150911.756 9      1454.607          41.800

  20075951.945                   105499852.248 7        92.638          50.300
                  20075950.523    82207667.484 9        72.188          49.300

  21965664.672                   115430350.894 7      2261.709          52.000
                  21965664.012    89945731.802 9      1762.371          45.300

  23516766.344                   123581421.196 6     -2266.957          46.500
                  23516765.383    96297211.463 8     -1766.460          40.500

  23879259.945                   125486361.238 7      2748.079          48.300
                  23879257.605    97781572.303 8      2141.360          41.000

  23823414.523                   125192867.110 6     -2954.725          46.800
                  23823417.523    97552878.374 9     -2302.379          41.300

  22058270.477                   115917002.763 8      2688.644          53.000
                  22058269.516    90324952.313 9      2095.043          44.800

  20903957.383                   109851039.843 8     -1636.237          54.000
                  20903958.324    85598209.534 9     -1274.992          49.500

 18  7  1  0  2 55.0000000  0 11G01G08G10G11G14G18G20G22G27G31G32
  23720718.766                   124653223.752 6      3307.417          46.000
                  23720721.285    97132394.106 9      2577.206          41.500

  23363892.305                   122778059.341 7     -1961.542          49.800
                  23363894.746    95671214.956 9     -1528.472          43.300

  21867718.516                   114915629.048 8     -1558.223          52.800
                  21867719.656    89544651.920 9     -1214.196          47.800

  23479261.422                   123384345.668 7      1864.610          47.800
                  23479259.762    96143644.069 9      1452.941          41.500

  20075865.391                   105499397.294 7        90.048          50.000
                  20075863.949    82207312.972 9        70.167          49.300

  21963513.977                   115419048.871 7      2259.681          51.000
                  21963513.297    89936925.033 9      1760.792          45.300

  23518923.844                   123592758.985 6     -2267.769          46.000
                  23518922.945    96306046.108 8     -1767.096          41.000

  23876645.344                   125472621.572 7      2748.021          47.300
                  23876643.004    97770866.069 8      2141.315          40.800

  23826226.078                   125207641.921 6     -2954.959          46.800
                  23826229.098    97564391.220 9     -2302.570          41.500

  22055713.352                   115903565.193 8      2686.918          52.800
                  22055712.410    90314481.490 9      2093.700          45.800

  20905515.180                   109859226.340 8     -1637.850          53.800
                  20905516.180    85604588.618 9     -1276.247          49.500

 18  7  1  0  3  0.0000000  0 11G01G08G10G11G14G18G20G22G27G31G32
  23717572.281                   124636689.201 6      3306.542          45.500
                  23717574.820    97119510.052 9      2576.526          42.300

  23365759.609                   122787871.934 7     -1963.216          49.500
                  23365762.031    95678861.133 9     -1529.774          43.300

  21869201.555                   114923422.578 8     -1559.056          52.500
                  21869202.754    89550724.801 9     -1214.849          47.300

  23477488.383                   123375028.403 7      1862.653          49.300
                  23477486.781    96136383.863 9      1451.422          42.000

  20075781.109                   105498954.268 7        87.609          50.000
                  20075779.668    82206967.761 9        68.269          49.300

  21961364.938                   115407755.799 7      2257.868          51.500
                  21961364.316    89928125.233 9      1759.378          45.500

  23521081.883                   123604099.851 6     -2268.459          46.300
                  23521081.082    96314883.136 8     -1767.627          41.000

  23874030.563                   125458881.128 7      2748.110          47.800
                  23874028.203    97760159.238 8      2141.387          39.800

  23829037.578                   125222416.834 6     -2955.014          46.500
                  23829040.637    97575904.129 9     -2302.604          41.800

  22053157.672                   115890135.277 8      2685.328          52.800
                  22053156.773    90304016.627 9      2092.462          45.300

  20907074.320                   109867419.862 8     -1639.306          54.300
                  20907075.340    85610973.183 9     -1277.381          49.300

 18  7  1  0  3  5.0000000  0 11G01G08G10G11G14G18G20G22G27G31G32
  23714427.000                   124620160.908 6      3305.257          46.000
                  23714429.559    97106630.859 9      2575.527          41.500

  23367628.906                   122797694.970 7     -1965.328          50.000
                  23367631.305    95686515.442 9     -1531.420          42.800

  21870685.797                   114931222.344 8     -1560.346          53.300
                  21870687.035    89556802.534 9     -1215.852          47.000

  23475717.602                   123365723.060 7      1860.206          48.500
                  23475716.102    96129132.946 9      1449.514          41.500

  20075699.531                   105498525.444 7        84.745          50.300
                  20075698.070    82206633.615 9        66.033          49.300

  21959218.031                   115396473.914 7      2255.611          52.000
                  21959217.453    89919334.161 9      1757.619          45.500

  23523240.984                   123615446.061 6     -2269.561          46.800
                  23523240.203    96323724.334 8     -1768.489          40.300

  23871416.102                   125445142.145 7      2747.792          48.300
                  23871413.660    97749453.531 8      2141.139          39.800

  23831849.625                   125237194.083 6     -2955.516          47.000
                  23831852.684    97587418.859 9     -2303.001          41.300

  22050603.914                   115876715.372 8      2683.281          52.800
                  22050603.055    90293559.570 9      2090.871          45.300

  20908635.219                   109875622.707 8     -1641.208          54.300
                  20908636.297    85617365.008 9     -1278.859          49.300

 18  7  1  0  3 10.0000000  0 11G01G08G10G11G14G18G20G22G27G31G32
  23711282.703                   124603637.395 6      3304.471          47.000
                  23711285.242    97093755.400 8      2574.913          40.800

  23369499.883                   122807526.871 7     -1966.941          50.000
                  23369502.262    95694176.662 9     -1532.684          42.800

  21872170.914                   114939026.870 8     -1561.137          53.300
                  21872172.215    89562883.975 9     -1216.468          47.000

  23473948.805                   123356428.124 7      1858.288          48.300
                  23473947.406    96121890.147 9      1448.019          42.500

  20075620.367                   105498109.410 7        82.328          50.300
                  20075618.926    82206309.427 9        64.154          49.300

  21957073.031                   115385201.910 7      2253.748          51.800
                  21957072.473    89910550.784 9      1756.165          45.000

  23525400.820                   123626796.196 7     -2270.202          47.300
                  23525400.082    96332568.600 8     -1768.988          39.300

  23868801.703                   125431403.225 7      2747.939          47.800
                  23868799.102    97738747.865 8      2141.258          39.800

  23834661.781                   125251972.220 6     -2955.542          46.800
                  23834664.902    97598934.286 9     -2303.020          41.300

  22048051.758                   115863304.044 8      2681.729          52.800
                  22048050.977    90283109.186 9      2089.657          45.300

  20910197.641                   109883833.401 8     -1642.619          54.300
                  20910198.719    85623762.951 9     -1279.963          49.300

 18  7  1  0  3 15.0000000  0 11G01G08G10G11G14G18G20G22G27G31G32
  23708139.180                   124587118.021 6      3303.462          46.800
                  23708141.660    97080883.160 9      2574.125          41.800

  23371372.406                   122817366.922 7     -1968.768          50.000
                  23371374.746    95701844.234 9     -1534.107          42.800

  21873656.813                   114946835.493 8     -1562.159          52.800
                  21873658.172    89568968.610 9     -1217.265          47.300

  23472181.922                   123347142.970 7      1856.152          49.300
                  23472180.500    96114654.958 9      1446.350          41.800

  20075543.508                   105497705.398 7        79.737          50.300
                  20075542.066    82205994.614 9        62.135          49.300

  21954929.797                   115373939.076 7      2251.717          51.000
                  21954929.258    89901774.550 9      1754.585          44.500

  23527561.281                   123638149.540 7     -2271.027          47.300
                  23527560.582    96341415.339 8     -1769.627          39.800

  23866187.164                   125417663.693 7      2747.866          47.800
                  23866184.465    97728041.734 8      2141.196          40.300

  23837473.984                   125266750.546 6     -2955.768          46.800
                  23837477.145    97610449.869 9     -2303.198          41.500

  22045501.117                   115849900.579 8      2679.950          52.800
                  22045500.418    90272664.940 9      2088.271          45.300

  20911761.398                   109892051.270 8     -1644.245          54.300
                  20911762.520    85630166.485 9     -1281.230          49.000

 18  7  1  0  3 20.0000000  0 11G01G08G10G11G14G18G20G22G27G31G32
  23704996.602                   124570603.599 6      3302.456          46.800
                  23704999.063    97068014.782 9      2573.340          42.300

  23373246.609                   122827215.930 7     -1970.538          49.800
                  23373248.949    95709518.782 9     -1535.482          42.500

  21875143.617                   114954649.005 8     -1563.110          52.800
                  21875145.059    89575057.057 9     -1218.004          47.500

  23470417.047                   123337868.413 7      1854.053          48.800
                  23470415.688    96107428.037 9      1444.716          42.000

  20075469.109                   105497314.289 7        77.183          50.300
                  20075467.668    82205689.850 9        60.143          49.000

  21952788.438                   115362686.106 7      2249.767          51.800
                  21952787.898    89893005.993 9      1753.066          44.800

  23529722.508                   123649506.915 6     -2271.807          47.000
                  23529721.828    96350265.241 8     -1770.239          39.500

  23863572.625                   125403924.351 7      2747.853          48.000
                  23863569.926    97717335.761 8      2141.182          40.300

  23840286.398                   125281529.879 7     -2955.947          47.800
                  23840289.520    97621966.214 8     -2303.333          41.000

  22042952.133                   115836505.854 8      2678.226          53.000
                  22042951.492    90262227.498 9      2086.929          45.300

  20913326.703                   109900277.093 8     -1645.817          54.500
                  20913327.824    85636576.213 9     -1282.450          49.000

 18  7  1  0  3 25.0000000  0 11G01G08G10G11G14G18G20G22G27G31G32
  23701854.961                   124554094.261 6      3301.321          46.800
                  23701857.441    97055150.365 9      2572.460          42.500

  23375122.523                   122837073.951 7     -1972.459          49.300
                  23375124.844    95717200.348 9     -1536.979          43.300

  21876631.359                   114962467.563 8     -1564.256          52.300
                  21876632.898    89581149.434 9     -1218.897          47.500

  23468654.188                   123328604.569 7      1851.777          49.300
                  23468652.867    96100209.456 9      1442.943          41.800

  20075397.172                   105496936.184 7        74.440          50.500
                  20075395.750    82205395.223 9        58.001          49.300

  21950648.992                   115351443.283 7      2247.629          51.300
                  21950648.453    89884245.352 9      1751.399          44.800

  23531884.523                   123660868.485 7     -2272.779          47.500
                  23531883.902    96359118.401 8     -1770.991          40.500

  23860958.141                   125390185.328 7      2747.632          47.800
                  23860955.461    97706630.034 8      2141.014          40.000

  23843099.039                   125296310.318 7     -2956.307          47.500
                  23843102.199    97633483.435 9     -2303.614          41.300

  22040404.852                   115823119.954 8      2676.319          52.800
                  22040404.250    90251796.937 9      2085.443          45.500

  20914893.523                   109908510.997 8     -1647.574          54.300
                  20914894.684    85642992.243 9     -1283.826          49.300

 18  7  1  0  3 30.0000000  0 11G01G08G10G11G14G18G20G22G27G31G32
  23698714.461                   124537590.709 7      3300.194          47.500
                  23698716.922    97042290.460 9      2571.575          41.800

  23377000.305                   122846941.773 7     -1974.419          49.300
                  23377002.605    95724889.570 9     -1538.509          43.500

  21878120.195                   114970291.838 7     -1565.373          51.800
                  21878121.816    89587246.265 9     -1219.769          47.800

  23466893.523                   123319352.151 7      1849.510          49.300
                  23466892.242    96092999.787 9      1441.176          42.000

  20075327.852                   105496571.782 7        71.731          50.300
                  20075326.430    82205111.271 9        55.899          49.800

  21948511.594                   115340211.247 7      2245.521          51.500
                  21948511.074    89875493.118 9      1749.759          46.000

  23534047.461                   123672234.912 6     -2273.720          47.000
                  23534046.859    96367975.344 8     -1771.730          40.800

  23858343.883                   125376447.357 7      2747.461          47.800
                  23858341.164    97695925.135 8      2140.879          40.800

  23845912.039                   125311092.496 7     -2956.625          47.500
                  23845915.199    97645002.013 8     -2303.865          40.800

  22037859.352                   115809743.619 8      2674.450          52.800
                  22037858.832    90241373.825 9      2083.987          45.500

  20916462.023                   109916753.678 8     -1649.290          54.300
                  20916463.223    85649415.109 9     -1285.159          49.300

 18  7  1  0  3 35.0000000  0 11G01G08G10G11G14G18G20G22G27G31G32
  23695574.859                   124521092.094 7      3299.271          47.300
                  23695577.320    97029434.397 9      2570.861          42.500

  23378879.766                   122856818.515 7     -1976.111          49.800
                  23378882.086    95732585.725 9     -1539.829          43.500

  21879609.914                   114978120.958 7     -1566.255          52.000
                  21879611.676    89593346.862 9     -1220.457          48.000

  23465134.867                   123310110.244 7      1847.494          49.500
                  23465133.629    96085798.302 9      1439.604          41.800

  20075260.945                   105496220.165 7        69.251          50.300
                  20075259.523    82204837.279 9        53.964          49.300

  21946376.031                   115328989.079 7      2243.587          51.000
                  21946375.551    89866748.582 9      1748.246          45.500

  23536211.125                   123683605.282 6     -2274.442          47.000
                  23536210.586    96376835.377 9     -1772.293          41.300

  23855729.680                   125362709.512 7      2747.509          47.800
                  23855726.820    97685220.300 8      2140.916          40.300

  23848725.203                   125325875.584 7     -2956.740          47.500
                  23848728.305    97656521.290 9     -2303.949          42.000

  22035315.516                   115796375.949 8      2672.785          52.800
                  22035315.074    90230957.469 9      2082.687          45.800

  20918032.023                   109925004.223 8     -1650.791          54.500
                  20918033.242    85655844.107 9     -1286.332          49.500

 18  7  1  0  3 40.0000000  0 11G01G08G10G11G14G18G20G22G27G31G32
  23692436.164                   124504598.078 7      3298.370          47.800
                  23692438.625    97016581.914 9      2570.159          43.500

  23380760.906                   122866703.912 7     -1977.838          50.000
                  23380763.207    95740288.640 9     -1541.176          43.300

  21881100.539                   114985954.642 7     -1567.183          51.800
                  21881102.398    89599451.037 9     -1221.184          48.300

  23463378.203                   123300878.629 7      1845.427          50.800
                  23463376.965    96078604.842 9      1437.997          42.800

  20075196.445                   105495881.057 7        66.749          50.500
                  20075195.004    82204573.038 9        52.013          49.500

  21944242.297                   115317776.557 7      2241.664          51.000
                  21944241.875    89858011.556 9      1746.749          45.000

  23538375.547                   123694979.367 6     -2275.183          47.000
                  23538375.008    96385698.284 8     -1772.866          40.300

  23853115.398                   125348971.483 7      2747.540          47.500
                  23853112.500    97674515.335 8      2140.944          40.500

  23851538.445                   125340659.244 7     -2956.854          47.300
                  23851541.566    97668041.019 9     -2304.040          42.300

  22032773.313                   115783016.689 8      2671.106          53.000
                  22032772.891    90220547.665 9      2081.379          45.800

  20919603.461                   109933262.333 8     -1652.296          54.500
                  20919604.742    85662279.002 9     -1287.505          49.500

 18  7  1  0  3 45.0000000  0 11G01G08G10G11G14G18G20G22G27G31G32
  23689298.344                   124488108.693 7      3297.603          48.300
                  23689300.824    97003733.045 9      2569.565          43.000

  23382643.664                   122876597.759 7     -1979.359          50.000
                  23382645.902    95747998.116 9     -1542.354          43.000

  21882592.016                   114993792.766 8     -1567.895          52.500
                  21882593.957    89605558.656 9     -1221.732          48.000

  23461623.484                   123291657.190 7      1843.551          50.300
                  23461622.246    96071419.315 9      1436.531          41.800

  20075134.289                   105495554.378 7        64.424          50.500
                  20075132.848    82204318.484 9        50.203          49.800

  21942110.375                   115306573.662 7      2239.919          51.300
                  21942109.996    89849282.023 9      1745.394          45.300

  23540540.641                   123706357.039 6     -2275.732          46.800
                  23540540.102    96394564.007 9     -1773.304          41.500

  23850501.102                   125335233.223 7      2747.777          48.000
                  23850498.141    97663810.197 8      2141.125          39.000

  23854351.844                   125355443.348 7     -2956.756          47.800
                  23854354.863    97679561.080 9     -2303.962          42.000

  22030232.672                   115769665.780 8      2669.600          53.000
                  22030232.313    90210144.367 9      2080.206          46.000

  20921176.320                   109941527.918 8     -1653.613          54.500
                  20921177.660    85668719.719 9     -1288.531          49.500

 18  7  1  0  3 50.0000000  0 11G01G08G10G11G14G18G20G22G27G31G32
  23686161.500                   124471624.556 7      3296.402          47.800
                  23686164.000    96990888.273 9      2568.627          42.500

  23384528.164                   122886500.802 7     -1981.351          50.800
                  23384530.363    95755714.772 9     -1543.908          42.800

  21884084.492                   115001636.062 8     -1569.083          52.800
                  21884086.492    89611670.313 9     -1222.662          47.500

  23459870.867                   123282446.657 7      1841.228          51.300
                  23459869.586    96064242.271 9      1434.725          41.800

  20075074.648                   105495240.828 7        61.660          51.000
                  20075073.188    82204074.160 9        48.049          49.000

  21939980.453                   115295381.025 7      2237.689          51.000
                  21939980.074    89840560.494 9      1743.647          44.800

  23542706.547                   123717739.007 7     -2276.750          47.500
                  23542706.008    96403433.075 8     -1774.084          40.800

  23847886.859                   125321495.422 7      2747.509          48.300
                  23847883.898    97653105.417 8      2140.920          39.500

  23857165.461                   125370228.653 6     -2957.182          47.000
                  23857168.402    97691082.093 9     -2304.293          42.300

  22027693.797                   115756323.915 8      2667.637          53.000
                  22027693.438    90199748.119 9      2078.674          45.800

  20922750.742                   109949801.690 8     -1655.412          54.500
                  20922752.102    85675166.817 9     -1289.928          49.300

 18  7  1  0  3 55.0000000  0 11G01G08G10G11G14G18G20G22G27G31G32
  23683025.727                   124455145.837 7      3295.191          48.500
                  23683028.246    96978047.711 9      2567.679          43.500

  23386414.406                   122896413.042 7     -1983.327          50.500
                  23386416.586    95763438.587 9     -1545.443          43.000

  21885578.016                   115009484.657 8     -1570.257          52.800
                  21885580.035    89617786.100 9     -1223.575          47.300

  23458120.344                   123273247.148 7      1838.908          51.500
                  23458118.984    96057073.810 9      1432.919          41.800

  20075017.547                   105494940.514 7        58.888          50.800
                  20075016.066    82203840.151 9        45.887          49.300

  21937852.555                   115284198.822 7      2235.474          51.500
                  21937852.113    89831847.085 9      1741.927          44.500

  23544873.305                   123729125.405 7     -2277.764          48.000
                  23544872.785    96412305.580 8     -1774.879          40.000

  23845272.742                   125307758.210 7      2747.272          48.300
                  23845269.820    97642401.111 8      2140.728          39.800

  23859979.320                   125385015.180 7     -2957.523          47.800
                  23859982.141    97702604.062 9     -2304.566          41.500

  22025156.617                   115742991.247 8      2665.685          52.500
                  22025156.336    90189359.035 9      2077.155          46.000

  20924326.766                   109958083.741 8     -1657.207          54.500
                  20924328.145    85681620.363 9     -1291.330          49.500

 18  7  1  0  4  0.0000000  0 11G01G08G10G11G14G18G20G22G27G31G32
  23679890.867                   124438672.060 7      3294.647          48.300
                  23679893.426    96965211.002 9      2567.262          43.000

  23388302.320                   122906334.058 7     -1984.632          50.500
                  23388304.480    95771169.240 9     -1546.467          42.300

  21887072.438                   115017338.068 8     -1570.809          52.800
                  21887074.516    89623905.631 9     -1224.003          47.300

  23456371.781                   123264058.169 7      1837.221          50.800
                  23456370.402    96049913.575 9      1431.603          41.500

  20074962.852                   105494652.932 7        56.749          50.800
                  20074961.352    82203616.057 9        44.222          49.300

  21935726.516                   115273026.551 7      2233.929          51.500
                  21935726.055    89823141.417 9      1740.724          44.500

  23547040.805                   123740515.713 7     -2278.103          47.500
                  23547040.305    96421181.141 8     -1775.143          39.800

  23842658.625                   125294021.072 7      2747.698          48.000
                  23842655.766    97631696.843 8      2141.063          40.000

  23862793.344                   125399802.490 7     -2957.266          47.500
                  23862796.063    97714126.643 9     -2304.359          41.800

  22022621.117                   115729667.257 8      2664.366          52.800
                  22022620.898    90178976.713 9      2076.127          46.000

  20925904.242                   109966373.560 8     -1658.332          54.300
                  20925905.664    85688079.958 9     -1292.204          49.300

 18  7  1  0  4  5.0000000  0 11G01G08G10G11G14G18G20G22G27G31G32
  23676756.820                   124422202.603 7      3293.270          48.500
                  23676759.461    96952377.669 9      2566.181          43.300

  23390191.766                   122916263.171 7     -1986.763          49.800
                  23390193.906    95778906.216 9     -1548.129          42.800

  21888567.695                   115025195.668 8     -1572.162          53.000
                  21888569.797    89630028.436 9     -1225.059          47.500

  23454625.125                   123254879.125 7      1834.730          50.800
                  23454623.703    96042761.083 9      1429.656          41.300

  20074910.445                   105494377.442 7        53.843          50.800
                  20074908.906    82203401.389 9        41.956          48.800

  21933602.258                   115261863.613 8      2231.551          52.300
                  21933601.758    89814443.020 9      1738.871          44.300

  23549208.961                   123751909.371 7     -2279.293          47.800
                  23549208.461    96430059.303 8     -1776.074          40.000

  23840044.422                   125280283.424 7      2747.291          48.300
                  23840041.602    97620992.205 8      2140.752          40.300

  23865607.383                   125414589.944 7     -2957.789          48.300
                  23865610.004    97725649.318 9     -2304.772          41.500

  22020087.156                   115716351.399 8      2662.238          53.000
                  22020086.996    90168600.728 9      2074.471          46.000

  20927483.078                   109974670.557 8     -1660.260          54.500
                  20927484.539    85694545.152 9     -1293.713          49.300

 18  7  1  0  4 10.0000000  0 11G01G08G10G11G14G18G20G22G27G31G32
  23673623.820                   124405738.656 7      3292.477          47.800
                  23673626.520    96939548.627 9      2565.566          43.000

  23392082.961                   122926201.563 7     -1988.314          49.800
                  23392085.082    95786650.407 9     -1549.335          43.300

  21890063.953                   115033058.604 8     -1572.903          52.800
                  21890066.074    89636155.393 9     -1225.635          47.500

  23452880.547                   123245711.151 7      1832.833          50.000
                  23452879.066    96035617.207 9      1428.182          41.500

  20074860.570                   105494115.218 7        51.505          50.500
                  20074859.012    82203197.057 9        40.133          49.300

  21931480.016                   115250711.122 7      2229.756          51.800
                  21931479.477    89805752.763 9      1737.474          43.800

  23551377.961                   123763307.456 7     -2279.858          47.500
                  23551377.480    96438940.930 8     -1776.506          40.000

  23837430.344                   125266546.396 7      2747.480          47.500
                  23837427.563    97610288.004 8      2140.904          40.500

  23868421.680                   125429378.665 7     -2957.734          48.500
                  23868424.160    97737172.988 8     -2304.719          40.800

  22017554.977                   115703044.790 8      2660.688          53.000
                  22017554.855    90158231.940 9      2073.263          46.000

  20929063.500                   109982975.838 8     -1661.595          54.000
                  20929065.000    85701016.794 9     -1294.747          49.500

 18  7  1  0  4 15.0000000  0 11G01G08G10G11G14G18G20G22G27G31G32
  23670491.688                   124389279.207 7      3291.583          47.300
                  23670494.426    96926723.087 9      2564.870          43.000

  23393975.727                   122936148.215 7     -1989.935          49.500
                  23393977.887    95794401.055 9     -1550.599          43.000

  21891561.094                   115040925.870 8     -1573.762          53.000
                  21891563.172    89642285.722 9     -1226.310          47.800

  23451137.867                   123236553.277 7      1830.810          50.500
                  23451136.387    96028481.207 9      1426.605          41.500

  20074813.008                   105493865.210 7        49.066          50.800
                  20074811.430    82203002.247 9        38.233          49.000

  21929359.555                   115239568.113 7      2227.904          52.000
                  21929358.996    89797069.897 9      1736.027          44.500

  23553547.602                   123774709.002 7     -2280.538          47.800
                  23553547.102    96447825.245 8     -1777.045          39.800

  23834816.203                   125252808.990 7      2747.545          48.300
                  23834813.422    97599583.542 8      2140.940          40.800

  23871236.039                   125444167.591 7     -2957.755          48.800
                  23871238.379    97748696.829 8     -2304.748          41.000

  22015024.375                   115689746.418 8      2659.056          52.500
                  22015024.254    90147869.578 9      2071.988          46.500

  20930645.281                   109991288.384 8     -1663.043          54.500
                  20930646.840    85707494.105 9     -1295.881          49.500

 18  7  1  0  4 20.0000000  0 11G01G08G10G11G14G18G20G22G27G31G32
  23667360.641                   124372825.586 7      3290.236          47.800
                  23667363.359    96913902.095 9      2563.820          42.800

  23395870.305                   122946104.455 7     -1992.031          50.000
                  23395872.484    95802159.160 9     -1552.232          43.000

  21893059.297                   115048798.815 8     -1575.068          53.300
                  21893061.375    89648420.480 9     -1227.322          47.800

  23449397.367                   123227406.801 7      1828.358          50.300
                  23449395.828    96021354.075 9      1424.697          41.300

  20074768.031                   105493628.754 7        46.179          50.800
                  20074766.430    82202817.998 9        35.985          49.300

  21927241.172                   115228435.986 7      2225.518          51.800
                  21927240.633    89788395.512 9      1734.170          44.300

  23555718.188                   123786115.348 7     -2281.681          48.300
                  23555717.707    96456713.305 8     -1777.927          39.800

  23832202.242                   125239072.577 7      2747.175          47.500
                  23832199.523    97588879.846 9      2140.652          41.500

  23874050.664                   125458958.119 7     -2958.272          48.800
                  23874052.945    97760221.895 8     -2305.139          41.000

  22012495.617                   115676457.692 8      2656.941          53.300
                  22012495.516    90137514.747 9      2070.343          46.000

  20932228.742                   109999609.562 8     -1664.948          54.500
                  20932230.320    85713978.140 9     -1297.362          49.500

 18  7  1  0  4 25.0000000  0 11G01G08G10G11G14G18G20G22G27G31G32
  23664230.664                   124356377.501 7      3289.195          47.500
                  23664233.363    96901085.404 9      2563.011          42.800

  23397766.641                   122956069.849 7     -1993.787          49.500
                  23397768.840    95809924.402 9     -1553.600          43.300

  21894558.531                   115056677.088 8     -1576.059          53.300
                  21894560.551    89654559.379 9     -1228.096          47.500

  23447658.961                   123218271.442 7      1826.219          50.000
                  23447657.422    96014235.620 8      1423.024          41.000

  20074725.570                   105493405.576 7        43.622          50.500
                  20074723.969    82202644.091 9        33.989          49.300

  21925124.773                   115217314.386 7      2223.532          51.300
                  21925124.273    89779729.326 9      1732.624          45.000

  23557889.586                   123797526.137 7     -2282.501          48.300
                  23557889.105    96465604.821 8     -1778.570          40.800

  23829588.422                   125225336.807 7      2747.128          47.500
                  23829585.703    97578176.647 9      2140.617          41.300

  23876865.539                   125473749.846 7     -2958.409          48.800
                  23876867.719    97771747.910 8     -2305.256          40.500

  22009968.633                   115663178.257 8      2655.170          53.000
                  22009968.512    90127167.138 9      2068.961          46.000

  20933813.742                   110007939.001 8     -1666.529          54.500
                  20933815.383    85720468.612 9     -1298.596          49.000

 18  7  1  0  4 30.0000000  0 11G01G08G10G11G14G18G20G22G27G31G32
  23661101.625                   124339934.316 7      3288.220          47.300
                  23661104.285    96888272.539 9      2562.245          43.300

  23399664.602                   122966043.796 7     -1995.518          49.300
                  23399666.840    95817696.313 9     -1554.949          43.000

  21896058.656                   115064560.074 8     -1577.020          53.000
                  21896060.656    89660701.979 9     -1228.847          47.500

  23445922.586                   123209146.585 7      1824.094          50.800
                  23445920.926    96007125.325 8      1421.378          41.000

  20074685.508                   105493194.964 7        41.081          50.800
                  20074683.887    82202479.980 9        32.013          49.800

  21923010.297                   115206202.687 7      2221.509          52.000
                  21923009.816    89771070.864 9      1731.046          45.000

  23560061.766                   123808940.781 7     -2283.266          48.000
                  23560061.285    96474499.347 8     -1779.168          40.000

  23826974.602                   125211601.051 7      2747.130          48.300
                  23826971.922    97567473.464 8      2140.619          40.500

  23879680.484                   125488542.154 7     -2958.540          48.800
                  23879682.563    97783274.373 8     -2305.358          41.000

  22007443.297                   115649907.487 8      2653.415          53.000
                  22007443.195    90116826.288 9      2067.594          45.800

  20935400.219                   110016276.047 8     -1668.061          54.300
                  20935401.879    85726965.017 9     -1299.790          49.500

 18  7  1  0  4 35.0000000  0 11G01G08G10G11G14G18G20G22G27G31G32
  23657973.547                   124323496.158 7      3287.322          47.300
                  23657976.207    96875463.599 9      2561.545          42.300

  23401564.227                   122976026.412 7     -1997.150          50.000
                  23401566.508    95825474.974 9     -1556.219          42.000

  21897559.695                   115072447.856 8     -1577.861          53.800
                  21897561.656    89666848.290 9     -1229.500          47.000

  23444188.227                   123200032.241 7      1822.105          50.000
                  23444186.488    96000023.254 8      1419.818          41.000

  20074647.867                   105492997.060 7        38.640          50.500
                  20074646.266    82202325.763 9        30.111          49.300

  21920897.695                   115195100.954 7      2219.611          51.800
                  21920897.254    89762420.177 9      1729.565          44.300

  23562234.641                   123820359.348 7     -2283.959          48.300
                  23562234.141    96483396.925 8     -1779.704          39.500

  23824360.805                   125197865.416 7      2747.193          48.300
                  23824358.105    97556770.374 8      2140.674          40.300

  23882495.539                   125503335.078 7     -2958.546          47.800
                  23882497.598    97794801.325 9     -2305.354          41.500

  22004919.617                   115636645.467 8      2651.783          53.300
                  22004919.516    90106492.251 9      2066.324          46.000

  20936988.164                   110024620.814 8     -1669.485          54.500
                  20936989.863    85733467.425 9     -1300.898          49.000

 18  7  1  0  4 40.0000000  0 11G01G08G10G11G14G18G20G22G27G31G32
  23654846.367                   124307062.750 7      3286.200          47.800
                  23654849.008    96862658.350 9      2560.675          41.500

  23403465.445                   122986017.443 7     -1998.971          50.000
                  23403467.746    95833260.191 9     -1557.640          42.800

  21899061.594                   115080340.179 8     -1578.904          53.500
                  21899063.492    89672998.154 9     -1230.313          47.500

  23442455.820                   123190928.278 7      1819.882          51.500
                  23442454.020    95992929.259 8      1418.094          40.500

  20074612.586                   105492811.573 7        36.021          51.000
                  20074610.984    82202181.229 9        28.068          49.300

  21918786.938                   115184008.920 8      2217.541          52.300
                  21918786.516    89753777.035 9      1727.954          44.500

  23564408.227                   123831781.548 7     -2284.826          47.800
                  23564407.688    96492297.337 9     -1780.386          41.300

  23821746.961                   125184129.583 7      2747.096          48.500
                  23821744.223    97546067.130 8      2140.590          40.500

  23885310.664                   125518128.426 7     -2958.782          48.000
                  23885312.664    97806328.597 9     -2305.542          41.500

  22002397.570                   115623391.979 8      2649.936          53.800
                  22002397.469    90096164.874 9      2064.881          45.500

  20938577.539                   110032973.013 8     -1671.125          55.000
                  20938579.258    85739975.634 9     -1302.177          49.300

 18  7  1  0  4 45.0000000  0 11G01G08G10G11G14G18G20G22G27G31G32
  23651720.281                   124290635.147 7      3285.196          47.500
                  23651722.902    96849857.618 9      2559.895          42.300

  23405368.484                   122996017.956 7     -2000.700          49.800
                  23405370.805    95841052.793 9     -1558.985          43.300

  21900564.531                   115088238.106 8     -1579.895          53.000
                  21900566.410    89679152.378 9     -1231.077          47.500

  23440725.625                   123181835.669 7      1817.764          50.800
                  23440723.727    95985844.088 8      1416.442          40.500

  20074579.867                   105492639.510 7        33.469          50.500
                  20074578.266    82202047.154 9        26.082          49.500

  21916678.297                   115172927.763 8      2215.510          52.500
                  21916677.875    89745142.362 9      1726.369          44.300

  23566582.703                   123843208.444 7     -2285.612          47.800
                  23566582.184    96501201.412 8     -1780.994          40.800

  23819133.305                   125170394.692 7      2747.046          48.300
                  23819130.543    97535364.637 9      2140.555          41.500

  23888126.039                   125532923.122 6     -2958.900          47.000
                  23888128.020    97817856.923 9     -2305.630          42.300

  21999877.375                   115610148.062 8      2648.159          53.800
                  21999877.234    90085844.943 9      2063.497          46.000

  20940168.539                   110041333.658 8     -1672.659          54.300
                  20940170.238    85746490.421 9     -1303.371          49.500

 18  7  1  0  4 50.0000000  0 11G01G08G10G11G14G18G20G22G27G31G32
  23648595.188                   124274212.690 7      3283.990          47.800
                  23648597.766    96837060.901 9      2558.953          41.500

  23407273.188                   123006027.154 7     -2002.613          50.300
                  23407275.469    95848852.158 9     -1560.473          42.500

  21902068.438                   115096140.930 8     -1581.033          52.800
                  21902070.219    89685310.415 9     -1231.978          47.300

  23438997.406                   123172753.767 7      1815.444          50.800
                  23438995.508    95978767.298 9      1414.630          41.300

  20074549.570                   105492480.232 7        30.752          50.000
                  20074547.949    82201923.036 9        23.965          49.800

  21914571.570                   115161856.736 8      2213.313          52.300
                  21914571.129    89736515.606 9      1724.660          44.500

  23568757.945                   123854639.384 7     -2286.589          47.800
                  23568757.406    96510108.631 8     -1781.756          40.800

  23816519.664                   125156660.050 7      2746.839          47.300
                  23816516.883    97524662.300 9      2140.398          41.500

  23890941.539                   125547718.569 7     -2959.226          47.500
                  23890943.461    97829385.837 9     -2305.896          41.800

  21997358.891                   115596913.079 8      2646.202          54.000
                  21997358.711    90075531.975 9      2061.974          45.800

  20941760.984                   110049702.100 8     -1674.388          54.000
                  20941762.703    85753011.280 9     -1304.718          49.800

 18  7  1  0  4 55.0000000  0 11G01G08G10G11G14G18G20G22G27G31G32
  23645471.102                   124257795.560 7      3283.136          47.500
                  23645473.703    96824268.338 9      2558.286          41.500

  23409179.563                   123016045.225 7     -2004.179          50.000
                  23409181.863    95856658.445 9     -1561.700          42.800

  21903573.273                   115104048.857 8     -1581.852          52.500
                  21903575.035    89691472.434 9     -1232.612          48.000

  23437271.305                   123163682.748 7      1813.479          50.800
                  23437269.324    95971698.957 8      1413.100          41.000

  20074521.750                   105492333.890 7        28.367          50.500
                  20074520.129    82201809.007 9        22.104          49.800

  21912466.852                   115150796.016 8      2211.442          53.300
                  21912466.352    89727896.844 9      1723.206          45.000

  23570933.984                   123866074.499 7     -2287.230          48.000
                  23570933.426    96519019.113 8     -1782.258          40.800

  23813906.102                   125142925.780 7      2746.965          47.500
                  23813903.320    97513960.295 9      2140.488          41.300

  23893757.219                   125562514.868 7     -2959.184          47.800
                  23893759.078    97840915.425 9     -2305.852          41.800

  21994842.133                   115583687.195 8      2644.589          53.800
                  21994841.895    90065226.098 9      2060.716          45.800

  20943354.984                   110058078.501 8     -1675.776          54.300
                  20943356.684    85759538.347 9     -1305.797          49.500

 18  7  1  0  5  0.0000000  0 11G01G08G10G11G14G18G20G22G27G31G32
  23642347.805                   124241382.653 7      3282.072          47.300
                  23642350.445    96811479.061 9      2557.463          41.500

  23411087.406                   123026070.934 7     -2005.923          49.800
                  23411089.727    95864470.688 9     -1563.053          43.300

  21905078.852                   115111960.694 8     -1582.854          53.300
                  21905080.590    89697637.494 9     -1233.390          47.000

  23435547.023                   123154621.435 7      1811.306          50.500
                  23435545.004    95964638.200 9      1411.405          41.500

  20074496.148                   105492199.322 7        25.805          50.300
                  20074494.547    82201704.142 9        20.110          49.500

  21910363.875                   115139744.395 8      2209.425          53.000
                  21910363.336    89719285.190 9      1721.625          44.500

  23573110.586                   123877512.617 7     -2288.027          47.800
                  23573110.008    96527931.930 8     -1782.878          40.300

  23811292.383                   125129190.749 6      2746.896          46.500
                  23811289.703    97503257.680 9      2140.437          42.500

  23896572.820                   125577310.862 7     -2959.355          48.300
                  23896574.680    97852444.754 9     -2305.987          42.000

  21992326.891                   115570469.257 8      2642.778          53.500
                  21992326.590    90054926.414 9      2059.304          45.800

  20944950.266                   110066461.638 8     -1677.342          53.800
                  20944951.926    85766070.662 9     -1307.021          49.500

 18  7  1  0  5  5.0000000  0 11G01G08G10G11G14G18G20G22G27G31G32
  23639225.781                   124224976.411 7      3280.679          47.300
                  23639228.441    96798694.981 9      2556.369          42.000

  23412997.188                   123036106.835 7     -2008.028          49.500
                  23412999.527    95872290.860 9     -1564.697          43.500

  21906585.711                   115119878.958 8     -1584.191          53.500
                  21906587.352    89703807.571 9     -1234.434          46.800

  23433825.086                   123145572.382 7      1808.791          50.500
                  23433823.047    95957586.998 9      1409.450          41.500

  20074473.289                   105492079.058 7        22.888          50.300
                  20074471.668    82201610.428 9        17.835          49.300

  21908263.094                   115128704.559 8      2207.005          52.800
                  21908262.535    89710682.736 9      1719.742          44.300

  23575288.266                   123888956.276 7     -2289.185          47.800
                  23575287.645    96536849.053 8     -1783.779          40.800

  23808678.984                   125115457.450 6      2746.508          46.800
                  23808676.344    97492556.393 9      2140.138          41.800

  23899388.805                   125592109.015 7     -2959.823          47.500
                  23899390.645    97863975.787 8     -2306.351          41.000

  21989813.633                   115557261.792 8      2640.624          53.500
                  21989813.293    90044634.885 9      2057.629          45.800

  20946547.281                   110074854.069 8     -1679.241          54.000
                  20946548.941    85772610.208 9     -1308.500          49.500

 18  7  1  0  5 10.0000000  0 11G01G08G10G11G14G18G20G22G27G31G32
  23636104.641                   124208574.917 6      3280.017          47.000
                  23636107.340    96785914.606 9      2555.851          41.800

  23414908.523                   123046150.979 7     -2009.371          49.500
                  23414910.902    95880117.478 9     -1565.745          43.500

  21908093.375                   115127801.681 8     -1584.790          52.800
                  21908094.977    89709981.109 9     -1234.901          46.800

  23432105.125                   123136533.608 7      1807.044          50.800
                  23432103.004    95950543.783 8      1408.090          40.800

  20074452.750                   105491971.122 7        20.707          50.500
                  20074451.129    82201526.326 9        16.134          49.500

  21906164.211                   115117674.452 8      2205.370          53.000
                  21906163.609    89702087.826 9      1718.472          44.800

  23577466.625                   123900403.496 7     -2289.627          47.500
                  23577465.965    96545768.964 8     -1784.123          40.500

  23806065.602                   125101723.919 7      2746.833          47.300
                  23806062.902    97481854.965 9      2140.384          41.500

  23902204.820                   125606907.384 7     -2959.591          47.800
                  23902206.719    97875506.969 9     -2306.171          41.500

  21987301.992                   115544062.822 8      2639.205          53.800
                  21987301.594    90034349.977 9      2056.525          45.500

  20948145.742                   110083253.807 8     -1680.429          54.300
                  20948147.363    85779155.465 9     -1309.425          49.300

 18  7  1  0  5 15.0000000  0 11G01G08G10G11G14G18G20G22G27G31G32
  23632984.484                   124192178.502 7      3278.685          47.800
                  23632987.164    96773138.179 9      2554.819          41.500

  23416821.461                   123056203.615 7     -2011.370          49.800
                  23416823.883    95887950.699 9     -1567.303          43.000

  21909601.953                   115135729.175 8     -1586.056          53.500
                  21909603.492    89716158.380 9     -1235.892          46.500

  23430387.141                   123127505.394 7      1804.603          50.800
                  23430385.000    95943508.813 9      1406.182          41.500

  20074434.609                   105491875.769 7        17.878          50.300
                  20074433.008    82201452.026 9        13.931          49.500

  21904067.195                   115106654.283 8      2203.055          52.300
                  21904066.574    89693500.699 9      1716.662          44.500

  23579645.703                   123911854.610 7     -2290.707          47.500
                  23579645.004    96554691.896 8     -1784.960          39.800

  23803452.180                   125087990.491 6      2746.502          46.500
                  23803449.480    97471153.576 9      2140.138          41.300

  23905020.922                   125621706.211 7     -2960.001          47.800
                  23905022.820    97887038.520 8     -2306.497          41.000

  21984792.031                   115530872.654 8      2637.150          54.000
                  21984791.551    90024071.928 9      2054.922          45.800

  20949745.625                   110091661.117 8     -1682.237          54.300
                  20949747.203    85785706.610 9     -1310.836          49.300

 18  7  1  0  5 20.0000000  0 11G01G08G10G11G14G18G20G22G27G31G32
  23629865.367                   124175787.510 6      3278.073          47.000
                  23629868.047    96760365.966 9      2554.346          42.300

  23418736.125                   123066265.119 7     -2012.702          49.800
                  23418738.586    95895790.830 9     -1568.337          43.800

  21911111.531                   115143661.811 8     -1586.640          53.300
                  21911112.953    89722339.655 9     -1236.337          46.500

  23428671.242                   123118488.148 7      1802.879          50.500
                  23428669.102    95936482.379 9      1404.843          41.500

  20074418.930                   105491793.341 7        15.760          50.500
                  20074417.309    82201387.788 9        12.284          49.000

  21901972.133                   115095644.566 8      2201.416          52.500
                  21901971.492    89684921.707 9      1715.391          45.000

  23581825.602                   123923309.944 7     -2291.090          47.500
                  23581824.883    96563618.128 8     -1785.265          40.800

  23800838.859                   125074257.504 6      2746.870          47.000
                  23800836.121    97460452.549 9      2140.416          41.500

  23907837.203                   125636505.885 7     -2959.694          48.300
                  23907839.102    97898570.726 8     -2306.253          40.500

  21982283.813                   115517691.709 8      2635.760          53.800
                  21982283.293    90013801.064 9      2053.837          45.800

  20951346.984                   110100076.371 8     -1683.377          54.500
                  20951348.586    85792263.946 9     -1311.724          49.500

 18  7  1  0  5 25.0000000  0 11G01G08G10G11G14G18G20G22G27G31G32
  23626747.281                   124159402.013 7      3276.630          47.300
                  23626749.941    96747598.064 8      2553.208          41.000

  23420652.461                   123076335.490 7     -2014.825          50.000
                  23420654.941    95903637.876 9     -1569.994          42.300

  21912622.070                   115151599.616 8     -1588.006          53.300
                  21912623.449    89728524.943 9     -1237.405          46.800

  23426957.422                   123109481.897 7      1800.346          50.800
                  23426955.262    95929464.522 8      1402.865          41.000

  20074405.750                   105491723.920 7        12.822          50.800
                  20074404.090    82201333.697 9         9.993          48.800

  21899879.094                   115084645.311 8      2199.014          52.800
                  21899878.434    89676350.841 9      1713.520          45.300

  23584006.281                   123934769.531 6     -2292.291          47.000
                  23584005.582    96572547.685 8     -1786.201          40.500

  23798225.625                   125060524.993 6      2746.437          47.000
                  23798222.926    97449751.910 9      2140.074          42.300

  23910653.641                   125651306.435 7     -2960.217          47.800
                  23910655.539    97910103.618 9     -2306.660          41.300

  21979777.352                   115504520.028 8      2633.569          54.000
                  21979776.813    90003537.425 9      2052.127          45.800

  20952949.922                   110108499.588 8     -1685.313          55.000
                  20952951.461    85798827.501 9     -1313.233          49.300

 18  7  1  0  5 30.0000000  0 11G01G08G10G11G14G18G20G22G27G31G32
  23623630.266                   124143021.899 7      3275.674          47.800
                  23623632.887    96734834.331 9      2552.477          41.800

  23422570.461                   123086414.656 7     -2016.441          50.000
                  23422572.980    95911491.762 9     -1571.253          43.300

  21914133.594                   115159542.478 8     -1588.891          53.500
                  21914134.895    89734714.201 9     -1238.103          47.000

  23425245.688                   123100486.569 7      1798.273          49.800
                  23425243.508    95922455.173 9      1401.254          42.300

  20074394.984                   105491667.360 7        10.368          50.800
                  20074393.305    82201289.625 9         8.079          49.300

  21897787.977                   115073656.402 8      2197.023          52.300
                  21897787.336    89667788.077 9      1711.959          44.300

  23586187.781                   123946233.312 7     -2293.003          48.000
                  23586187.082    96581480.491 8     -1786.756          39.800

  23795612.422                   125046792.886 6      2746.479          46.300
                  23795609.801    97439051.561 9      2140.119          42.800

  23913470.203                   125666107.710 7     -2960.219          48.000
                  23913472.125    97921637.057 8     -2306.667          41.000

  21977272.633                   115491357.502 8      2631.851          54.000
                  21977272.031    89993280.919 9      2050.791          45.500

  20954554.320                   110116930.662 8     -1686.756          54.500
                  20954555.859    85805397.162 9     -1314.353          49.300

 18  7  1  0  5 35.0000000  0 11G01G08G10G11G14G18G20G22G27G31G32
  23620514.227                   124126647.043 6      3274.547          46.800
                  23620516.867    96722074.697 9      2551.595          43.000

  23424490.063                   123096502.298 7     -2018.220          49.800
                  23424492.602    95919352.270 9     -1572.637          43.300

  21915646.031                   115167490.265 8     -1589.948          53.000
                  21915647.250    89740907.277 9     -1238.918          46.800

  23423535.945                   123091501.935 7      1796.058          49.500
                  23423533.805    95915454.168 9      1399.524          41.800

  20074386.609                   105491623.430 7         7.770          50.800
                  20074384.930    82201255.394 9         6.056          49.500

  21895698.852                   115062677.792 8      2194.907          53.000
                  21895698.152    89659233.299 9      1710.322          45.300

  23588370.008                   123957701.100 7     -2293.886          47.500
                  23588369.367    96590416.419 8     -1787.440          39.300

  23792999.305                   125033061.024 6      2746.339          46.800
                  23792996.785    97428351.414 9      2140.005          42.300

  23916286.883                   125680909.569 7     -2960.429          48.000
                  23916288.844    97933170.981 8     -2306.830          41.000

  21974769.617                   115478203.998 8      2629.972          53.800
                  21974768.996    89983031.434 9      2049.327          45.800

  20956160.180                   110125369.406 8     -1688.375          55.000
                  20956161.719    85811972.811 9     -1315.621          49.800

 18  7  1  0  5 40.0000000  0 11G01G08G10G11G14G18G20G22G27G31G32
  23617399.102                   124110277.164 6      3273.627          46.300
                  23617401.762    96709318.961 9      2550.872          42.800

  23426411.266                   123106598.283 7     -2019.789          49.500
                  23426413.785    95927219.263 9     -1573.863          43.500

  21917159.352                   115175442.708 8     -1590.812          53.000
                  21917160.531    89747103.979 9     -1239.598          47.000

  23421828.188                   123082527.793 7      1794.038          49.800
                  23421826.047    95908461.332 9      1397.947          41.500

  20074380.625                   105491591.971 7         5.350          50.500
                  20074378.945    82201230.884 9         4.171          49.000

  21893611.633                   115051709.122 8      2192.987          52.800
                  21893610.895    89650686.286 9      1708.819          45.500

  23590552.922                   123969172.627 7     -2294.540          47.300
                  23590552.363    96599355.269 8     -1787.951          40.300

  23790386.203                   125019329.091 6      2746.444          46.300
                  23790383.664    97417651.209 9      2140.087          42.800

  23919103.625                   125695711.695 7     -2960.395          47.800
                  23919105.605    97944705.089 8     -2306.802          40.500

  21972268.273                   115465059.263 8      2628.301          53.500
                  21972267.633    89972788.789 9      2048.024          46.000

  20957767.484                   110133815.577 8     -1689.775          54.500
                  20957769.004    85818554.249 9     -1316.708          49.800

 18  7  1  0  5 45.0000000  0 11G01G08G10G11G14G18G20G22G27G31G32
  23614285.086                   124093913.007 7      3272.353          47.300
                  23614287.727    96696567.670 9      2549.891          42.500

  23428334.141                   123116703.230 7     -2021.741          49.500
                  23428336.660    95935093.230 9     -1575.378          43.800

  21918673.695                   115183400.458 8     -1592.018          53.300
                  21918674.816    89753304.836 9     -1240.538          47.500

  23420122.547                   123073564.867 7      1791.641          49.800
                  23420120.488    95901477.244 9      1396.082          41.800

  20074377.109                   105491573.636 7         2.578          50.500
                  20074375.449    82201216.597 9         2.006          49.500

  21891526.453                   115040751.117 8      2190.717          52.800
                  21891525.672    89642147.591 9      1707.052          45.500

  23592736.703                   123980648.576 7     -2295.581          47.300
                  23592736.203    96608297.551 8     -1788.760          40.000

  23787773.203                   125005597.838 6      2746.166          46.300
                  23787770.625    97406951.509 9      2139.876          42.800

  23921920.523                   125710514.810 7     -2960.737          47.300
                  23921922.523    97956239.981 8     -2307.066          41.000

  21969768.711                   115451923.968 8      2626.267          53.500
                  21969768.051    89962553.500 9      2046.440          46.300

  20959376.281                   110142269.839 8     -1691.533          54.300
                  20959377.781    85825141.971 9     -1318.078          49.800

 18  7  1  0  5 50.0000000  0 11G01G08G10G11G14G18G20G22G27G31G32
  23611172.023                   124077553.834 6      3271.331          46.800
                  23611174.625    96683820.262 9      2549.087          42.800

  23430258.625                   123126816.512 7     -2023.420          49.000
                  23430261.125    95942973.715 9     -1576.693          43.800

  21920188.914                   115191362.872 8     -1592.969          53.000
                  21920189.992    89759509.304 9     -1241.273          47.300

  23418418.906                   123064612.428 7      1789.534          49.500
                  23418416.887    95894501.307 9      1394.446          41.500

  20074375.969                   105491567.695 7         0.076          50.000
                  20074374.309    82201211.976 9         0.057          49.500

  21889443.172                   115029803.041 8      2188.693          52.800
                  21889442.332    89633616.607 9      1705.477          45.800

  23594921.203                   123992128.277 6     -2296.361          47.000
                  23594920.742    96617242.760 8     -1789.364          40.300

  23785160.219                   124991866.538 6      2746.142          47.000
                  23785157.617    97396251.803 9      2139.849          42.000

  23924737.461                   125725318.121 7     -2960.795          47.300
                  23924739.539    97967775.025 9     -2307.115          41.300

  21967270.852                   115438797.483 8      2624.478          53.500
                  21967270.133    89952325.070 9      2045.050          45.800

  20960986.484                   110150731.447 8     -1693.023          54.300
                  20960987.984    85831735.442 9     -1319.243          49.500

 18  7  1  0  5 55.0000000  0 11G01G08G10G11G14G18G20G22G27G31G32
  23608059.945                   124061199.946 6      3270.274          46.300
                  23608062.566    96671076.979 9      2548.261          42.800

  23432184.727                   123136938.288 7     -2025.133          49.000
                  23432187.227    95950860.813 9     -1578.026          43.800

  21921705.094                   115199330.170 8     -1593.944          53.500
                  21921706.094    89765717.582 9     -1242.034          46.800

  23416717.320                   123055670.773 7      1787.379          49.500
                  23416715.301    95887533.775 9      1392.765          41.500

  20074377.227                   105491574.448 7        -2.444          50.000
                  20074375.605    82201217.236 9        -1.906          49.300

  21887361.852                   115018865.218 8      2186.654          52.500
                  21887360.953    89625093.632 9      1703.885          45.500

  23597106.484                   124003611.996 6     -2297.147          47.000
                  23597106.063    96626191.104 8     -1789.987          40.800

  23782547.281                   124978135.449 7      2746.100          47.500
                  23782544.703    97385552.258 9      2139.816          42.000

  23927554.523                   125740121.974 6     -2960.884          47.000
                  23927556.645    97979310.480 8     -2307.178          41.000

  21964774.711                   115425680.058 8      2622.670          53.500
                  21964773.930    89942103.700 9      2043.639          45.500

  20962598.164                   110159200.733 8     -1694.554          53.800
                  20962599.605    85838334.882 9     -1320.432          49.800

 18  7  1  0  6  0.0000000  0 11G01G08G10G11G14G18G20G22G27G31G32
  23604949.023                   124044852.167 7      3269.110          47.300
                  23604951.664    96658338.451 9      2547.361          42.300

  23434112.563                   123147069.382 7     -2026.917          49.000
                  23434115.102    95958755.164 9     -1579.414          43.000

  21923222.352                   115207303.163 8     -1595.000          53.500
                  21923223.293    89771930.302 9     -1242.855          46.800

  23415017.945                   123046740.673 7      1785.133          49.000
                  23415015.965    95880575.262 9      1391.013          41.800

  20074381.031                   105491594.675 7        -5.066          50.000
                  20074379.473    82201232.993 9        -3.947          49.500

  21885282.617                   115007938.418 8      2184.516          52.500
                  21885281.676    89616579.246 9      1702.222          45.800

  23599292.703                   124015100.494 6     -2298.032          46.800
                  23599292.242    96635143.193 8     -1790.677          40.800

  23779934.539                   124964405.384 7      2745.974          47.500
                  23779932.000    97374853.511 9      2139.724          42.500

  23930371.805                   125754927.069 6     -2961.052          47.000
                  23930373.863    97990846.912 9     -2307.311          41.300

  21962280.438                   115412572.481 8      2620.773          53.800
                  21962279.637    89931890.008 9      2042.159          45.500

  20964211.422                   110167678.424 8     -1696.165          54.500
                  20964212.844    85844940.865 9     -1321.689          49.300

 18  7  1  0  6  5.0000000  0 11G01G08G10G11G14G18G20G22G27G31G32
  23601839.063                   124028509.261 6      3268.183          47.000
                  23601841.703    96645603.720 9      2546.632          42.000

  23436041.945                   123157208.489 7     -2028.462          49.000
                  23436044.523    95966655.759 9     -1580.616          43.500

  21924740.453                   115215280.643 8     -1595.852          53.300
                  21924741.352    89778146.520 9     -1243.521          47.300

  23413320.563                   123037820.931 7      1783.107          49.500
                  23413318.582    95873624.811 9      1389.436          42.000

  20074387.188                   105491627.138 7        -7.483          50.000
                  20074385.648    82201258.289 9        -5.829          49.300

  21883205.234                   114997021.463 8      2182.569          52.800
                  21883204.273    89608072.525 9      1700.705          46.000

  23601479.586                   124026592.566 6     -2298.721          46.800
                  23601479.164    96644098.056 8     -1791.215          41.000

  23777321.805                   124950675.124 7      2746.056          47.800
                  23777319.305    97364154.619 9      2139.781          42.500

  23933189.078                   125769732.220 6     -2961.042          45.800
                  23933191.180    98002383.395 9     -2307.301          41.500

  21959787.813                   115399473.567 8      2619.068          53.500
                  21959786.953    89921683.068 9      2040.828          45.500

  20965826.078                   110176163.304 8     -1697.555          54.800
                  20965827.438    85851552.468 9     -1322.772          49.500

 18  7  1  0  6 10.0000000  0 11G01G08G10G11G14G18G20G22G27G31G32
  23598730.242                   124012172.312 7      3266.950          47.500
                  23598732.922    96632873.628 9      2545.678          42.300

  23437973.063                   123167356.767 7     -2030.333          49.000
                  23437975.703    95974563.512 9     -1582.082          43.800

  21926259.617                   115223263.683 8     -1597.008          53.300
                  21926260.496    89784367.066 9     -1244.422          47.300

  23411625.367                   123028912.631 7      1780.774          49.800
                  23411623.406    95866683.271 9      1387.616          42.300

  20074395.852                   105491672.912 7       -10.192          50.000
                  20074394.391    82201293.953 9        -7.942          49.800

  21881129.953                   114986115.417 8      2180.383          53.000
                  21881128.934    89599574.316 9      1698.995          45.800

  23603667.320                   124038089.291 6     -2299.674          47.000
                  23603666.980    96653056.531 8     -1791.952          39.300

  23774709.219                   124936945.734 7      2745.858          48.000
                  23774706.738    97353456.394 9      2139.630          41.800

  23936006.563                   125784538.479 6     -2961.286          46.500
                  23936008.684    98013920.713 9     -2307.496          42.300

  21957297.016                   115386384.393 8      2617.097          53.500
                  21957296.156    89911483.716 9      2039.296          45.800

  20967442.305                   110184656.448 8     -1699.247          54.500
                  20967443.625    85858170.500 9     -1324.089          49.500

 18  7  1  0  6 15.0000000  0 11G01G08G10G11G14G18G20G22G27G31G32
  23595622.242                   123995839.665 7      3266.070          47.500
                  23595624.922    96620146.896 9      2544.992          42.500

  23439905.625                   123177512.443 7     -2031.841          49.300
                  23439908.305    95982477.022 9     -1583.251          43.800

  21927779.516                   115231250.596 8     -1597.804          53.300
                  21927780.375    89790590.627 9     -1245.040          47.300

  23409932.008                   123020014.085 7      1778.814          49.800
                  23409930.047    95859749.341 9      1386.091          41.800

  20074406.727                   105491730.297 7       -12.531          49.800
                  20074405.328    82201338.673 9        -9.764          49.500

  21879056.438                   114975218.759 8      2178.483          53.000
                  21879055.379    89591083.400 9      1697.521          45.800

  23605855.625                   124049588.966 6     -2300.294          46.800
                  23605855.324    96662017.298 8     -1792.433          40.300

  23772096.500                   124923215.556 7      2745.979          48.300
                  23772093.980    97342757.556 9      2139.716          42.000

  23938823.984                   125799344.137 6     -2961.197          46.800
                  23938826.086    98025457.592 9     -2307.430          41.500

  21954807.758                   115373303.269 8      2615.460          53.500
                  21954806.859    89901290.632 9      2038.021          45.500

  20969059.781                   110193156.150 8     -1700.587          55.000
                  20969061.063    85864793.642 9     -1325.135          49.500

 18  7  1  0  6 20.0000000  0 11G01G08G10G11G14G18G20G22G27G31G32
  23592515.320                   123979512.658 7      3265.040          47.300
                  23592517.961    96607424.553 9      2544.183          43.800

  23441839.805                   123187676.762 7     -2033.468          49.000
                  23441842.523    95990397.272 9     -1584.520          43.300

  21929300.352                   115239242.711 8     -1598.742          53.000
                  21929301.273    89796818.253 9     -1245.777          47.300

  23408240.742                   123011126.627 7      1776.685          49.500
                  23408238.801    95852824.043 9      1384.432          41.800

  20074420.086                   105491800.633 7       -15.011          49.800
                  20074418.707    82201393.470 9       -11.695          49.500

  21876984.938                   114964332.656 8      2176.460          53.000
                  21876983.836    89582600.728 9      1695.943          45.500

  23608044.766                   124061092.930 7     -2301.041          47.300
                  23608044.484    96670981.432 8     -1793.023          40.800

  23769483.859                   124909485.922 7      2745.969          48.000
                  23769481.320    97332059.137 9      2139.716          42.800

  23941641.523                   125814150.499 6     -2961.241          46.800
                  23941643.684    98036995.008 9     -2307.455          42.500

  21952320.273                   115360231.539 8      2613.684          53.300
                  21952319.375    89891104.873 9      2036.635          45.800

  20970678.742                   110201663.729 8     -1702.051          54.500
                  20970679.980    85871422.923 9     -1326.269          49.500

 18  7  1  0  6 25.0000000  0 11G01G08G10G11G14G18G20G22G27G31G32
  23589409.422                   123963191.186 7      3263.687          47.500
                  23589412.121    96594706.531 9      2543.131          43.000

  23443775.664                   123197849.714 7     -2035.449          49.300
                  23443778.402    95998324.244 9     -1586.062          43.300

  21930822.172                   115247239.932 8     -1600.016          53.000
                  21930823.113    89803049.850 9     -1246.766          47.300

  23406551.602                   123002250.195 7      1774.250          49.500
                  23406549.680    95845907.345 9      1382.530          41.500

  20074435.867                   105491883.830 7       -17.820          49.800
                  20074434.547    82201458.297 9       -13.886          49.800

  21874915.375                   114953456.930 8      2174.161          52.500
                  21874914.215    89574126.134 9      1694.153          45.500

  23610234.664                   124072601.095 7     -2302.126          47.300
                  23610234.426    96679948.817 8     -1793.860          40.800

  23766871.344                   124895756.737 7      2745.635          48.800
                  23766868.742    97321361.075 9      2139.456          42.000

  23944459.180                   125828957.484 6     -2961.622          46.800
                  23944461.320    98048532.908 8     -2307.758          41.000

  21949834.594                   115347169.116 8      2611.574          53.300
                  21949833.652    89880926.365 9      2034.991          45.500

  20972299.180                   110210179.065 8     -1703.840          54.500
                  20972300.398    85878058.249 9     -1327.668          49.500

 18  7  1  0  6 30.0000000  0 11G01G08G10G11G14G18G20G22G27G31G32
  23586304.727                   123946875.903 7      3262.681          48.300
                  23586307.387    96581993.330 9      2542.344          42.800

  23445713.320                   123208031.937 7     -2037.073          50.000
                  23445716.039    96006258.443 9     -1587.327          43.500

  21932345.070                   115255242.875 8     -1600.941          53.000
                  21932346.051    89809285.906 9     -1247.483          46.800

  23404864.641                   122993385.375 7      1772.156          49.800
                  23404862.719    95838999.697 8      1380.898          40.800

  20074454.250                   105491980.484 7       -20.298          50.000
                  20074452.949    82201533.617 9       -15.816          49.300

  21872847.953                   114942592.462 8      2172.127          52.800
                  21872846.754    89565660.309 9      1692.568          45.500

  23612425.523                   124084114.097 7     -2302.872          47.500
                  23612425.285    96688919.965 8     -1794.446          38.800

  23764259.063                   124882028.669 7      2745.638          49.300
                  23764256.422    97310663.886 9      2139.456          41.500

  23947277.023                   125843765.659 6     -2961.633          46.500
                  23947279.285    98060071.732 9     -2307.758          41.800

  21947350.773                   115334116.617 8      2609.813          53.800
                  21947349.832    89870755.583 9      2033.621          45.000

  20973921.180                   110218702.816 8     -1705.309          54.300
                  20973922.441    85884700.138 9     -1328.812          49.300

 18  7  1  0  6 35.0000000  0 11G01G08G10G11G14G18G20G22G27G31G32
  23583201.008                   123930565.589 7      3261.790          48.300
                  23583203.629    96569283.996 9      2541.659          42.300

  23447652.461                   123218222.105 7     -2038.528          49.800
                  23447655.160    96014198.824 9     -1588.457          43.500

  21933868.797                   115263250.306 8     -1601.711          52.500
                  21933869.836    89815525.456 9     -1248.085          46.800

  23403179.688                   122984530.906 7      1770.180          49.800
                  23403177.766    95832100.099 8      1379.367          40.800

  20074474.945                   105492089.329 7       -22.615          50.000
                  20074473.645    82201618.425 9       -17.622          49.500

  21870782.414                   114931737.855 8      2170.246          52.500
                  21870781.195    89557202.180 9      1691.094          45.300

  23614617.063                   124095630.647 7     -2303.458          47.500
                  23614616.801    96697893.906 8     -1794.911          39.800

  23761646.703                   124868300.399 7      2745.795          48.500
                  23761644.043    97299966.538 9      2139.581          42.000

  23950094.898                   125858573.752 6     -2961.491          47.000
                  23950097.160    98071610.491 8     -2307.659          40.300

  21944868.617                   115321072.844 8      2608.190          53.800
                  21944867.656    89860591.610 9      2032.356          45.300

  20975544.563                   110227233.699 8     -1706.617          54.300
                  20975545.801    85891347.570 9     -1329.830          49.000

 18  7  1  0  6 40.0000000  0 11G01G08G10G11G14G18G20G22G27G31G32
  23580098.305                   123914260.604 7      3260.702          48.500
                  23580100.863    96556578.803 9      2540.807          42.800

  23449593.227                   123228420.613 7     -2040.239          49.500
                  23449595.867    96022145.700 9     -1589.794          43.500

  21935393.453                   115271262.596 8     -1602.707          52.500
                  21935394.555    89821768.797 9     -1248.863          47.500

  23401496.727                   122975687.220 7      1767.999          49.000
                  23401494.867    95825208.925 8      1377.657          41.000

  20074498.031                   105492210.749 7       -25.153          50.300
                  20074496.750    82201713.043 9       -19.600          49.000

  21868718.836                   114920893.543 7      2168.170          52.000
                  21868717.574    89548752.054 9      1689.485          45.800

  23616809.344                   124107151.056 6     -2304.275          47.000
                  23616809.063    96706870.836 8     -1795.533          40.500

  23759034.398                   124854572.341 7      2745.722          49.300
                  23759031.680    97289269.367 8      2139.520          41.000

  23952912.844                   125873382.182 6     -2961.578          46.300
                  23952915.105    98083149.542 9     -2307.721          42.000

  21942388.172                   115308038.154 8      2606.350          53.000
                  21942387.211    89850434.701 9      2030.924          45.300

  20977169.383                   110235772.049 8     -1708.131          54.800
                  20977170.602    85898000.830 9     -1331.013          49.300

 18  7  1  0  6 45.0000000  0 11G01G08G10G11G14G18G20G22G27G31G32
  23576996.625                   123897960.753 7      3259.402          48.500
                  23576999.105    96543877.629 9      2539.798          43.500

  23451535.523                   123238627.266 7     -2042.130          49.800
                  23451538.082    96030098.943 9     -1591.266          42.800

  21936918.992                   115279279.531 8     -1603.908          52.300
                  21936920.133    89828015.755 9     -1249.796          47.500

  23399815.781                   122966854.115 7      1765.631          48.300
                  23399813.941    95818325.986 9      1375.819          42.500

  20074523.484                   105492344.547 7       -27.899          50.000
                  20074522.184    82201817.307 9       -21.742          49.500

  21866657.133                   114910059.339 7      2165.852          52.000
                  21866655.895    89540309.817 9      1687.675          46.000

  23619002.344                   124118675.233 6     -2305.290          46.800
                  23619002.004    96715850.712 8     -1796.327          40.500

  23756422.125                   124840844.297 7      2745.454          49.000
                  23756419.324    97278572.195 9      2139.311          41.500

  23955730.781                   125888190.714 6     -2961.864          46.800
                  23955733.160    98094688.638 9     -2307.942          41.800

  21939909.414                   115295012.377 8      2604.285          53.300
                  21939908.473    89840284.752 9      2029.315          45.000

  20978795.602                   110244317.717 8     -1709.873          55.000
                  20978796.781    85904659.794 9     -1332.366          49.500

 18  7  1  0  6 50.0000000  0 11G01G08G10G11G14G18G20G22G27G31G32
  23573896.047                   123881666.657 7      3258.175          48.800
                  23573898.445    96531180.934 9      2538.835          43.300

  23453479.484                   123248842.540 7     -2043.922          49.800
                  23453481.945    96038058.884 9     -1592.665          43.000

  21938445.516                   115287301.742 8     -1605.035          52.500
                  21938446.715    89834266.818 9     -1250.672          47.500

  23398136.922                   122958032.109 7      1763.330          48.300
                  23398135.203    95811451.687 9      1374.023          41.800

  20074551.391                   105492491.257 7       -30.545          50.000
                  20074550.090    82201931.627 9       -23.803          49.000

  21864597.477                   114899235.763 8      2163.674          52.500
                  21864596.258    89531875.870 9      1685.978          45.500

  23621196.164                   124130203.746 7     -2306.246          47.500
                  23621195.824    96724833.969 8     -1797.075          40.500

  23753809.961                   124827116.870 7      2745.257          49.500
                  23753807.082    97267875.499 9      2139.163          41.300

  23958548.883                   125902999.885 6     -2962.064          47.000
                  23958551.262    98106228.237 9     -2308.100          41.300

  21937432.477                   115281996.135 8      2602.307          53.300
                  21937431.535    89830142.230 9      2027.769          45.300

  20980423.344                   110252871.217 8     -1711.515          55.000
                  20980424.465    85911324.857 9     -1333.650          49.300

 18  7  1  0  6 55.0000000  0 11G01G08G10G11G14G18G20G22G27G31G32
  23570796.563                   123865378.288 7      3257.192          48.500
                  23570798.844    96518488.699 9      2538.070          43.000

  23455425.086                   123259066.453 7     -2045.507          49.800
                  23455427.465    96046025.568 9     -1593.903          43.500

  21939973.094                   115295329.153 8     -1605.934          53.300
                  21939974.313    89840521.950 9     -1251.377          47.000

  23396460.141                   122949221.188 7      1761.262          47.800
                  23396458.539    95804586.057 9      1372.406          41.500

  20074581.750                   105492650.884 7       -32.986          50.300
                  20074580.430    82202056.007 9       -25.699          49.300

  21862539.797                   114888422.949 7      2161.685          51.000
                  21862538.656    89523450.293 9      1684.428          45.800

  23623390.805                   124141736.578 7     -2306.939          47.300
                  23623390.426    96733820.585 8     -1797.611          39.500

  23751197.922                   124813390.008 7      2745.304          49.500
                  23751194.902    97257179.237 8      2139.198          40.500

  23961367.102                   125917809.684 6     -2962.038          46.800
                  23961369.480    98117768.336 9     -2308.083          41.500

  21934957.352                   115268989.360 8      2600.562          53.300
                  21934956.410    89820007.085 9      2026.410          45.300

  20982052.563                   110261432.542 8     -1712.916          55.000
                  20982053.621    85917996.028 9     -1334.737          49.300

 18  7  1  0  7  0.0000000  0 11G01G08G10G11G14G18G20G22G27G31G32
  23567698.086                   123849095.353 7      3255.968          48.300
                  23567700.324    96505800.699 9      2537.115          43.000

  23457372.266                   123269298.732 7     -2047.304          49.500
                  23457374.605    96053998.772 9     -1595.302          43.500

  21941501.570                   115303361.493 8     -1607.050          53.300
                  21941502.809    89846780.906 9     -1252.247          46.800

  23394785.461                   122940421.229 7      1758.950          48.000
                  23394783.961    95797728.950 8      1370.614          41.000

  20074614.508                   105492823.118 7       -35.645          50.000
                  20074613.188    82202190.220 9       -27.781          49.000

  21860484.078                   114877620.451 7      2159.507          51.800
                  21860483.039    89515032.770 9      1682.735          45.500

  23625586.203                   124153273.417 7     -2307.877          47.800
                  23625585.844    96742810.320 8     -1798.348          39.300

  23748585.898                   124799663.408 7      2745.102          48.500
                  23748582.758    97246483.185 8      2139.044          40.500

  23964185.344                   125932619.819 7     -2962.242          47.300
                  23964187.805    98129308.690 8     -2308.239          40.500

  21932483.953                   115255991.807 8      2598.583          52.800
                  21932483.055    89809879.128 9      2024.870          45.000

  20983683.203                   110270001.398 8     -1714.566          54.800
                  20983684.203    85924673.054 9     -1336.023          49.300

 18  7  1  0  7  5.0000000  0 11G01G08G10G11G14G18G20G22G27G31G32
  23564600.703                   123832818.369 7      3255.021          48.800
                  23564602.902    96493117.340 9      2536.380          41.500

  23459321.102                   123279539.777 7     -2048.810          49.800
                  23459323.422    96061978.801 9     -1596.473          42.800

  21943031.094                   115311399.243 8     -1607.894          53.000
                  21943032.375    89853044.077 9     -1252.902          47.000

  23393112.945                   122931632.571 7      1756.908          48.300
                  23393111.566    95790880.637 8      1369.017          41.000

  20074649.766                   105493008.429 7       -38.012          50.300
                  20074648.426    82202334.620 9       -29.618          48.500

  21858430.453                   114866828.750 7      2157.547          52.000
                  21858429.434    89506623.650 9      1681.207          45.800

  23627782.484                   124164814.786 7     -2308.540          48.300
                  23627782.105    96751803.594 8     -1798.860          40.000

  23745973.984                   124785937.555 7      2745.209          48.500
                  23745970.824    97235787.724 8      2139.120          40.500

  23967003.805                   125947430.687 7     -2962.150          47.800
                  23967006.266    98140849.643 8     -2308.175          40.300

  21930012.414                   115243003.966 8      2596.886          53.300
                  21930011.535    89799758.736 9      2023.546          44.800

  20985315.359                   110278578.254 8     -1715.922          55.000
                  20985316.340    85931356.317 9     -1337.082          49.000

 18  7  1  0  7 10.0000000  0 11G01G08G10G11G14G18G20G22G27G31G32
  23561504.281                   123816546.554 7      3253.863          47.800
                  23561506.500    96480437.999 9      2535.471          42.000

  23461271.461                   123289788.817 7     -2050.554          49.500
                  23461273.781    96069965.064 9     -1597.832          43.000

  21944561.477                   115319441.615 8     -1608.926          52.500
                  21944562.816    89859310.861 9     -1253.709          47.000

  23391442.445                   122922854.512 7      1754.675          48.800
                  23391441.145    95784040.614 8      1367.279          40.000

  20074687.367                   105493206.055 7       -40.587          50.500
                  20074686.008    82202488.614 9       -31.626          48.800

  21856378.719                   114856047.235 7      2155.413          51.300
                  21856377.777    89498222.472 9      1679.543          45.800

  23629979.461                   124176359.868 7     -2309.391          47.800
                  23629979.039    96760799.744 8     -1799.521          38.500

  23743362.039                   124772211.658 7      2745.096          48.800
                  23743358.859    97225092.221 8      2139.040          39.800

  23969822.219                   125962241.582 7     -2962.250          47.800
                  23969824.719    98152390.575 8     -2308.241          40.000

  21927542.570                   115230025.048 8      2594.976          53.500
                  21927541.711    89789645.298 9      2022.059          45.000

  20986948.883                   110287162.313 8     -1717.472          55.000
                  20986949.844    85938045.191 9     -1338.288          49.300

 18  7  1  0  7 15.0000000  0 11G01G08G10G11G14G18G20G22G27G31G32
  23558409.023                   123800280.879 7      3252.749          48.300
                  23558411.242    96467763.463 9      2534.607          43.000

  23463223.508                   123300046.854 7     -2052.239          49.800
                  23463225.848    96077958.327 9     -1599.143          43.000

  21946092.938                   115327489.602 8     -1609.972          52.800
                  21946094.336    89865582.005 9     -1254.520          47.800

  23389774.141                   122914088.044 7      1752.449          48.000
                  23389772.941    95777209.585 9      1365.549          42.300

  20074727.484                   105493416.937 7       -43.154          50.000
                  20074726.145    82202652.942 9       -33.627          49.000

  21854329.133                   114845276.783 8      2153.290          52.300
                  21854328.234    89489829.907 9      1677.891          45.500

  23632177.320                   124187909.632 7     -2310.242          47.800
                  23632176.898    96769799.553 8     -1800.187          39.800

  23740750.281                   124758486.727 7      2745.007          48.300
                  23740747.043    97214397.470 8      2138.967          40.300

  23972640.859                   125977053.396 7     -2962.342          48.000
                  23972643.281    98163932.251 8     -2308.313          40.300

  21925074.656                   115217056.041 8      2593.095          53.500
                  21925073.797    89779539.582 9      2020.591          44.800

  20988583.961                   110295754.535 8     -1719.001          55.000
                  20988584.902    85944740.423 9     -1339.479          49.300

 18  7  1  0  7 20.0000000  0 11G01G08G10G11G14G18G20G22G27G31G32
  23555314.781                   123784020.354 7      3251.745          48.800
                  23555316.961    96455092.937 8      2533.827          41.000

  23465177.063                   123310312.878 7     -2053.781          49.500
                  23465179.422    96085957.831 9     -1600.351          43.800

  21947625.258                   115335542.129 8     -1610.823          52.500
                  21947626.719    89871856.704 9     -1255.187          47.300

  23388107.867                   122905332.077 7      1750.392          48.800
                  23388106.746    95770386.767 9      1363.940          41.300

  20074769.906                   105493640.032 7       -45.538          50.500
                  20074768.586    82202826.782 9       -35.484          49.000

  21852281.516                   114834516.548 7      2151.317          52.000
                  21852280.637    89481445.311 9      1676.351          45.500

  23634375.922                   124199463.064 7     -2310.933          47.500
                  23634375.480    96778802.228 8     -1800.725          39.500

  23738138.484                   124744761.709 7      2745.063          48.800
                  23738135.203    97203702.653 8      2139.012          40.000

  23975459.484                   125991865.099 7     -2962.287          48.000
                  23975461.844    98175473.838 8     -2308.276          40.300

  21922608.414                   115204095.933 8      2591.360          53.500
                  21922607.555    89769440.807 9      2019.242          45.300

  20990220.398                   110304353.878 8     -1720.388          55.300
                  20990221.320    85951441.212 9     -1340.564          49.300

 18  7  1  0  7 25.0000000  0 11G01G08G10G11G14G18G20G22G27G31G32
  23552221.422                   123767764.286 7      3250.636          48.500
                  23552223.461    96442425.862 9      2532.959          42.300

  23467132.008                   123320586.052 7     -2055.423          49.300
                  23467134.387    96093962.895 9     -1601.624          43.000

  21949158.313                   115343598.548 8     -1611.809          52.800
                  21949159.832    89878134.422 9     -1255.951          47.800

  23386443.508                   122896585.943 7      1748.224          48.800
                  23386442.449    95763571.603 9      1362.253          41.300

  20074814.547                   105493874.635 7       -48.049          50.300
                  20074813.246    82203009.587 9       -37.441          49.300

  21850235.633                   114823765.560 7      2149.252          52.000
                  21850234.793    89473067.914 9      1674.744          45.300

  23636575.047                   124211019.394 7     -2311.714          47.500
                  23636574.566    96787807.156 8     -1801.329          40.300

  23735526.539                   124731035.917 7      2745.012          48.500
                  23735523.180    97193007.230 8      2138.969          40.300

  23978277.922                   126006675.981 7     -2962.332          48.300
                  23978280.320    98187014.762 8     -2308.304          40.000

  21920143.758                   115191144.023 8      2589.508          53.500
                  21920142.879    89759348.412 9      2017.798          45.300

  20991858.063                   110312959.623 8     -1721.881          55.300
                  20991858.941    85958146.986 9     -1341.725          49.300

 18  7  1  0  7 30.0000000  0 11G01G08G10G11G14G18G20G22G27G31G32
  23549129.242                   123751514.342 7      3249.451          49.000
                  23549131.164    96429763.583 9      2532.040          41.800

  23469088.602                   123330868.052 7     -2057.155          49.500
                  23469090.980    96101974.839 9     -1602.976          43.000

  21950692.438                   115351660.527 8     -1612.883          52.800
                  21950694.016    89884416.484 9     -1256.792          47.800

  23384781.344                   122887851.325 7      1745.962          49.000
                  23384780.285    95756765.399 9      1360.490          41.500

  20074861.711                   105494122.468 7       -50.659          50.000
                  20074860.430    82203202.700 9       -39.472          49.300

  21848191.875                   114813025.673 7      2147.068          51.800
                  21848191.074    89464699.169 9      1673.040          45.800

  23638775.086                   124222580.396 7     -2312.615          47.800
                  23638774.547    96796815.737 8     -1802.038          40.000

  23732914.766                   124717311.062 7      2744.865          47.500
                  23732911.406    97182312.530 8      2138.858          40.300

  23981096.563                   126021487.734 7     -2962.469          48.000
                  23981098.863    98198556.392 8     -2308.417          40.300

  21917680.953                   115178202.074 8      2587.543          53.300
                  21917680.094    89749263.784 9      2016.263          45.300

  20993497.258                   110321573.467 8     -1723.447          55.000
                  20993498.098    85964859.074 9     -1342.945          49.500

 18  7  1  0  7 35.0000000  0 11G01G08G10G11G14G18G20G22G27G31G32
  23546038.266                   123735270.767 7      3248.248          49.300
                  23546040.047    96417106.231 9      2531.108          41.500

  23471046.906                   123341159.035 7     -2058.889          49.500
                  23471049.305    96109993.783 9     -1604.329          43.000

  21952227.672                   115359728.244 8     -1613.971          52.800
                  21952229.293    89890703.012 9     -1257.636          47.500

  23383121.430                   122879128.421 7      1743.684          49.000
                  23383120.352    95749968.335 9      1358.713          41.300

  20074911.391                   105494383.659 7       -53.281          49.800
                  20074910.152    82203406.233 9       -41.522          49.800

  21846150.234                   114802297.080 7      2144.853          51.800
                  21846149.496    89456339.234 9      1671.314          46.000

  23640976.023                   124234146.198 7     -2313.506          47.800
                  23640975.422    96805828.045 8     -1802.736          39.300

  23730303.141                   124703587.313 7      2744.695          47.800
                  23730299.922    97171618.724 8      2138.723          40.800

  23983915.344                   126036300.476 7     -2962.584          47.800
                  23983917.563    98210098.788 8     -2308.507          40.800

  21915220.070                   115165270.204 8      2585.601          53.300
                  21915219.230    89739187.007 9      2014.754          45.000

  20995138.023                   110330195.570 8     -1725.042          55.000
                  20995138.824    85971577.595 9     -1344.190          49.300

 18  7  1  0  7 40.0000000  0 11G01G08G10G11G14G18G20G22G27G31G32
  23542948.383                   123719032.905 7      3247.299          48.500
                  23542950.004    96404453.345 9      2530.363          41.500

  23473006.820                   123351458.521 7     -2060.373          49.800
                  23473009.242    96118019.344 9     -1605.486          43.000

  21953763.891                   115367801.084 8     -1614.780          53.000
                  21953765.531    89896993.535 9     -1258.271          47.300

  23381463.648                   122870416.605 7      1741.671          49.000
                  23381462.590    95743179.901 9      1357.144          42.000

  20074963.508                   105494657.606 7       -55.627          50.000
                  20074962.309    82203619.697 9       -43.346          49.800

  21844110.656                   114791579.162 7      2142.925          51.800
                  21844109.938    89447987.601 9      1669.811          45.800

  23643177.742                   124245716.194 7     -2314.144          47.800
                  23643177.121    96814843.620 8     -1803.225          39.800

  23727691.680                   124689864.069 7      2744.813          48.300
                  23727688.500    97160925.288 8      2138.815          40.000

  23986734.219                   126051113.633 7     -2962.455          48.000
                  23986736.398    98221641.487 8     -2308.405          40.000

  21912761.016                   115152347.812 8      2583.909          53.300
                  21912760.156    89729117.612 9      2013.435          45.000

  20996780.242                   110338825.315 8     -1726.363          55.000
                  20996781.004    85978302.077 9     -1345.218          49.300

 18  7  1  0  7 45.0000000  0 11G01G08G10G11G14G18G20G22G27G31G32
  23539859.508                   123702800.352 7      3246.017          49.300
                  23539861.027    96391804.603 8      2529.370          41.000

  23474968.242                   123361765.934 7     -2062.186          49.800
                  23474970.703    96126051.091 9     -1606.898          43.300

  21955300.977                   115375878.615 8     -1615.942          53.300
                  21955302.637    89903287.705 9     -1259.171          47.300

  23379807.883                   122861715.459 7      1739.304          49.500
                  23379806.805    95736399.797 9      1355.304          41.500

  20075017.984                   105494943.908 7       -58.302          50.000
                  20075016.785    82203842.786 9       -45.430          49.500

  21842072.992                   114780871.473 8      2140.652          52.300
                  21842072.293    89439643.956 9      1668.042          44.800

  23645380.188                   124257289.910 7     -2315.098          48.000
                  23645379.488    96823862.090 8     -1803.977          40.300

  23725080.242                   124676140.873 7      2744.568          48.300
                  23725077.043    97150231.894 8      2138.621          40.000

  23989553.102                   126065926.716 7     -2962.681          47.800
                  23989555.262    98233184.154 9     -2308.583          41.500

  21910303.656                   115139434.498 8      2581.880          53.500
                  21910302.816    89719055.296 9      2011.853          44.800

  20998423.797                   110347462.247 8     -1728.029          55.000
                  20998424.516    85985032.153 9     -1346.516          49.000

 18  7  1  0  7 50.0000000  0 11G01G08G10G11G14G18G20G22G27G31G32
  23536771.688                   123686573.617 7      3244.948          48.800
                  23536773.168    96379160.384 8      2528.531          41.000

  23476931.281                   123372081.766 7     -2063.758          49.800
                  23476933.723    96134089.399 9     -1608.117          42.800

  21956839.094                   115383961.338 8     -1616.885          53.300
                  21956840.734    89909585.928 9     -1259.910          47.500

  23378154.242                   122853025.504 7      1737.173          49.300
                  23378153.164    95729628.391 8      1353.647          40.800

  20075074.906                   105495243.017 7       -60.769          50.300
                  20075073.727    82204075.857 9       -47.353          49.300

  21840037.375                   114770174.538 8      2138.579          52.300
                  21840036.715    89431308.684 9      1666.431          45.000

  23647583.422                   124268867.915 7     -2315.873          48.300
                  23647582.703    96832883.913 8     -1804.578          38.500

  23722468.898                   124662418.212 7      2744.566          48.300
                  23722465.699    97139538.909 8      2138.623          40.000

  23992372.039                   126080740.227 7     -2962.658          47.500
                  23992374.160    98244727.123 8     -2308.568          40.500

  21907848.156                   115126530.763 8      2580.049          53.800
                  21907847.297    89709000.446 9      2010.426          45.300

  21000068.844                   110356106.857 8     -1729.474          54.800
                  21000069.523    85991768.211 9     -1347.642          49.300

 18  7  1  0  7 55.0000000  0 11G01G08G10G11G14G18G20G22G27G31G32
  23533684.883                   123670352.206 7      3243.960          49.000
                  23533686.305    96366520.329 9      2527.765          41.300

  23478895.805                   123382405.422 7     -2065.268          49.500
                  23478898.246    96142133.802 9     -1609.302          43.000

  21958378.094                   115392048.745 8     -1617.757          53.300
                  21958379.754    89915887.800 9     -1260.590          47.300

  23376502.625                   122844346.211 7      1735.113          49.300
                  23376501.547    95722865.304 9      1352.040          41.500

  20075134.172                   105495554.391 7       -63.145          50.300
                  20075132.973    82204318.480 9       -49.201          49.300

  21838003.719                   114759487.777 8      2136.632          52.300
                  21838003.059    89422981.329 9      1664.912          44.800

  23649787.367                   124280449.664 7     -2316.543          48.300
                  23649786.629    96841908.651 8     -1805.092          39.300

  23719857.563                   124648695.635 7      2744.621          48.300
                  23719854.363    97128845.997 8      2138.666          40.300

  23995190.961                   126095553.626 7     -2962.579          47.500
                  23995193.082    98256270.031 8     -2308.501          40.800

  21905394.414                   115113636.131 8      2578.289          54.000
                  21905393.516    89698952.684 9      2009.054          44.800

  21001715.219                   110364758.626 8     -1730.825          55.000
                  21001715.879    85998509.843 9     -1348.693          49.000

 18  7  1  0  8  0.0000000  0 11G01G08G10G11G14G18G20G22G27G31G32
  23530599.008                   123654135.865 7      3242.806          48.800
                  23530600.387    96353884.213 9      2526.864          41.300

  23480861.805                   123392736.762 7     -2066.924          49.800
                  23480864.227    96150184.197 9     -1610.592          43.500

  21959917.938                   115400140.567 8     -1618.774          53.000
                  21959919.578    89922193.110 9     -1261.380          47.500

  23374852.984                   122835677.378 7      1732.879          48.800
                  23374851.926    95716110.378 9      1350.294          41.500

  20075195.711                   105495877.773 7       -65.683          50.300
                  20075194.531    82204570.472 9       -51.181          49.500

  21835971.938                   114748811.024 7      2134.498          51.500
                  21835971.336    89414661.790 9      1663.245          45.000

  23651991.961                   124292034.870 7     -2317.371          47.500
                  23651991.199    96850936.070 8     -1805.748          39.300

  23717246.180                   124634972.767 7      2744.537          48.300
                  23717243.000    97118152.855 8      2138.600          40.300

  23998009.797                   126110366.612 7     -2962.618          48.000
                  23998011.938    98267812.591 8     -2308.528          41.000

  21902942.352                   115100750.350 8      2576.394          53.500
                  21902941.391    89688911.816 9      2007.580          45.300

  21003362.922                   110373417.283 8     -1732.325          54.800
                  21003363.563    86005256.846 9     -1349.862          49.500

 18  7  1  0  8  5.0000000  0 11G01G08G10G11G14G18G20G22G27G31G32
  23527514.367                   123637925.768 7      3241.445          48.500
                  23527515.707    96341252.962 9      2525.803          41.300

  23482829.484                   123403076.979 7     -2068.808          49.800
                  23482831.883    96158241.503 9     -1612.060          42.300

  21961458.836                   115408237.970 8     -1620.004          53.000
                  21961460.477    89928502.770 9     -1262.343          47.500

  23373205.508                   122827020.136 7      1730.452          48.300
                  23373204.547    95709364.456 9      1348.410          42.500

  20075259.750                   105496214.329 7       -68.442          50.000
                  20075258.551    82204832.726 9       -53.333          49.300

  21833942.297                   114738145.493 7      2132.128          51.800
                  21833941.758    89406350.985 9      1661.396          45.300

  23654197.422                   124303624.746 7     -2318.417          47.800
                  23654196.660    96859967.150 8     -1806.560          39.500

  23714635.063                   124621250.879 7      2744.232          49.000
                  23714631.824    97107460.484 8      2138.363          39.300

  24000828.820                   126125180.394 7     -2962.894          47.500
                  24000830.922    98279355.814 8     -2308.753          40.500

  21900492.195                   115087874.578 8      2574.284          53.300
                  21900491.195    89678878.751 9      2005.936          45.500

  21005012.141                   110382083.990 8     -1734.057          54.800
                  21005012.781    86012010.124 9     -1351.215          49.300

 18  7  1  0  8 10.0000000  0 11G01G08G10G11G14G18G20G22G27G31G32
  23524430.922                   123621722.328 7      3240.194          48.300
                  23524432.281    96328626.912 9      2524.829          42.000

  23484798.922                   123413426.438 7     -2070.568          49.800
                  23484801.301    96166306.004 9     -1613.426          43.800

  21963000.891                   115416341.358 8     -1621.113          53.000
                  21963002.531    89934817.101 9     -1263.205          47.500

  23371560.328                   122818374.869 7      1728.132          48.500
                  23371559.406    95702627.909 8      1346.594          41.000

  20075326.367                   105496564.430 7       -71.056          50.300
                  20075325.148    82205105.534 9       -55.368          49.800

  21831914.813                   114727491.471 7      2129.840          51.300
                  21831914.391    89398049.164 9      1659.611          45.300

  23656403.867                   124315219.674 7     -2319.349          47.800
                  23656403.129    96869002.149 8     -1807.281          39.000

  23712024.242                   124607530.247 7      2744.056          49.000
                  23712020.863    97096769.060 8      2138.228          39.800

  24003648.023                   126139995.324 7     -2963.039          47.800
                  24003650.125    98290899.897 9     -2308.853          42.000

  21898044.016                   115075009.200 8      2572.292          53.500
                  21898042.957    89668853.781 9      2004.384          45.300

  21006662.961                   110390759.120 8     -1735.665          54.800
                  21006663.621    86018769.966 9     -1352.464          49.500

 18  7  1  0  8 15.0000000  0 11G01G08G10G11G14G18G20G22G27G31G32
  23521348.406                   123605523.595 7      3239.196          48.500
                  23521349.746    96316004.524 9      2524.047          41.800

  23486769.727                   123423783.038 7     -2072.074          49.300
                  23486772.105    96174376.080 9     -1614.603          43.300

  21964543.711                   115424448.785 8     -1621.961          53.300
                  21964545.313    89941134.566 9     -1263.858          47.000

  23369917.047                   122809739.674 7      1726.066          48.000
                  23369916.168    95695899.184 9      1344.983          41.500

  20075395.211                   105496926.168 7       -73.442          50.300
                  20075393.973    82205387.410 9       -57.227          48.800

  21829889.180                   114716847.055 7      2127.948          52.000
                  21829888.840    89389754.812 9      1658.147          45.300

  23658610.867                   124326817.690 7     -2320.004          47.800
                  23658610.148    96878039.551 8     -1807.789          39.300

  23709413.203                   124593809.026 7      2744.119          47.800
                  23709409.781    97086077.212 8      2138.272          39.500

  24006467.078                   126154809.411 7     -2962.915          47.500
                  24006469.199    98302443.337 8     -2308.763          40.800

  21895597.453                   115062152.307 8      2570.540          53.500
                  21895596.332    89658835.425 9      2003.020          45.000

  21008315.000                   110399440.691 8     -1736.997          54.500
                  21008315.699    86025534.829 9     -1353.502          49.300

 18  7  1  0  8 20.0000000  0 11G01G08G10G11G14G18G20G22G27G31G32
  23518266.961                   123589330.340 7      3238.281          48.000
                  23518268.242    96303386.405 9      2523.340          41.500

  23488742.008                   123434147.531 7     -2073.453          49.800
                  23488744.387    96182452.311 9     -1615.682          42.800

  21966087.453                   115432560.980 8     -1622.752          53.500
                  21966089.012    89947455.757 9     -1264.484          47.000

  23368275.828                   122801115.215 7      1724.101          48.800
                  23368274.988    95689178.828 8      1343.447          41.000

  20075466.367                   105497300.253 7       -75.738          50.300
                  20075465.129    82205678.905 9       -59.019          49.300

  21827865.578                   114706213.071 7      2126.027          52.000
                  21827865.277    89381468.584 9      1656.638          45.300

  23660818.625                   124338419.565 7     -2320.605          47.800
                  23660817.926    96887079.978 8     -1808.264          39.800

  23706802.125                   124580087.952 7      2744.266          48.000
                  23706798.645    97075385.462 8      2138.383          39.000

  24009286.117                   126169623.424 7     -2962.731          48.000
                  24009288.195    98313986.704 8     -2308.622          41.000

  21893152.633                   115049304.646 8      2568.861          54.000
                  21893151.453    89648824.267 9      2001.710          45.300

  21009968.422                   110408129.485 8     -1738.266          54.500
                  21009969.121    86032305.313 9     -1354.493          49.300

 18  7  1  0  8 25.0000000  0 11G01G08G10G11G14G18G20G22G27G31G32
  23515186.742                   123573143.538 7      3236.755          48.000
                  23515187.980    96290773.304 9      2522.149          41.800

  23490716.008                   123444520.966 7     -2075.476          49.800
                  23490718.367    96190535.509 9     -1617.254          43.000

  21967632.273                   115440678.923 8     -1624.121          53.500
                  21967633.813    89953781.424 9     -1265.549          47.500

  23366636.906                   122792502.617 7      1721.489          49.500
                  23366636.066    95682467.727 8      1341.420          41.000

  20075540.070                   105497687.563 7       -78.607          50.300
                  20075538.809    82205980.714 9       -61.253          49.300

  21825844.156                   114695590.460 7      2123.528          52.000
                  21825843.875    89373191.233 9      1654.697          45.800

  23663027.281                   124350026.262 7     -2321.803          47.500
                  23663026.602    96896124.143 8     -1809.187          39.000

  23704191.281                   124566368.019 7      2743.817          48.300
                  23704187.680    97064694.626 8      2138.033          40.300

  24012105.297                   126184438.326 7     -2963.133          47.300
                  24012107.438    98325530.791 9     -2308.933          41.500

  21890709.773                   115036467.228 8      2566.583          53.800
                  21890708.555    89638821.088 9      1999.933          45.000

  21011623.383                   110416826.453 8     -1740.126          54.300
                  21011624.121    86039082.170 9     -1355.943          49.300

 18  7  1  0  8 30.0000000  0 11G01G08G10G11G14G18G20G22G27G31G32
  23512107.688                   123556962.674 7      3235.678          48.500
                  23512108.848    96278164.841 9      2521.307          42.800

  23492691.586                   123454902.783 7     -2077.048          49.300
                  23492693.965    96198625.230 9     -1618.477          42.500

  21969178.094                   115448802.085 8     -1625.062          53.500
                  21969179.594    89960111.158 9     -1266.282          47.500

  23365000.164                   122783901.280 7      1719.345          49.300
                  23364999.266    95675765.353 9      1339.756          41.800

  20075616.188                   105498087.691 7       -81.069          50.000
                  20075614.926    82206292.501 9       -63.171          49.500

  21823824.836                   114684978.723 8      2121.445          52.800
                  21823824.555    89364922.328 9      1653.076          45.800

  23665236.766                   124361637.224 7     -2322.552          47.500
                  23665236.125    96905171.633 8     -1809.777          38.500

  23701580.563                   124552648.743 7      2743.801          48.000
                  23701576.922    97054004.256 8      2138.029          40.800

  24014924.523                   126199253.527 7     -2963.073          47.800
                  24014926.723    98337075.077 8     -2308.884          41.000

  21888268.773                   115023639.526 8      2564.741          54.000
                  21888267.492    89628825.480 9      1998.498          45.300

  21013279.781                   110425531.044 8     -1741.545          54.500
                  21013280.543    86045864.963 9     -1357.048          49.000

 18  7  1  0  8 35.0000000  0 11G01G08G10G11G14G18G20G22G27G31G32
  23509029.766                   123540788.247 7      3234.398          47.300
                  23509030.965    96265561.388 9      2520.318          41.500

  23494668.820                   123465293.302 7     -2078.790          49.300
                  23494671.199    96206721.742 9     -1619.842          43.000

  21970724.992                   115456930.974 8     -1626.210          53.500
                  21970726.492    89966445.348 9     -1267.173          47.500

  23363365.648                   122775311.572 7      1717.020          50.300
                  23363364.750    95669072.101 9      1337.931          41.800

  20075694.852                   105498501.081 7       -83.702          50.300
                  20075693.590    82206614.625 9       -65.220          49.300

  21821807.633                   114674378.321 7      2119.193          52.000
                  21821807.395    89356662.291 9      1651.313          45.500

  23667447.164                   124373252.933 7     -2323.503          47.500
                  23667446.543    96914222.835 8     -1810.520          39.000

  23698970.102                   124538930.578 7      2743.570          49.000
                  23698966.402    97043314.785 8      2137.847          39.000

  24017743.938                   126214069.545 7     -2963.246          47.500
                  24017746.137    98348620.018 9     -2309.019          42.300

  21885829.758                   115010822.042 8      2562.699          54.000
                  21885828.398    89618837.825 9      1996.909          45.300

  21014937.742                   110434243.724 8     -1743.158          54.800
                  21014938.504    86052654.067 9     -1358.305          49.300

 18  7  1  0  8 40.0000000  0 11G01G08G10G11G14G18G20G22G27G31G32
  23505952.867                   123524619.218 7      3233.200          47.300
                  23505954.086    96252962.140 9      2519.373          41.800

  23496647.547                   123475691.608 7     -2080.458          49.500
                  23496649.945    96214824.311 9     -1621.132          42.800

  21972272.797                   115465064.502 8     -1627.251          53.800
                  21972274.238    89972783.158 9     -1267.988          47.000

  23361733.188                   122766732.658 7      1714.760          50.000
                  23361732.266    95662387.229 9      1336.181          41.300

  20075775.852                   105498926.731 7       -86.290          50.000
                  20075774.590    82206946.298 9       -67.239          49.500

  21819792.398                   114663788.213 8      2117.022          52.300
                  21819792.180    89348410.249 9      1649.640          45.500

  23669658.242                   124384872.392 7     -2324.363          47.500
                  23669657.641    96923276.953 8     -1811.190          39.300

  23696359.578                   124525212.465 6      2743.457          46.800
                  23696355.977    97032625.353 9      2137.757          41.500

  24020563.297                   126228885.276 7     -2963.296          47.800
                  24020565.496    98360164.731 9     -2309.064          41.500

  21883392.438                   114998013.700 8      2560.755          54.000
                  21883391.039    89608857.308 9      1995.392          45.000

  21016597.000                   110442963.452 8     -1744.682          54.300
                  21016597.781    86059448.660 9     -1359.491          49.000

 18  7  1  0  8 45.0000000  0 11G01G08G10G11G14G18G20G22G27G31G32
  23502876.883                   123508454.999 6      3232.356          46.800
                  23502878.121    96240366.662 9      2518.715          41.500

  23498627.625                   123486097.138 7     -2081.806          49.500
                  23498630.047    96222932.520 9     -1622.184          42.800

  21973821.336                   115473202.114 8     -1627.963          53.500
                  21973822.777    89979124.148 9     -1268.540          47.300

  23360102.648                   122758163.855 7      1712.832          49.800
                  23360101.688    95655710.232 9      1334.670          41.500

  20075859.047                   105499363.990 7       -88.505          50.300
                  20075857.809    82207287.019 9       -68.967          48.800

  21817778.992                   114653207.851 7      2115.181          52.000
                  21817778.832    89340165.817 9      1648.189          45.000

  23671869.945                   124396494.943 7     -2324.872          47.800
                  23671869.305    96932333.489 8     -1811.595          38.300

  23693748.898                   124511493.764 7      2743.659          48.800
                  23693745.438    97021935.482 8      2137.912          39.500

  24023382.461                   126243700.138 6     -2963.023          46.800
                  24023384.680    98371708.788 9     -2308.845          41.300

  21880956.773                   114985213.963 8      2559.137          54.500
                  21880955.313    89598883.485 9      1994.130          44.500

  21018257.500                   110451689.628 8     -1745.870          54.500
                  21018258.301    86066248.275 9     -1360.416          48.800

 18  7  1  0  8 50.0000000  0 11G01G08G10G11G14G18G20G22G27G31G32
  23499802.086                   123492297.484 6      3230.975          45.800
                  23499803.484    96227776.396 9      2517.646          41.500

  23500609.422                   123496511.733 7     -2083.635          49.300
                  23500611.902    96231047.784 9     -1623.614          43.000

  21975371.016                   115481345.637 8     -1629.187          53.300
                  21975372.477    89985469.757 9     -1269.499          47.300

  23358474.406                   122749607.015 7      1710.409          50.000
                  23358473.387    95649042.579 9      1332.790          41.300

  20075944.805                   105499814.706 7       -91.222          50.000
                  20075943.586    82207638.231 9       -71.086          49.000

  21815767.797                   114642639.055 7      2112.837          52.000
                  21815767.695    89331930.418 9      1646.360          45.300

  23674082.586                   124408122.477 7     -2325.892          47.800
                  23674081.906    96941393.902 8     -1812.383          38.800

  23691138.578                   124497776.361 7      2743.373          49.000
                  23691135.059    97011246.599 8      2137.687          39.300

  24026201.820                   126258515.944 7     -2963.238          47.500
                  24026204.082    98383253.544 9     -2309.013          41.300

  21878523.094                   114972424.631 8      2557.042          54.300
                  21878521.594    89588917.776 9      1992.499          45.300

  21019919.539                   110460424.067 8     -1747.549          54.000
                  21019920.379    86073054.338 9     -1361.726          48.800

 18  7  1  0  8 55.0000000  0 11G01G08G10G11G14G18G20G22G27G31G32
  23496728.508                   123476146.014 6      3229.760          45.800
                  23496729.988    96215190.835 9      2516.695          42.500

  23502592.781                   123506934.508 7     -2085.272          49.000
                  23502595.301    96239169.421 9     -1624.887          43.300

  21976921.672                   115489494.445 8     -1630.246          53.300
                  21976923.152    89991819.463 9     -1270.322          46.800

  23356848.289                   122741061.513 7      1708.152          49.800
                  23356847.230    95642383.736 8      1331.030          41.000

  20076033.008                   105500278.229 7       -93.771          50.000
                  20076031.809    82207999.416 9       -73.068          49.500

  21813758.656                   114632081.200 7      2110.643          51.800
                  21813758.637    89323703.497 9      1644.661          46.000

  23676296.047                   124419754.319 7     -2326.756          47.800
                  23676295.328    96950457.673 8     -1813.065          38.300

  23688528.422                   124484059.654 7      2743.239          49.000
                  23688524.801    97000558.246 8      2137.593          39.800

  24029021.242                   126273332.072 6     -2963.307          46.800
                  24029023.523    98394798.594 9     -2309.070          42.000

  21876091.273                   114959645.102 8      2555.069          54.300
                  21876089.734    89578959.707 9      1990.961          45.000

  21021583.039                   110469166.165 8     -1749.083          54.000
                  21021583.938    86079866.357 9     -1362.922          49.000

 18  7  1  0  9  0.0000000  0 11G01G08G10G11G14G18G20G22G27G31G32
  23493655.727                   123459999.295 6      3228.770          45.000
                  23493657.387    96202609.005 9      2515.915          43.300

  23504577.484                   123517364.345 7     -2086.717          49.500
                  23504580.043    96247296.577 9     -1626.017          42.800

  21978473.094                   115497647.251 8     -1631.061          53.300
                  21978474.594    89998172.301 9     -1270.956          47.500

  23355224.086                   122732526.095 7      1706.089          50.800
                  23355223.008    95635732.775 9      1329.418          41.300

  20076123.406                   105500753.271 7       -96.099          50.500
                  20076122.246    82208369.580 9       -74.882          49.000

  21811751.414                   114621533.056 8      2108.656          53.000
                  21811751.434    89315484.195 9      1643.103          45.300

  23678510.063                   124431389.233 7     -2327.408          47.800
                  23678509.344    96959523.840 8     -1813.567          38.500

  23685918.141                   124470342.357 7      2743.323          50.000
                  23685914.480    96989869.440 8      2137.656          38.800

  24031840.461                   126288147.228 7     -2963.141          48.300
                  24031842.762    98406342.845 9     -2308.937          41.500

  21873661.055                   114946874.110 8      2553.343          54.000
                  21873659.516    89569008.287 9      1989.618          45.300

  21023247.758                   110477914.601 8     -1750.366          54.500
                  21023248.699    86086683.320 9     -1363.921          49.000

 18  7  1  0  9  5.0000000  0 11G01G08G10G11G14G18G20G22G27G31G32
  23490584.305                   123443859.646 6      3227.275          45.000
                  23490586.125    96190032.657 9      2514.766          41.800

  23506563.961                   123527803.488 7     -2088.674          49.300
                  23506566.539    96255430.974 9     -1627.536          42.800

  21980025.695                   115505806.293 8     -1632.398          53.300
                  21980027.215    90004529.988 9     -1271.994          47.000

  23353602.242                   122724002.964 7      1703.535          49.800
                  23353601.082    95629091.372 9      1327.430          41.300

  20076216.445                   105501242.047 7       -98.942          50.300
                  20076215.266    82208750.443 9       -77.098          49.300

  21809746.477                   114610996.868 8      2106.192          52.500
                  21809746.477    89307274.166 9      1641.197          45.300

  23680725.102                   124443029.402 7     -2328.535          48.300
                  23680724.340    96968594.101 8     -1814.441          38.000

  23683308.086                   124456626.640 7      2742.913          48.800
                  23683304.547    96979181.875 8      2137.333          38.800

  24034659.938                   126302963.572 7     -2963.467          47.500
                  24034662.238    98417888.050 8     -2309.197          40.500

  21871232.898                   114934113.872 8      2551.091          54.300
                  21871231.340    89559065.249 9      1987.861          45.000

  21024914.117                   110486671.608 8     -1752.187          54.300
                  21024915.117    86093506.957 9     -1365.340          48.800

 18  7  1  0  9 10.0000000  0 11G01G08G10G11G14G18G20G22G27G31G32
  23487513.867                   123427725.003 6      3226.479          45.000
                  23487515.828    96177460.216 9      2514.133          42.800

  23508551.820                   123538249.858 7     -2089.899          49.000
                  23508554.441    96263571.002 9     -1628.495          43.500

  21981579.117                   115513969.604 8     -1633.057          53.000
                  21981580.637    90010890.999 9     -1272.508          46.800

  23351982.328                   122715490.137 7      1701.696          50.000
                  23351981.148    95622457.990 9      1325.995          41.500

  20076311.672                   105501742.587 7      -101.112          50.300
                  20076310.551    82209140.469 9       -78.787          49.000

  21807743.414                   114600470.627 8      2104.416          52.300
                  21807743.414    89299071.886 9      1639.802          45.300

  23682940.766                   124454672.900 7     -2329.013          47.800
                  23682940.027    96977666.937 8     -1814.816          37.800

  23680697.961                   124442910.588 7      2743.186          49.300
                  23680694.480    96968494.069 8      2137.542          38.800

  24037479.203                   126317779.209 7     -2963.125          47.300
                  24037481.543    98429432.684 9     -2308.925          41.300

  21868806.438                   114921362.507 8      2549.509          54.300
                  21868804.859    89549129.123 9      1986.635          45.300

  21026581.719                   110495435.173 8     -1753.290          54.500
                  21026582.758    86100335.703 9     -1366.200          48.800

 18  7  1  0  9 15.0000000  0 11G01G08G10G11G14G18G20G22G27G31G32
  23484444.625                   123411596.453 6      3225.278          45.500
                  23484446.684    96164892.550 9      2513.202          42.800

  23510541.266                   123548704.509 7     -2091.501          49.500
                  23510543.906    96271717.482 9     -1629.745          43.300

  21983133.516                   115522138.126 8     -1634.053          53.300
                  21983135.074    90017256.081 9     -1273.292          47.000

  23350364.609                   122706988.622 7      1699.468          50.500
                  23350363.410    95615833.446 9      1324.261          41.300

  20076409.367                   105502255.849 7      -103.608          50.300
                  20076408.227    82209540.416 9       -80.734          49.300

  21805742.492                   114589955.319 8      2102.243          52.800
                  21805742.414    89290878.157 9      1638.111          45.300

  23685157.219                   124466320.670 7     -2329.815          47.500
                  23685156.520    96986743.121 8     -1815.436          37.300

  23678088.047                   124429195.221 7      2743.094          49.500
                  23678084.508    96957806.748 8      2137.480          39.300

  24040298.563                   126332594.988 7     -2963.086          48.300
                  24040300.922    98440977.434 9     -2308.898          41.300

  21866381.836                   114908620.928 8      2547.599          54.000
                  21866380.234    89539200.619 9      1985.144          45.500

  21028250.781                   110504206.284 8     -1754.756          54.300
                  21028251.840    86107170.337 9     -1367.340          49.000

 18  7  1  0  9 20.0000000  0 11G01G08G10G11G14G18G20G22G27G31G32
  23481376.203                   123395472.244 6      3224.406          44.800
                  23481378.363    96152328.204 9      2512.526          43.500

  23512531.906                   123559165.595 7     -2092.831          49.300
                  23512534.566    96279868.961 9     -1630.773          42.500

  21984688.594                   115530310.153 8     -1634.765          53.000
                  21984690.113    90023623.886 9     -1273.839          47.000

  23348748.703                   122698496.711 7      1697.534          50.000
                  23348747.465    95609216.368 9      1322.758          41.500

  20076509.125                   105502780.107 7      -105.826          50.000
                  20076508.004    82209948.929 9       -82.458          49.800

  21803743.273                   114579449.268 7      2100.396          51.300
                  21803743.195    89282691.613 9      1636.676          46.300

  23687374.203                   124477970.997 7     -2330.359          48.300
                  23687373.504    96995821.290 8     -1815.862          39.800

  23675477.922                   124415478.727 7      2743.294          48.300
                  23675474.301    96947118.575 8      2137.630          40.300

  24043117.602                   126347409.230 6     -2962.810          47.000
                  24043120.000    98452520.991 9     -2308.677          41.300

  21863958.734                   114895887.367 8      2545.970          54.500
                  21863957.113    89529278.370 9      1983.873          45.300

  21029920.938                   110512983.192 8     -1755.920          54.000
                  21029922.016    86114009.484 9     -1368.245          49.000

 18  7  1  0  9 25.0000000  0 11G01G08G10G11G14G18G20G22G27G31G32
  23478309.086                   123379354.908 6      3222.824          45.800
                  23478311.285    96139769.284 9      2511.279          43.000

  23514524.266                   123569635.751 7     -2094.852          49.300
                  23514527.004    96288027.522 9     -1632.350          43.500

  21986244.852                   115538488.320 8     -1636.221          53.300
                  21986246.352    90029996.478 9     -1274.975          47.300

  23347135.125                   122690016.973 7      1694.872          51.000
                  23347133.805    95602608.784 8      1320.676          41.000

  20076611.469                   105503317.944 7      -108.737          50.300
                  20076610.391    82210368.025 9       -84.728          49.300

  21801746.273                   114568955.005 8      2097.805          52.500
                  21801746.195    89274514.269 9      1634.645          45.500

  23689592.141                   124489626.471 7     -2331.607          47.800
                  23689591.461    97004903.471 8     -1816.836          38.500

  23672868.023                   124401763.776 7      2742.766          48.800
                  23672864.363    96936431.599 8      2137.222          39.000

  24045936.859                   126362224.531 7     -2963.228          47.500
                  24045939.281    98464065.378 8     -2309.007          40.800

  21861537.695                   114883164.582 8      2543.611          54.300
                  21861536.074    89519364.512 9      1982.036          45.300

  21031592.680                   110521768.537 8     -1757.846          54.300
                  21031593.801    86120855.205 9     -1369.750          48.800

 18  7  1  0  9 30.0000000  0 11G01G08G10G11G14G18G20G22G27G31G32
  23475243.344                   123363244.212 6      3221.768          47.000
                  23475245.523    96127215.508 9      2510.472          41.800

  23516518.281                   123580114.539 7     -2096.281          49.000
                  23516521.043    96296192.814 9     -1633.464          43.500

  21987802.172                   115546672.155 8     -1637.075          53.000
                  21987803.691    90036373.488 9     -1275.645          47.000

  23345523.805                   122681549.014 7      1692.807          50.800
                  23345522.406    95596010.364 9      1319.071          41.800

  20076716.352                   105503868.935 7      -111.102          50.500
                  20076715.230    82210797.362 9       -86.575          49.000

  21799751.539                   114558472.168 8      2095.805          52.500
                  21799751.359    89266345.817 9      1633.089          45.300

  23691811.000                   124501286.651 7     -2332.261          47.800
                  23691810.301    97013989.318 8     -1817.342          38.300

  23670258.344                   124388049.896 7      2742.845          48.800
                  23670254.645    96925745.447 8      2137.278          40.000

  24048756.219                   126377040.428 7     -2963.073          47.500
                  24048758.641    98475610.224 8     -2308.884          40.800

  21859118.617                   114870452.091 8      2541.829          54.300
                  21859116.977    89509458.681 9      1980.644          45.800

  21033265.961                   110530561.798 8     -1759.141          54.000
                  21033267.063    86127707.099 9     -1370.762          49.000

 18  7  1  0  9 35.0000000  0 11G01G08G10G11G14G18G20G22G27G31G32
  23472178.688                   123347139.373 6      3220.643          46.800
                  23472180.828    96114666.251 9      2509.592          42.300

  23518513.766                   123590601.291 7     -2097.831          48.800
                  23518516.625    96304364.292 9     -1634.674          43.800

  21989360.492                   115554861.035 8     -1638.039          52.800
                  21989361.953    90042754.435 9     -1276.394          47.300

  23343914.586                   122673092.183 7      1690.632          50.500
                  23343913.086    95589420.625 8      1317.375          40.500

  20076823.586                   105504432.456 7      -113.559          50.500
                  20076822.445    82211236.475 9       -88.485          49.500

  21797758.719                   114548000.143 7      2093.682          50.800
                  21797758.559    89258185.787 9      1631.445          45.800

  23694030.641                   124512950.909 7     -2333.033          47.500
                  23694029.922    97023078.344 8     -1817.946          38.800

  23667648.703                   124374336.461 7      2742.808          48.300
                  23667645.125    96915059.694 8      2137.251          40.300

  24051575.578                   126391856.249 7     -2963.002          47.300
                  24051578.000    98487155.024 9     -2308.839          41.800

  21856701.375                   114857749.244 8      2539.950          54.000
                  21856699.715    89499560.360 9      1979.178          45.500

  21034940.578                   110539362.401 8     -1760.542          53.800
                  21034941.719    86134564.702 9     -1371.849          48.800

 18  7  1  0  9 40.0000000  0 11G01G08G10G11G14G18G20G22G27G31G32
  23469115.203                   123331040.564 7      3219.290          47.500
                  23469117.324    96102121.745 9      2508.533          42.000

  23520510.781                   123601096.075 7     -2099.571          48.800
                  23520513.703    96312542.056 9     -1636.037          43.500

  21990919.797                   115563055.067 8     -1639.201          53.000
                  21990921.195    90049139.389 9     -1277.301          47.300

  23342307.508                   122664646.597 7      1688.241          50.800
                  23342305.930    95582839.647 9      1315.516          42.000

  20076933.227                   105505008.578 7      -116.223          50.300
                  20076932.047    82211685.404 9       -90.561          49.300

  21795768.016                   114537538.986 8      2091.394          52.800
                  21795767.836    89250034.257 9      1629.662          45.300

  23696251.078                   124524619.350 7     -2334.006          47.300
                  23696250.316    97032170.636 8     -1818.704          38.500

  23665039.266                   124360623.601 7      2742.548          49.300
                  23665035.586    96904374.337 8      2137.050          39.300

  24054394.922                   126406672.147 6     -2963.157          47.000
                  24054397.383    98498699.867 8     -2308.953          40.300

  21854285.992                   114845056.171 8      2537.862          54.300
                  21854284.293    89489669.654 9      1977.550          45.800

  21036616.656                   110548170.429 8     -1762.176          54.000
                  21036617.816    86141428.102 9     -1373.126          49.000

 18  7  1  0  9 45.0000000  0 11G01G08G10G11G14G18G20G22G27G31G32
  23466052.781                   123314947.239 7      3218.352          47.800
                  23466054.859    96089581.492 9      2507.807          42.500

  23522509.242                   123611598.374 7     -2100.921          48.300
                  23522512.262    96320725.661 9     -1637.077          43.500

  21992479.977                   115571253.695 8     -1639.960          53.000
                  21992481.316    90055527.935 9     -1277.889          47.300

  23340702.469                   122656211.716 7      1686.251          49.800
                  23340700.848    95576267.007 9      1313.962          41.800

  20077045.172                   105505596.756 7      -118.475          50.000
                  20077043.973    82212143.730 9       -92.320          49.500

  21793779.336                   114527088.179 7      2089.449          52.000
                  21793779.074    89241890.775 9      1628.134          45.300

  23698472.203                   124536291.433 7     -2334.573          47.300
                  23698471.422    97041265.763 8     -1819.152          39.800

  23662429.805                   124346910.717 7      2742.713          48.300
                  23662426.043    96893688.964 8      2137.175          39.800

  24057214.180                   126421487.495 7     -2962.873          47.500
                  24057216.680    98510244.275 8     -2308.726          40.500

  21851872.359                   114832372.331 8      2536.162          54.000
                  21851870.641    89479786.148 9      1976.232          46.300

  21038294.023                   110556985.267 8     -1763.382          53.800
                  21038295.223    86148296.807 9     -1374.062          49.000

 18  7  1  0  9 50.0000000  0 11G01G08G10G11G14G18G20G22G27G31G32
  23462991.445                   123298859.555 7      3217.009          48.000
                  23462993.445    96077045.624 9      2506.758          42.300

  23524509.141                   123622108.271 7     -2102.655          48.000
                  23524512.242    96328915.182 9     -1638.433          44.300

  21994041.070                   115579457.089 8     -1641.148          53.300
                  21994042.352    90061920.198 9     -1278.816          47.000

  23339099.445                   122647787.695 7      1683.847          50.000
                  23339097.805    95569702.844 9      1312.085          41.500

  20077159.406                   105506197.152 7      -121.129          50.000
                  20077158.188    82212611.573 9       -94.386          49.500

  21791792.617                   114516648.055 7      2087.100          51.800
                  21791792.379    89233755.621 9      1626.310          45.800

  23700694.063                   124547967.336 7     -2335.561          47.500
                  23700693.281    97050363.869 8     -1819.914          38.300

  23659820.266                   124333198.020 7      2742.445          48.300
                  23659816.586    96883003.777 8      2136.972          38.800

  24060033.398                   126436302.454 7     -2963.046          47.500
                  24060035.879    98521788.389 8     -2308.865          39.000

  21849460.539                   114819697.905 8      2534.049          53.800
                  21849458.777    89469909.973 9      1974.584          46.000

  21039972.719                   110565807.113 8     -1765.006          53.800
                  21039973.980    86155170.967 9     -1375.329          49.000

 18  7  1  0  9 55.0000000  0 11G01G08G10G11G14G18G20G22G27G31G32
  23459931.266                   123282777.801 7      3215.879          48.500
                  23459933.188    96064514.391 9      2505.876          42.000

  23526510.523                   123632625.954 7     -2104.169          48.300
                  23526513.723    96337110.787 9     -1639.612          44.000

  21995603.117                   115587665.481 8     -1642.078          53.300
                  21995604.336    90068316.335 9     -1279.543          47.300

  23337498.586                   122639374.827 7      1681.706          50.800
                  23337496.887    95563147.355 9      1310.422          41.800

  20077276.047                   105506810.005 7      -123.562          50.000
                  20077274.785    82213089.123 9       -96.284          49.300

  21789808.016                   114506218.581 8      2085.017          53.000
                  21789807.695    89225628.742 9      1624.690          45.500

  23702916.680                   124559647.299 7     -2336.315          47.500
                  23702915.859    97059465.121 8     -1820.503          38.800

  23657210.883                   124319485.754 7      2742.422          49.000
                  23657207.121    96872318.888 8      2136.944          38.800

  24062852.539                   126451117.255 6     -2962.918          46.800
                  24062855.020    98533332.384 9     -2308.765          42.000

  21847050.539                   114807033.138 8      2532.191          53.800
                  21847048.758    89460041.325 9      1973.134          45.800

  21041652.820                   110574636.196 8     -1766.383          53.800
                  21041654.121    86162050.776 9     -1376.400          49.000

 18  7  1  0 10  0.0000000  0 11G01G08G10G11G14G18G20G22G27G31G32
  23456872.320                   123266702.739 7      3214.629          48.500
                  23456874.199    96051988.359 9      2504.907          42.500

  23528513.563                   123643152.318 7     -2105.816          48.500
                  23528516.883    96345313.151 9     -1640.900          43.500

  21997166.258                   115595879.658 8     -1643.158          53.300
                  21997167.418    90074716.993 9     -1280.383          46.800

  23335899.969                   122630973.838 7      1679.402          50.300
                  23335898.250    95556601.124 9      1308.627          41.800

  20077395.188                   105507436.082 7      -126.121          50.000
                  20077393.926    82213576.973 9       -98.276          49.500

  21787825.617                   114495800.723 8      2082.797          52.300
                  21787825.238    89217510.934 9      1622.954          45.300

  23705140.242                   124571332.036 7     -2337.182          47.800
                  23705139.363    97068570.113 8     -1821.183          38.500

  23654601.766                   124305774.681 7      2742.259          49.800
                  23654597.984    96861634.932 8      2136.827          37.800

  24065671.820                   126465932.690 6     -2962.968          46.300
                  24065674.320    98544876.863 9     -2308.802          41.300

  21844642.539                   114794378.842 8      2530.166          54.000
                  21844640.719    89450180.833 9      1971.558          45.800

  21043334.422                   110583473.258 8     -1767.896          54.000
                  21043335.801    86168936.792 9     -1377.580          49.300

 18  7  1  0 10  5.0000000  0 11G01G08G10G11G14G18G20G22G27G31G32
  23453814.281                   123250632.423 7      3213.591          48.300
                  23453816.102    96039466.035 9      2504.095          42.500

  23530517.883                   123653685.338 7     -2107.227          48.800
                  23530521.262    96353520.686 9     -1641.997          43.500

  21998730.117                   115604097.656 8     -1643.988          53.300
                  21998731.238    90081120.628 9     -1281.027          46.800

  23334303.266                   122622582.792 7      1677.318          50.500
                  23334301.484    95550062.648 9      1307.001          41.800

  20077516.469                   105508073.389 7      -128.438          50.000
                  20077515.188    82214073.576 9      -100.080          49.500

  21785845.055                   114485392.473 8      2080.776          52.800
                  21785844.613    89209400.616 9      1621.388          45.300

  23707364.320                   124583019.611 7     -2337.821          47.300
                  23707363.398    97077677.324 8     -1821.678          38.800

  23651992.547                   124292062.829 7      2742.345          49.500
                  23651988.746    96850950.375 8      2136.893          39.500

  24068490.883                   126480746.727 6     -2962.786          46.300
                  24068493.344    98556420.258 8     -2308.669          41.000

  21842236.133                   114781733.049 8      2528.384          54.300
                  21842234.313    89440326.963 9      1970.169          45.800

  21045017.180                   110592316.363 8     -1769.194          54.000
                  21045018.621    86175827.525 9     -1378.595          49.000

 18  7  1  0 10 10.0000000  0 11G01G08G10G11G14G18G20G22G27G31G32
  23450757.320                   123234567.837 7      3212.553          48.800
                  23450759.121    96026948.182 9      2503.286          42.300

  23532523.664                   123664225.956 7     -2108.638          49.000
                  23532527.105    96361734.149 9     -1643.095          43.500

  22000294.875                   115612320.460 8     -1644.863          53.000
                  22000295.934    90087527.999 9     -1281.711          47.000

  23332708.609                   122614202.687 7      1675.237          50.500
                  23332706.809    95543532.694 9      1305.379          41.800

  20077640.086                   105508722.916 7      -130.798          50.300
                  20077638.805    82214579.703 9      -101.920          49.500

  21783866.516                   114474994.900 8      2078.737          52.800
                  21783865.996    89201298.596 9      1619.797          46.000

  23709589.102                   124594711.024 7     -2338.496          47.300
                  23709588.180    97086787.500 8     -1822.205          38.500

  23649383.305                   124278351.220 7      2742.396          48.800
                  23649379.605    96840266.006 8      2136.929          39.500

  24071309.797                   126495560.370 6     -2962.600          45.800
                  24071312.297    98567963.346 9     -2308.509          42.000

  21839831.555                   114769096.714 8      2526.603          54.500
                  21839829.715    89430480.471 9      1968.781          45.800

  21046701.258                   110601166.450 8     -1770.484          54.000
                  21046702.738    86182723.695 9     -1379.600          49.000

 18  7  1  0 10 15.0000000  0 11G01G08G10G11G14G18G20G22G27G31G32
  23447701.602                   123218509.771 7      3211.166          48.300
                  23447703.340    96014435.394 9      2502.207          42.000

  23534531.063                   123674774.978 7     -2110.401          49.000
                  23534534.523    96369954.168 9     -1644.464          43.300

  22001860.672                   115620548.836 8     -1646.051          52.800
                  22001861.711    90093939.721 9     -1282.633          47.300

  23331116.203                   122605834.319 7      1672.793          50.500
                  23331114.363    95537011.885 9      1303.475          42.000

  20077766.172                   105509385.453 7      -133.483          49.800
                  20077764.910    82215095.968 9      -104.011          49.500

  21781890.117                   114464608.656 8      2076.406          52.300
                  21781889.559    89193205.432 9      1617.977          46.000

  23711814.781                   124606407.057 6     -2339.502          47.000
                  23711813.840    97095901.281 8     -1822.987          39.000

  23646774.203                   124264640.583 7      2742.109          47.800
                  23646770.563    96829582.405 8      2136.704          40.300

  24074128.844                   126510374.347 6     -2962.755          46.500
                  24074131.324    98579506.700 8     -2308.644          41.000

  21837428.914                   114756470.698 8      2524.451          54.800
                  21837427.094    89420642.021 9      1967.102          46.000

  21048386.797                   110610024.314 8     -1772.124          53.800
                  21048388.336    86189625.920 9     -1380.874          49.300

 18  7  1  0 10 20.0000000  0 11G01G08G10G11G14G18G20G22G27G31G32
  23444647.164                   123202458.409 7      3209.707          48.500
                  23444648.863    96001927.836 9      2501.071          42.800

  23536540.125                   123685332.551 7     -2112.233          49.000
                  23536543.566    96378180.855 9     -1645.898          43.500

  22003427.594                   115628782.941 8     -1647.296          52.500
                  22003428.574    90100355.904 9     -1283.605          47.300

  23329526.047                   122597477.764 7      1670.337          50.300
                  23329524.168    95530500.280 9      1301.559          42.300

  20077894.750                   105510061.129 7      -136.216          49.800
                  20077893.488    82215622.471 9      -106.142          49.800

  21779915.914                   114454233.944 8      2073.981          52.800
                  21779915.273    89185121.233 9      1616.095          45.800

  23714041.359                   124618107.842 6     -2340.580          47.000
                  23714040.379    97105018.768 8     -1823.830          38.500

  23644165.320                   124250931.047 7      2741.778          48.300
                  23644161.719    96818899.650 8      2136.448          39.800

  24076947.938                   126525188.820 6     -2962.960          46.500
                  24076950.418    98591050.427 9     -2308.798          42.000

  21835028.297                   114743855.118 8      2522.259          54.500
                  21835026.418    89410811.703 9      1965.393          46.000

  21050073.859                   110618890.063 8     -1773.819          53.500
                  21050075.438    86196534.292 9     -1382.194          49.000

 18  7  1  0 10 25.0000000  0 11G01G08G10G11G14G18G20G22G27G31G32
  23441594.008                   123186413.822 7      3208.451          48.300
                  23441595.688    95989425.558 9      2500.092          42.500

  23538550.805                   123695898.746 7     -2113.846          49.300
                  23538554.266    96386414.247 9     -1647.151          43.800

  22004995.570                   115637022.886 8     -1648.397          52.800
                  22004996.570    90106776.641 9     -1284.469          47.300

  23327938.188                   122589133.219 7      1668.022          50.300
                  23327936.266    95523998.036 9      1299.755          42.500

  20078025.852                   105510750.012 7      -138.764          49.800
                  20078024.613    82216159.261 9      -108.128          49.800

  21777943.977                   114443870.982 8      2071.743          53.000
                  21777943.238    89177046.187 9      1614.345          45.500

  23716268.859                   124629813.523 6     -2341.455          47.000
                  23716267.898    97114140.082 8     -1824.510          39.300

  23641556.742                   124237222.780 7      2741.620          48.500
                  23641553.121    96808217.879 8      2136.328          40.300

  24079767.180                   126540003.858 6     -2962.994          46.800
                  24079769.641    98602594.606 8     -2308.826          40.500

  21832629.680                   114731250.104 8      2520.231          54.500
                  21832627.758    89400989.616 9      1963.816          46.300

  21051762.438                   110627763.805 8     -1775.319          53.800
                  21051764.039    86203448.889 9     -1383.368          49.300

 18  7  1  0 10 30.0000000  0 11G01G08G10G11G14G18G20G22G27G31G32
  23438541.883                   123170374.736 7      3207.348          48.300
                  23438543.543    95976927.571 9      2499.232          42.500

  23540562.883                   123706472.174 7     -2115.286          49.300
                  23540566.324    96394653.292 9     -1648.277          43.800

  22006564.438                   115645267.296 8     -1649.256          52.800
                  22006565.418    90113200.852 9     -1285.137          47.000

  23326352.328                   122580799.314 7      1665.912          50.300
                  23326350.367    95517504.090 9      1298.109          41.500

  20078159.172                   105511450.750 7      -141.098          50.300
                  20078157.973    82216705.292 9      -109.946          49.500

  21775973.977                   114433518.281 8      2069.690          53.000
                  21775973.156    89168979.154 9      1612.748          44.800

  23718497.023                   124641522.730 7     -2342.133          47.300
                  23718496.102    97123264.113 8     -1825.026          38.500

  23638948.125                   124223514.415 7      2741.662          48.800
                  23638944.484    96797536.039 8      2136.362          39.500

  24082586.242                   126554818.118 6     -2962.802          47.000
                  24082588.684    98614138.180 8     -2308.675          40.500

  21830232.797                   114718654.286 8      2518.413          54.000
                  21830230.875    89391174.689 9      1962.400          45.800

  21053452.320                   110636644.182 8     -1776.622          53.800
                  21053453.898    86210368.665 9     -1384.381          49.000

 18  7  1  0 10 35.0000000  0 11G01G08G10G11G14G18G20G22G27G31G32
  23435490.922                   123154341.765 7      3206.066          48.000
                  23435492.543    95964434.349 9      2498.233          42.800

  23542576.461                   123717053.420 7     -2116.904          49.800
                  23542579.902    96402898.416 9     -1649.534          43.000

  22008134.258                   115653516.887 8     -1650.381          52.800
                  22008135.238    90119629.099 9     -1286.007          46.800

  23324768.609                   122572476.783 7      1663.563          50.300
                  23324766.648    95511018.990 9      1296.285          41.800

  20078294.906                   105512164.053 7      -143.696          50.000
                  20078293.727    82217261.111 9      -111.971          49.500

  21774006.094                   114423176.611 8      2067.418          53.000
                  21774005.172    89160920.697 9      1610.973          45.500

  23720726.000                   124653236.117 7     -2343.050          47.500
                  23720725.102    97132391.428 8     -1825.753          38.800

  23636339.602                   124209806.645 7      2741.476          48.800
                  23636335.961    96786854.655 8      2136.211          39.800

  24085405.281                   126569632.260 7     -2962.857          47.500
                  24085407.641    98625681.667 8     -2308.724          40.300

  21827837.797                   114706068.355 8      2516.350          54.300
                  21827835.855    89381367.468 9      1960.794          45.800

  21055143.602                   110645531.874 8     -1778.170          54.300
                  21055145.180    86217294.135 9     -1385.585          49.000

 18  7  1  0 10 40.0000000  0 11G01G08G10G11G14G18G20G22G27G31G32
  23432441.141                   123138314.824 7      3204.933          48.000
                  23432442.680    95951945.825 9      2497.353          43.300

  23544591.508                   123727642.348 7     -2118.392          49.800
                  23544594.930    96411149.523 9     -1650.697          43.000

  22009705.031                   115661771.486 8     -1651.298          53.000
                  22009706.031    90126061.252 9     -1286.725          46.800

  23323187.008                   122564165.379 7      1661.406          50.800
                  23323185.066    95504542.574 9      1294.604          42.000

  20078433.008                   105512889.765 7      -146.108          50.000
                  20078431.848    82217826.601 9      -113.851          49.800

  21772040.273                   114412845.855 8      2065.318          53.000
                  21772039.273    89152870.767 9      1609.333          45.500

  23722955.766                   124664953.533 7     -2343.791          47.500
                  23722954.887    97141521.881 8     -1826.334          38.300

  23633731.141                   124196099.318 7      2741.455          48.800
                  23633727.563    96776173.630 8      2136.198          39.300

  24088224.281                   126584446.105 7     -2962.708          47.500
                  24088226.680    98637224.904 9     -2308.597          41.300

  21825444.656                   114693492.185 8      2514.474          53.800
                  21825442.715    89371567.863 9      1959.328          46.000

  21056836.258                   110654426.705 8     -1779.510          54.500
                  21056837.816    86224225.169 9     -1386.631          49.300

 18  7  1  0 10 45.0000000  0 11G01G08G10G11G14G18G20G22G27G31G32
  23429392.367                   123122293.061 7      3203.879          48.800
                  23429393.809    95939461.343 9      2496.530          42.300

  23546607.867                   123738238.217 7     -2119.776          50.000
                  23546611.266    96419406.049 9     -1651.776          43.300

  22011276.617                   115670030.255 8     -1652.136          52.800
                  22011277.637    90132496.644 9     -1287.375          47.000

  23321607.344                   122555864.315 7      1659.330          50.300
                  23321605.402    95498074.208 9      1292.986          42.300

  20078573.266                   105513626.984 7      -148.400          50.300
                  20078572.145    82218401.053 9      -115.636          49.800

  21770076.375                   114402525.128 8      2063.300          53.000
                  21770075.297    89144828.626 9      1607.771          45.800

  23725186.141                   124676674.146 7     -2344.411          48.000
                  23725185.199    97150654.812 8     -1826.813          38.500

  23631122.688                   124182391.595 7      2741.523          50.000
                  23631119.027    96765492.270 8      2136.256          38.800

  24091043.039                   126599258.805 7     -2962.487          47.800
                  24091045.480    98648767.262 8     -2308.429          40.800

  21823053.195                   114680924.944 8      2512.690          54.500
                  21823051.234    89361775.214 9      1957.940          45.800

  21058530.117                   110663327.820 8     -1780.763          54.300
                  21058531.656    86231161.106 9     -1387.608          49.300

 18  7  1  0 10 50.0000000  0 11G01G08G10G11G14G18G20G22G27G31G32
  23426344.922                   123106278.372 7      3202.597          48.800
                  23426346.301    95926982.346 9      2495.534          42.300

  23548625.906                   123748842.819 7     -2121.387          49.300
                  23548629.266    96427669.373 9     -1653.029          43.500

  22012849.313                   115678295.057 8     -1653.226          53.000
                  22012850.371    90138936.750 9     -1288.230          46.800

  23320030.023                   122547575.456 7      1657.013          50.800
                  23320028.082    95491615.359 9      1291.179          41.800

  20078716.086                   105514377.576 7      -150.967          50.300
                  20078714.984    82218985.932 9      -117.636          49.500

  21768114.719                   114392216.306 8      2061.043          53.500
                  21768113.598    89136795.780 9      1606.000          45.500

  23727417.500                   124688399.827 7     -2345.309          48.300
                  23727416.578    97159791.709 8     -1827.514          38.500

  23628514.484                   124168685.243 7      2741.379          49.500
                  23628510.746    96754811.998 8      2136.139          39.000

  24093861.977                   126614072.222 7     -2962.524          48.300
                  24093864.336    98660310.188 8     -2308.460          39.300

  21820663.773                   114668368.518 8      2510.651          54.500
                  21820661.852    89351990.981 9      1956.355          46.000

  21060225.523                   110672237.079 8     -1782.266          54.800
                  21060227.063    86238103.383 9     -1388.781          49.000

 18  7  1  0 10 55.0000000  0 11G01G08G10G11G14G18G20G22G27G31G32
  23423298.625                   123090269.706 7      3201.197          48.500
                  23423299.945    95914508.065 9      2494.433          42.800

  23550645.406                   123759455.132 7     -2123.139          49.800
                  23550648.746    96435938.703 9     -1654.392          42.800

  22014422.992                   115686564.867 8     -1654.422          53.000
                  22014424.070    90145380.759 9     -1289.158          46.800

  23318454.867                   122539297.808 7      1654.579          50.500
                  23318452.906    95485165.244 9      1289.283          41.500

  20078861.266                   105515140.536 7      -153.647          50.300
                  20078860.188    82219580.453 9      -119.727          49.500

  21766155.133                   114381918.355 8      2058.650          53.300
                  21766153.953    89128771.411 9      1604.147          45.300

  23729649.625                   124700129.550 7     -2346.310          48.300
                  23729648.727    97168931.742 8     -1828.294          37.500

  23625906.320                   124154979.330 7      2741.084          49.800
                  23625902.559    96744132.068 8      2135.914          39.000

  24096680.797                   126628885.284 7     -2962.637          48.000
                  24096683.219    98671852.832 8     -2308.544          39.000

  21818276.258                   114655821.900 8      2508.483          54.500
                  21818274.297    89342214.390 9      1954.664          45.500

  21061922.297                   110681153.458 8     -1783.911          54.300
                  21061923.816    86245051.213 9     -1390.061          49.000

 18  7  1  0 11  0.0000000  0 11G01G08G10G11G14G18G20G22G27G31G32
  23420253.383                   123074266.743 7      3200.151          48.300
                  23420254.684    95902038.230 9      2493.626          43.000

  23552666.320                   123770074.715 7     -2124.453          49.500
                  23552669.602    96444213.711 9     -1655.420          43.000

  22015997.531                   115694839.304 8     -1655.223          52.500
                  22015998.633    90151828.358 9     -1289.786          46.800

  23316881.742                   122531030.991 7      1652.533          49.800
                  23316879.781    95478723.562 9      1287.690          42.000

  20079008.750                   105515915.486 7      -155.914          50.000
                  20079007.672    82220184.307 9      -121.490          49.800

  21764197.516                   114371630.979 7      2056.666          52.000
                  21764196.355    89120755.249 9      1602.603          45.500

  23731882.461                   124711862.906 7     -2346.941          48.000
                  23731881.500    97178074.611 8     -1828.785          38.500

  23623298.203                   124141273.507 7      2741.184          49.500
                  23623294.465    96733452.202 8      2135.981          39.300

  24099499.523                   126643697.602 7     -2962.392          47.800
                  24099501.902    98683394.880 8     -2308.355          39.300

  21815890.516                   114643284.670 8      2506.712          54.500
                  21815888.535    89332445.128 9      1953.284          46.000

  21063620.320                   110690076.531 8     -1785.133          54.000
                  21063621.859    86252004.253 9     -1391.011          49.000

 18  7  1  0 11  5.0000000  0 11G01G08G10G11G14G18G20G22G27G31G32
  23417209.188                   123058269.296 7      3199.024          48.000
                  23417210.469    95889572.676 9      2492.750          43.000

  23554688.563                   123780701.405 7     -2125.911          49.000
                  23554691.801    96452494.245 9     -1656.554          42.300

  22017572.938                   115703118.218 7     -1656.164          52.000
                  22017574.078    90158279.462 9     -1290.515          47.000

  23315310.664                   122522774.799 7      1650.352          49.800
                  23315308.684    95472290.174 9      1285.984          42.300

  20079158.469                   105516702.265 7      -158.321          50.000
                  20079157.367    82220797.384 9      -123.367          49.800

  21762241.859                   114361353.946 8      2054.564          52.300
                  21762240.699    89112747.185 9      1600.955          46.000

  23734115.922                   124723599.729 7     -2347.669          47.300
                  23734114.980    97187220.183 8     -1829.350          38.500

  23620690.063                   124127567.597 7      2741.179          48.500
                  23620686.383    96722772.290 8      2135.984          40.300

  24102318.039                   126658509.046 7     -2962.235          47.500
                  24102320.418    98694936.262 8     -2308.231          39.500

  21813506.555                   114630756.744 8      2504.813          54.800
                  21813504.555    89322683.112 9      1951.804          45.800

  21065319.578                   110699006.190 8     -1786.494          53.800
                  21065321.137    86258962.429 9     -1392.073          49.300

 18  7  1  0 11 10.0000000  0 11G01G08G10G11G14G18G20G22G27G31G32
  23414166.203                   123042278.210 7      3197.689          47.800
                  23414167.465    95877112.092 9      2491.706          42.800

  23556712.320                   123791336.042 7     -2127.543          49.300
                  23556715.520    96460780.967 9     -1657.822          43.000

  22019149.313                   115711402.409 7     -1657.252          52.000
                  22019150.492    90164734.676 9     -1291.365          47.000

  23313741.766                   122514530.059 7      1648.045          50.000
                  23313739.766    95465865.707 9      1284.191          42.500

  20079310.609                   105517501.640 7      -160.865          50.000
                  20079309.488    82221420.277 9      -125.351          49.500

  21760288.336                   114351088.131 7      2052.270          52.000
                  21760287.176    89104747.860 9      1599.176          46.000

  23736350.180                   124735340.855 6     -2348.562          47.000
                  23736349.258    97196369.106 8     -1830.057          39.500

  23618082.063                   124113862.409 7      2740.987          48.800
                  23618078.422    96712092.917 8      2135.834          39.500

  24105136.602                   126673320.361 7     -2962.256          47.800
                  24105138.883    98706477.544 8     -2308.253          39.000

  21811124.516                   114618238.908 8      2502.766          54.500
                  21811122.496    89312928.954 9      1950.207          45.800

  21067020.242                   110707943.166 8     -1787.965          53.800
                  21067021.801    86265926.300 9     -1393.220          49.000

 18  7  1  0 11 15.0000000  0 11G01G08G10G11G14G18G20G22G27G31G32
  23411124.406                   123026293.469 7      3196.423          48.300
                  23411125.707    95864656.454 9      2490.725          42.500

  23558737.563                   123801978.534 7     -2129.149          49.500
                  23558740.723    96469073.812 9     -1659.073          42.800

  22020726.734                   115719691.909 8     -1658.332          52.300
                  22020727.934    90171194.018 9     -1292.206          47.000

  23312175.047                   122506296.853 7      1645.701          50.500
                  23312173.066    95459450.207 9      1282.366          41.300

  20079465.125                   105518313.624 7      -163.429          50.300
                  20079463.984    82222052.992 9      -127.347          49.300

  21758336.914                   114340833.487 7      2050.000          51.800
                  21758335.793    89096757.211 9      1597.400          45.800

  23738585.305                   124747086.261 6     -2349.442          47.000
                  23738584.344    97205521.377 8     -1830.732          38.500

  23615474.227                   124100158.002 7      2740.814          48.300
                  23615470.547    96701414.150 8      2135.699          39.800

  24107955.102                   126688131.549 7     -2962.242          47.500
                  24107957.383    98718018.722 8     -2308.235          39.800

  21808744.398                   114605731.175 8      2500.714          54.800
                  21808742.359    89303182.665 9      1948.612          46.000

  21068722.297                   110716887.520 8     -1789.479          53.800
                  21068723.855    86272895.927 9     -1394.397          49.000

 18  7  1  0 11 20.0000000  0 11G01G08G10G11G14G18G20G22G27G31G32
  23408083.805                   123010314.977 7      3195.277          48.300
                  23408085.125    95852205.685 9      2489.826          42.500

  23560764.242                   123812628.739 7     -2130.575          49.000
                  23560767.402    96477372.654 9     -1660.184          43.000

  22022305.117                   115727986.549 7     -1659.256          51.500
                  22022306.355    90177657.380 9     -1292.927          47.000

  23310610.469                   122498074.921 7      1643.562          50.800
                  23310608.469    95453043.510 9      1280.698          41.300

  20079622.031                   105519138.058 7      -165.804          50.000
                  20079620.871    82222695.412 9      -129.196          49.500

  21756387.617                   114330589.927 8      2047.887          52.500
                  21756386.539    89088775.240 9      1595.746          45.800

  23740821.219                   124758835.835 7     -2350.160          47.500
                  23740820.238    97214676.883 8     -1831.291          39.300

  23612866.367                   124086454.136 7      2740.827          47.500
                  23612862.789    96690735.837 8      2135.709          40.800

  24110773.539                   126702942.483 6     -2962.101          46.800
                  24110775.758    98729559.699 8     -2308.130          40.800

  21806366.180                   114593233.445 8      2498.824          54.500
                  21806364.121    89293444.177 9      1947.138          45.800

  21070425.742                   110725839.042 8     -1790.806          54.000
                  21070427.281    86279871.137 9     -1395.437          49.000

 18  7  1  0 11 25.0000000  0 11G01G08G10G11G14G18G20G22G27G31G32
  23405044.281                   122994342.365 7      3194.042          47.500
                  23405045.641    95839759.504 9      2488.862          43.300

  23562792.344                   123823286.360 7     -2132.115          48.300
                  23562795.484    96485677.292 9     -1661.386          43.800

  22023884.375                   115736285.942 8     -1660.271          52.500
                  22023885.656    90184124.436 9     -1293.717          46.800

  23309047.984                   122489863.986 7      1641.305          49.800
                  23309045.984    95446645.378 9      1278.941          42.500

  20079781.211                   105519974.552 7      -168.269          50.000
                  20079780.051    82223347.228 9      -131.119          49.800

  21754440.359                   114320357.154 7      2045.693          51.500
                  21754439.320    89080801.644 9      1594.055          46.000

  23743057.859                   124770589.171 7     -2350.990          47.800
                  23743056.859    97223835.322 8     -1831.942          38.300

  23610258.586                   124072750.527 7      2740.685          48.000
                  23610255.066    96680057.699 8      2135.603          40.300

  24113591.859                   126717752.729 6     -2962.024          46.500
                  24113593.980    98741100.154 8     -2308.067          40.300

  21803989.797                   114580745.347 8      2496.838          54.500
                  21803987.695    89283713.192 9      1945.590          46.000

  21072130.461                   110734797.380 8     -1792.240          54.000
                  21072132.020    86286851.655 9     -1396.545          49.300

 18  7  1  0 11 30.0000000  0 11G01G08G10G11G14G18G20G22G27G31G32
  23402006.086                   122978376.621 7      3192.381          48.000
                  23402007.508    95827318.675 9      2487.568          43.500

  23564822.023                   123833952.301 7     -2134.065          47.800
                  23564825.145    96493988.417 9     -1662.907          44.500

  22025464.773                   115744591.105 8     -1661.687          52.300
                  22025466.074    90190595.985 9     -1294.821          47.000

  23307487.766                   122481665.033 7      1638.638          50.300
                  23307485.785    95440256.577 9      1276.859          41.800

  20079942.867                   105520824.130 7      -171.167          49.800
                  20079941.727    82224009.240 9      -133.377          49.500

  21752495.273                   114310136.000 7      2043.079          52.000
                  21752494.332    89072837.102 9      1592.008          46.300

  23745295.383                   124782347.255 7     -2352.207          47.800
                  23745294.363    97232997.464 8     -1832.890          38.300

  23607651.102                   124059048.111 7      2740.194          48.000
                  23607647.563    96669380.490 8      2135.216          40.500

  24116410.242                   126732563.279 6     -2962.327          46.300
                  24116412.344    98752640.825 8     -2308.302          40.800

  21801615.438                   114568267.856 8      2494.439          54.500
                  21801613.316    89273990.476 9      1943.717          46.000

  21073836.680                   110743763.506 8     -1794.053          53.800
                  21073838.219    86293838.245 9     -1397.962          49.500

 18  7  1  0 11 35.0000000  0 11G01G08G10G11G14G18G20G22G27G31G32
  23398969.164                   122962417.706 7      3191.223          48.500
                  23398970.664    95814883.157 9      2486.667          43.000

  23566853.242                   123844626.453 7     -2135.470          48.800
                  23566856.363    96502305.936 9     -1664.005          43.500

  22027046.234                   115752901.973 8     -1662.630          52.300
                  22027047.555    90197071.988 9     -1295.556          46.500

  23305929.828                   122473477.979 7      1636.444          50.000
                  23305927.848    95433877.063 9      1275.156          41.800

  20080107.031                   105521686.705 7      -173.555          49.800
                  20080105.871    82224681.369 9      -135.234          49.800

  21750552.492                   114299926.614 8      2040.953          52.300
                  21750551.570    89064881.767 9      1590.347          46.000

  23747533.805                   124794110.034 7     -2352.934          47.500
                  23747532.746    97242163.253 8     -1833.453          38.300

  23605043.844                   124045346.855 7      2740.162          48.300
                  23605040.285    96658704.184 8      2135.197          40.800

  24119228.641                   126747374.058 6     -2962.143          46.000
                  24119230.781    98764181.687 9     -2308.161          41.800

  21799243.055                   114555800.910 8      2492.547          54.800
                  21799240.934    89264275.975 9      1942.245          46.000

  21075544.359                   110752737.351 8     -1795.391          53.800
                  21075545.898    86300830.852 9     -1399.008          49.500

 18  7  1  0 11 40.0000000  0 11G01G08G10G11G14G18G20G22G27G31G32
  23395933.383                   122946464.782 7      3190.211          48.000
                  23395934.984    95802452.317 9      2485.877          42.800

  23568885.906                   123855308.100 7     -2136.823          48.800
                  23568889.027    96510629.298 9     -1665.057          43.500

  22028628.656                   115761217.701 8     -1663.437          52.300
                  22028629.996    90203551.770 9     -1296.185          46.800

  23304373.984                   122465302.058 7      1634.400          49.800
                  23304372.023    95427506.207 9      1273.565          42.000

  20080273.469                   105522561.450 7      -175.828          49.800
                  20080272.328    82225362.993 9      -137.011          49.500

  21748611.734                   114289728.038 7      2038.935          51.800
                  21748610.836    89056934.808 9      1588.783          45.800

  23749772.945                   124805876.702 7     -2353.546          47.800
                  23749771.867    97251332.084 8     -1833.934          39.000

  23602436.641                   124031645.892 7      2740.272          47.800
                  23602433.000    96648028.103 8      2135.273          41.000

  24122046.922                   126762184.219 6     -2961.869          46.300
                  24122049.063    98775722.068 9     -2307.952          41.500

  21796872.539                   114543343.748 8      2490.742          54.800
                  21796870.418    89254569.096 9      1940.838          46.000

  21077253.359                   110761718.065 8     -1796.584          53.800
                  21077254.879    86307828.810 9     -1399.935          49.300

 18  7  1  0 11 45.0000000  0 11G01G08G10G11G14G18G20G22G27G31G32
  23392898.820                   122930518.256 7      3188.824          48.300
                  23392900.500    95790026.465 9      2484.796          43.800

  23570920.047                   123865997.523 7     -2138.489          49.000
                  23570923.168    96518958.718 9     -1666.353          43.500

  22030212.070                   115769538.695 8     -1664.588          52.500
                  22030213.430    90210035.658 9     -1297.081          47.000

  23302820.328                   122457137.604 7      1631.988          50.000
                  23302818.367    95421144.301 9      1271.679          41.800

  20080442.305                   105523448.747 7      -178.443          49.800
                  20080441.184    82226054.385 9      -139.042          49.500

  21746673.094                   114279540.621 8      2036.584          52.800
                  21746672.195    89048996.557 9      1586.948          45.800

  23752012.898                   124817647.648 6     -2354.505          47.000
                  23752011.820    97260504.235 8     -1834.673          39.800

  23599829.523                   124017945.644 7      2740.010          47.300
                  23599825.844    96637352.601 8      2135.073          40.800

  24124865.180                   126776994.133 6     -2961.922          46.500
                  24124867.320    98787262.270 9     -2307.989          42.300

  21794503.953                   114530896.732 8      2488.604          54.500
                  21794501.813    89244870.126 9      1939.172          46.000

  21078963.742                   110770706.041 8     -1798.157          53.800
                  21078965.262    86314832.424 9     -1401.162          49.300

 18  7  1  0 11 50.0000000  0 11G01G08G10G11G14G18G20G22G27G31G32
  23389865.344                   122914577.306 7      3187.749          47.800
                  23389867.043    95777604.949 9      2483.960          43.500

  23572955.508                   123876693.853 7     -2139.824          48.800
                  23572958.629    96527293.521 9     -1667.396          44.000

  22031796.336                   115777864.088 8     -1665.434          52.500
                  22031797.734    90216522.976 9     -1297.741          46.800

  23301268.688                   122448983.762 7      1629.907          49.800
                  23301266.707    95414790.675 9      1270.057          41.800

  20080613.367                   105524347.703 7      -180.726          49.800
                  20080612.266    82226754.876 9      -140.827          49.500

  21744736.492                   114269363.688 7      2034.547          52.000
                  21744735.551    89041066.486 9      1585.368          46.300

  23754253.500                   124829421.970 6     -2355.141          47.000
                  23754252.461    97269679.023 8     -1835.169          38.800

  23597222.383                   124004245.233 7      2740.096          47.300
                  23597218.723    96626676.948 9      2135.136          41.300

  24127683.180                   126791802.944 6     -2961.662          46.800
                  24127685.320    98798801.590 8     -2307.786          40.500

  21792137.133                   114518459.009 8      2486.804          54.500
                  21792134.992    89235178.392 9      1937.771          46.300

  21080675.320                   110779700.386 8     -1799.377          54.000
                  21080676.820    86321841.003 9     -1402.112          49.000

 18  7  1  0 11 55.0000000  0 11G01G08G10G11G14G18G20G22G27G31G32
  23386833.344                   122898644.015 7      3186.241          48.300
                  23386835.043    95765189.424 9      2482.775          43.800

  23574992.688                   123887399.181 7     -2141.590          49.300
                  23574995.809    96535635.320 9     -1668.771          43.000

  22033381.836                   115786195.991 7     -1666.700          52.000
                  22033383.258    90223015.358 9     -1298.723          47.000

  23299719.469                   122440842.743 7      1627.387          50.000
                  23299717.508    95408447.005 9      1268.098          41.500

  20080787.031                   105525260.476 7      -183.456          49.800
                  20080785.973    82227466.126 9      -142.953          49.800

  21742802.234                   114259199.249 7      2032.064          52.000
                  21742801.293    89033146.129 9      1583.429          46.500

  23756495.164                   124841201.889 6     -2356.255          46.800
                  23756494.145    97278858.177 8     -1836.041          39.300

  23594615.641                   123990546.785 7      2739.726          47.500
                  23594612.020    96616002.855 8      2134.845          41.000

  24130501.422                   126806612.733 6     -2961.819          47.000
                  24130503.563    98810341.667 8     -2307.909          40.300

  21789772.477                   114506032.731 8      2484.554          54.500
                  21789770.355    89225495.580 9      1936.016          46.000

  21082388.523                   110788703.221 8     -1801.045          53.800
                  21082390.023    86328856.197 9     -1403.412          49.300

 18  7  1  0 12  0.0000000  0 11G01G08G10G11G14G18G20G22G27G31G32
  23383802.367                   122882716.107 7      3184.985          48.300
                  23383804.086    95752778.056 9      2481.809          43.500

  23577031.141                   123898111.179 7     -2143.103          49.300
                  23577034.219    96543982.327 9     -1669.951          43.000

  22034968.133                   115794532.075 7     -1667.714          52.000
                  22034969.574    90229511.010 9     -1299.518          47.000

  23298172.242                   122432712.099 7      1625.149          49.800
                  23298170.262    95402111.432 9      1266.352          42.500

  20080962.891                   105526184.608 7      -185.902          49.800
                  20080961.852    82228186.229 9      -144.857          49.500

  21740869.898                   114249045.009 7      2029.865          51.000
                  21740869.000    89025233.741 9      1581.711          46.300

  23758737.445                   124852984.997 6     -2357.046          46.300
                  23758736.426    97288039.824 8     -1836.664          39.000

  23592008.820                   123976847.995 7      2739.618          47.800
                  23592005.242    96605328.459 9      2134.765          41.300

  24133319.383                   126821421.144 6     -2961.725          46.800
                  24133321.523    98821880.687 8     -2307.833          40.500

  21787409.578                   114493615.511 8      2482.555          54.500
                  21787407.418    89215819.826 9      1934.460          46.000

  21084102.883                   110797712.199 8     -1802.446          54.000
                  21084104.383    86335876.171 9     -1404.497          49.300

 18  7  1  0 12  5.0000000  0 11G01G08G10G11G14G18G20G22G27G31G32
  23380772.586                   122866794.446 7      3183.934          48.000
                  23380774.285    95740371.572 9      2480.979          43.300

  23579071.023                   123908830.715 7     -2144.404          49.500
                  23579074.102    96552335.209 9     -1670.964          42.500

  22036555.414                   115802873.225 7     -1668.537          52.000
                  22036556.875    90236010.603 9     -1300.161          47.300

  23296627.148                   122424592.741 7      1623.075          49.000
                  23296625.227    95395784.653 9      1264.732          42.000

  20081141.086                   105527121.103 7      -188.193          50.000
                  20081140.086    82228915.965 9      -146.644          49.500

  21738939.633                   114238901.811 7      2027.853          50.300
                  21738938.813    89017329.964 9      1580.139          47.000

  23760980.461                   124864772.194 6     -2357.685          46.500
                  23760979.480    97297224.644 8     -1837.153          38.800

  23589402.102                   123963149.734 7      2739.697          47.800
                  23589398.582    96594654.518 8      2134.823          41.000

  24136137.219                   126836229.067 6     -2961.457          46.800
                  24136139.379    98833419.305 8     -2307.629          40.800

  21785048.594                   114481208.283 8      2480.739          55.000
                  21785046.395    89206151.852 9      1933.044          46.000

  21085818.578                   110806728.211 8     -1803.673          53.800
                  21085820.059    86342901.637 9     -1405.457          49.000

 18  7  1  0 12 10.0000000  0 11G01G08G10G11G14G18G20G22G27G31G32
  23377743.867                   122850878.425 7      3182.757          48.800
                  23377745.586    95727969.493 9      2480.068          42.500

  23581112.164                   123919556.963 7     -2145.791          49.500
                  23581115.203    96560693.322 9     -1672.045          42.800

  22038143.492                   115811218.794 7     -1669.456          51.800
                  22038145.012    90242513.638 9     -1300.873          47.500

  23295084.086                   122416484.082 7      1620.868          49.300
                  23295082.188    95389466.222 9      1263.014          42.300

  20081321.484                   105528069.251 7      -190.563          50.000
                  20081320.523    82229654.781 9      -148.489          49.800

  21737011.375                   114228769.125 7      2025.708          51.300
                  21737010.637    89009434.357 9      1578.478          46.300

  23763224.125                   124876562.802 6     -2358.399          46.300
                  23763223.145    97306412.114 8     -1837.708          39.500

  23586795.383                   123949451.354 7      2739.679          47.800
                  23586791.922    96583980.462 9      2134.814          41.500

  24138954.883                   126851035.839 6     -2961.270          46.800
                  24138957.023    98844957.054 8     -2307.481          40.500

  21782689.375                   114468810.388 8      2478.834          55.000
                  21782687.156    89196491.158 9      1931.559          46.000

  21087535.500                   110815750.571 8     -1804.973          53.800
                  21087536.961    86349932.045 9     -1406.473          49.300

 18  7  1  0 12 15.0000000  0 11G01G08G10G11G14G18G20G22G27G31G32
  23374716.367                   122834968.800 7      3181.427          49.000
                  23374718.066    95715572.374 9      2479.036          42.300

  23583154.805                   123930290.951 7     -2147.407          49.300
                  23583157.824    96569057.464 9     -1673.304          42.500

  22039732.570                   115819569.578 7     -1670.578          51.500
                  22039734.129    90249020.741 9     -1301.749          47.500

  23293543.227                   122408386.866 7      1618.517          49.500
                  23293541.348    95383156.713 9      1261.182          42.300

  20081504.289                   105529029.808 7      -193.096          50.300
                  20081503.328    82230403.268 9      -150.465          49.500

  21735085.273                   114218647.640 7      2023.420          51.300
                  21735084.574    89001547.481 9      1576.687          45.800

  23765468.578                   124888357.605 6     -2359.301          46.300
                  23765467.656    97315602.864 8     -1838.414          37.800

  23584188.820                   123935753.647 7      2739.479          48.500
                  23584185.359    96573306.922 9      2134.655          41.800

  24141772.438                   126865842.208 7     -2961.236          47.300
                  24141774.559    98856494.470 8     -2307.459          40.300

  21780332.078                   114456422.650 8      2476.738          54.500
                  21780329.859    89186838.380 9      1929.923          46.000

  21089253.758                   110824780.075 8     -1806.474          53.800
                  21089255.199    86356968.023 9     -1407.642          49.000

 18  7  1  0 12 20.0000000  0 11G01G08G10G11G14G18G20G22G27G31G32
  23371689.867                   122819064.404 7      3180.403          48.500
                  23371691.547    95703179.340 9      2478.232          43.300

  23585198.625                   123941031.190 7     -2148.613          49.000
                  23585201.586    96577426.477 9     -1674.242          43.800

  22041322.414                   115827924.323 7     -1671.327          51.800
                  22041324.035    90255530.931 9     -1302.329          47.800

  23292004.266                   122400299.918 7      1616.517          49.500
                  23292002.484    95376855.193 9      1259.624          42.800

  20081689.211                   105530001.585 7      -195.293          50.000
                  20081688.270    82231160.501 9      -152.174          49.800

  21733161.078                   114208536.177 7      2021.444          51.000
                  21733160.457    88993668.437 9      1575.143          46.500

  23767713.602                   124900155.323 6     -2359.826          46.000
                  23767712.723    97324795.881 8     -1838.819          39.300

  23581582.164                   123922055.383 7      2739.655          48.000
                  23581578.723    96562632.954 9      2134.796          42.300

  24144589.719                   126880646.928 7     -2960.853          47.300
                  24144591.820    98868030.603 8     -2307.152          40.300

  21777976.477                   114444043.868 8      2474.998          54.500
                  21777974.238    89177192.578 9      1928.570          46.000

  21090973.156                   110833815.459 8     -1807.596          53.800
                  21090974.555    86364008.580 9     -1408.516          49.000

 18  7  1  0 12 25.0000000  0 11G01G08G10G11G14G18G20G22G27G31G32
  23368664.867                   122803167.806 7      3178.653          49.000
                  23368666.527    95690792.374 9      2476.872          42.300

  23587244.188                   123951780.501 7     -2150.631          49.000
                  23587247.086    96585802.566 9     -1675.819          42.800

  22042913.516                   115836285.662 7     -1672.838          52.000
                  22042915.176    90262046.253 9     -1303.508          47.000

  23290467.789                   122392225.816 7      1613.748          50.000
                  23290466.070    95370563.679 9      1257.466          42.500

  20081876.766                   105530987.185 7      -198.265          50.000
                  20081875.824    82231928.505 9      -154.490          49.800

  21731239.273                   114198437.381 7      2018.709          51.300
                  21731238.734    88985799.221 9      1573.026          45.800

  23769959.680                   124911958.640 6     -2361.148          46.500
                  23769958.758    97333993.252 8     -1839.849          38.300

  23578975.867                   123908359.118 6      2739.053          47.000
                  23578972.469    96551960.540 9      2134.323          43.000

  24147407.102                   126895452.631 6     -2961.241          46.000
                  24147409.262    98879567.508 8     -2307.457          40.500

  21775623.078                   114431676.665 8      2472.476          54.500
                  21775620.840    89167555.800 9      1926.600          46.300

  21092694.156                   110842859.367 8     -1809.495          53.800
                  21092695.555    86371055.779 9     -1409.994          49.000

 18  7  1  0 12 30.0000000  0 11G01G08G10G11G14G18G20G22G27G31G32
  23365641.188                   122787278.176 7      3177.426          48.800
                  23365642.848    95678410.843 9      2475.922          43.000

  23589291.266                   123962537.898 7     -2152.074          49.000
                  23589294.125    96594184.955 9     -1676.945          43.300

  22044505.695                   115844652.717 7     -1673.823          52.000
                  22044507.375    90268566.031 9     -1304.280          46.800

  23288933.625                   122384163.701 7      1611.517          49.500
                  23288931.926    95364281.514 9      1255.726          43.300

  20082066.789                   105531985.684 7      -200.706          50.000
                  20082065.828    82232706.556 9      -156.394          49.800

  21729319.695                   114188350.264 7      2016.531          51.000
                  21729319.215    88977939.136 9      1571.318          46.000

  23772206.664                   124923766.647 6     -2361.939          46.500
                  23772205.742    97343194.282 8     -1840.468          38.500

  23576369.727                   123894664.088 7      2738.953          47.300
                  23576366.465    96541289.111 9      2134.250          43.000

  24150224.563                   126910258.404 6     -2961.121          46.800
                  24150226.641    98891104.464 8     -2307.369          41.000

  21773271.719                   114419320.177 8      2470.484          54.500
                  21773269.457    89157927.372 9      1925.055          46.300

  21094416.602                   110851910.888 8     -1810.867          53.500
                  21094417.980    86378108.916 9     -1411.067          49.500

 18  7  1  0 12 35.0000000  0 11G01G08G10G11G14G18G20G22G27G31G32
  23362618.703                   122771394.952 7      3176.209          48.500
                  23362620.422    95666034.307 9      2474.970          43.500

  23591339.805                   123973302.851 7     -2153.521          49.000
                  23591342.605    96602573.235 9     -1678.069          43.000

  22046098.852                   115853024.934 8     -1674.785          52.300
                  22046100.590    90275089.839 9     -1305.025          46.800

  23287401.586                   122376113.010 7      1609.302          49.500
                  23287399.984    95358008.254 9      1254.004          42.500

  20082259.148                   105532996.553 7      -203.097          50.300
                  20082258.188    82233494.250 9      -158.259          49.800

  21727402.258                   114178274.403 7      2014.337          50.300
                  21727401.879    88970087.839 9      1569.605          46.500

  23774454.445                   124935578.789 6     -2362.680          46.500
                  23774453.465    97352398.537 8     -1841.041          39.500

  23573763.781                   123880969.705 7      2738.914          47.800
                  23573760.582    96530618.150 9      2134.217          43.300

  24153041.898                   126925063.670 6     -2960.931          45.800
                  24153044.020    98902641.046 8     -2307.219          40.500

  21770922.297                   114406973.852 8      2468.524          54.500
                  21770920.016    89148306.853 9      1923.527          46.000

  21096140.359                   110860969.441 8     -1812.199          53.300
                  21096141.758    86385167.525 9     -1412.101          49.300

 18  7  1  0 12 40.0000000  0 11G01G08G10G11G14G18G20G22G27G31G32
  23359597.445                   122755518.192 7      3174.832          48.500
                  23359599.246    95653662.822 9      2473.893          42.800

  23593389.766                   123984075.319 7     -2155.095          48.800
                  23593392.527    96610967.361 9     -1679.293          43.500

  22047693.016                   115861402.320 8     -1675.881          52.300
                  22047694.777    90281617.662 9     -1305.877          47.000

  23285871.742                   122368073.812 7      1606.945          49.500
                  23285870.223    95351743.940 9      1252.167          42.500

  20082453.891                   105534019.814 7      -205.643          50.000
                  20082452.930    82234291.596 9      -160.241          49.500

  21725486.938                   114168209.770 7      2012.022          51.000
                  21725486.656    88962245.261 9      1567.811          46.000

  23776703.023                   124947395.086 6     -2363.586          46.300
                  23776702.102    97361606.038 8     -1841.747          38.000

  23571158.008                   123867275.968 7      2738.704          47.800
                  23571154.809    96519947.706 9      2134.051          43.000

  24155859.141                   126939868.448 6     -2960.908          47.000
                  24155861.281    98914177.207 8     -2307.201          40.000

  21768574.797                   114394637.709 8      2466.425          54.500
                  21768572.535    89138694.278 9      1921.887          46.000

  21097865.461                   110870035.071 8     -1813.686          53.500
                  21097866.883    86392231.644 9     -1413.262          49.000

 18  7  1  0 12 45.0000000  0 11G01G08G10G11G14G18G20G22G27G31G32
  23356577.227                   122739646.952 7      3173.660          48.300
                  23356579.105    95641295.626 9      2472.980          43.300

  23595440.984                   123994854.345 7     -2156.467          49.500
                  23595443.645    96619366.599 9     -1680.364          42.300

  22049287.977                   115869783.949 8     -1676.806          52.500
                  22049289.758    90288148.793 9     -1306.598          47.000

  23284343.906                   122360045.067 7      1604.749          49.300
                  23284342.406    95345487.777 9      1250.455          42.500

  20082650.766                   105535054.485 7      -208.002          50.000
                  20082649.805    82235097.840 9      -162.080          49.800

  21723573.617                   114158155.505 7      2009.870          51.300
                  21723573.398    88954410.765 9      1566.128          46.000

  23778952.180                   124959214.612 6     -2364.319          46.300
                  23778951.320    97370816.057 8     -1842.331          38.800

  23568552.086                   123853581.942 7      2738.691          47.800
                  23568548.965    96509277.047 9      2134.041          43.300

  24158676.117                   126954671.765 6     -2960.690          46.800
                  24158678.156    98925712.265 8     -2307.033          40.000

  21766229.055                   114382310.817 8      2464.486          54.500
                  21766226.773    89129088.906 9      1920.380          45.800

  21099591.742                   110879106.800 8     -1814.974          53.500
                  21099593.184    86399300.523 9     -1414.263          49.000

 18  7  1  0 12 50.0000000  0 11G01G08G10G11G14G18G20G22G27G31G32
  23353558.109                   122723781.511 7      3172.378          48.300
                  23353560.051    95628932.939 9      2471.985          42.300

  23597493.508                   124005640.232 7     -2157.970          49.300
                  23597496.109    96627771.190 9     -1681.535          42.500

  22050883.797                   115878170.108 8     -1677.836          52.300
                  22050885.617    90294683.469 9     -1307.406          47.000

  23282818.109                   122352027.165 7      1602.473          48.800
                  23282816.688    95339240.071 9      1248.676          43.000

  20082849.891                   105536100.871 7      -210.456          50.000
                  20082848.930    82235913.207 9      -163.992          49.800

  21721662.297                   114148111.853 7      2007.642          51.000
                  21721662.156    88946584.549 9      1564.392          46.000

  23781202.039                   124971037.635 6     -2365.136          46.500
                  23781201.238    97380028.788 8     -1842.964          39.000

  23565946.203                   123839887.950 7      2738.559          48.800
                  23565943.102    96498606.406 9      2133.940          42.800

  24161492.844                   126969473.936 6     -2960.574          46.300
                  24161494.883    98937246.425 8     -2306.937          39.800

  21763885.156                   114369993.489 8      2462.465          54.800
                  21763882.875    89119490.992 9      1918.800          46.000

  21101319.242                   110888184.926 8     -1816.379          54.000
                  21101320.703    86406374.384 9     -1415.363          48.800

 18  7  1  0 12 55.0000000  0 11G01G08G10G11G14G18G20G22G27G31G32
  23350540.344                   122707922.999 7      3171.272          47.800
                  23350542.305    95616575.665 9      2471.121          43.000

  23599547.547                   124016434.038 7     -2159.297          49.300
                  23599550.047    96636181.938 9     -1682.569          43.000

  22052480.711                   115886561.879 8     -1678.692          52.500
                  22052482.531    90301222.507 9     -1308.072          46.800

  23281294.547                   122344021.155 7      1600.374          49.000
                  23281293.207    95333001.624 9      1247.044          42.500

  20083051.430                   105537160.047 7      -212.750          49.800
                  20083050.469    82236738.533 9      -165.777          49.300

  21719753.234                   114138079.880 7      2005.555          51.500
                  21719753.156    88938767.431 9      1562.772          46.000

  23783452.781                   124982865.283 6     -2365.785          46.500
                  23783452.000    97389245.130 8     -1843.465          38.300

  23563340.602                   123826195.059 7      2738.612          49.300
                  23563337.480    96487936.616 9      2133.987          42.500

  24164309.539                   126984275.981 6     -2960.285          46.800
                  24164311.660    98948780.463 8     -2306.718          40.800

  21761543.258                   114357686.819 8      2460.594          54.800
                  21761540.996    89109901.373 9      1917.346          46.000

  21103048.180                   110897270.501 8     -1817.601          54.300
                  21103049.641    86413454.051 9     -1416.313          48.800

 18  7  1  0 13  0.0000000  0 11G01G08G10G11G14G18G20G22G27G31G32
  23347523.742                   122692070.906 6      3169.822          47.000
                  23347525.781    95604223.397 9      2469.985          42.800

  23601602.961                   124027235.264 7     -2160.915          49.000
                  23601605.402    96644598.475 9     -1683.830          42.500

  22054078.594                   115894958.780 8     -1679.890          52.500
                  22054080.453    90307765.542 9     -1309.003          47.000

  23279773.188                   122336026.599 7      1597.899          49.300
                  23279771.906    95326772.097 9      1245.118          42.300

  20083255.328                   105538231.496 7      -215.357          49.800
                  20083254.367    82237573.424 9      -167.808          49.500

  21717846.359                   114128059.176 7      2003.149          51.800
                  21717846.301    88930959.086 9      1560.901          45.800

  23785704.305                   124994697.050 6     -2366.776          46.500
                  23785703.566    97398464.681 8     -1844.245          38.000

  23560735.102                   123812502.762 7      2738.331          49.000
                  23560731.941    96477267.302 9      2133.764          42.800

  24167126.180                   126999077.411 6     -2960.319          46.800
                  24167128.281    98960314.049 8     -2306.750          40.000

  21759203.313                   114345390.299 8      2458.395          54.800
                  21759201.051    89100319.671 9      1915.632          45.500

  21104778.438                   110906363.047 8     -1819.151          53.800
                  21104779.898    86420539.156 9     -1417.519          49.000

 18  7  1  0 13  5.0000000  0 11G01G08G10G11G14G18G20G22G27G31G32
  23344508.383                   122676225.385 6      3168.382          47.000
                  23344510.484    95591876.247 9      2468.865          42.500

  23603659.820                   124038044.011 7     -2162.550          48.800
                  23603662.199    96653020.871 9     -1685.104          42.800

  22055677.492                   115903360.922 8     -1681.062          52.500
                  22055679.352    90314312.660 9     -1309.919          46.500

  23278254.047                   122328043.585 7      1595.463          49.800
                  23278252.785    95320551.569 9      1243.218          42.000

  20083461.570                   105539315.355 7      -217.971          50.000
                  20083460.609    82238417.992 9      -169.848          49.500

  21715941.617                   114118049.821 7      2000.750          52.000
                  21715941.598    88923159.582 9      1559.022          46.000

  23787956.625                   125006533.051 6     -2367.740          46.500
                  23787955.945    97407687.522 8     -1844.990          37.500

  23558129.703                   123798811.193 7      2738.042          49.000
                  23558126.543    96466598.541 9      2133.545          42.800

  24169942.703                   127013878.347 6     -2960.345          47.000
                  24169944.824    98971847.240 8     -2306.761          39.500

  21756865.313                   114333104.070 8      2456.214          54.800
                  21756863.051    89090745.991 9      1913.933          45.800

  21106510.039                   110915462.651 8     -1820.699          54.000
                  21106511.500    86427629.754 9     -1418.729          48.800

 18  7  1  0 13 10.0000000  0 11G01G08G10G11G14G18G20G22G27G31G32
  23341494.344                   122660386.753 6      3167.375          47.000
                  23341496.484    95579534.460 9      2468.081          42.300

  23605718.141                   124048860.479 7     -2163.737          48.800
                  23605720.461    96661449.288 9     -1686.031          43.300

  22057277.453                   115911768.616 8     -1681.803          52.800
                  22057279.293    90320864.110 9     -1310.496          46.800

  23276737.148                   122320072.448 7      1593.471          49.800
                  23276735.949    95314340.285 9      1241.664          42.000

  20083670.250                   105540411.926 7      -220.136          50.000
                  20083669.289    82239272.463 9      -171.535          49.500

  21714039.180                   114108052.260 7      1998.750          51.800
                  21714039.160    88915369.288 9      1557.464          46.500

  23790209.805                   125018373.599 6     -2368.297          46.800
                  23790209.184    97416913.916 8     -1845.420          37.300

  23555524.523                   123785120.649 7      2738.199          49.300
                  23555521.363    96455930.590 9      2133.658          42.800

  24172759.156                   127028679.094 6     -2959.967          47.000
                  24172761.336    98983380.283 8     -2306.468          40.500

  21754529.359                   114320828.465 8      2454.454          54.800
                  21754527.098    89081180.586 9      1912.561          45.800

  21108243.039                   110924569.649 8     -1821.810          53.800
                  21108244.500    86434726.114 9     -1419.595          49.000

 18  7  1  0 13 15.0000000  0 11G01G08G10G11G14G18G20G22G27G31G32
  23338481.227                   122644553.328 6      3166.138          46.500
                  23338483.488    95567196.731 9      2467.118          41.800

  23607777.625                   124059683.020 7     -2165.111          48.800
                  23607779.887    96669882.432 9     -1687.098          43.000

  22058878.156                   115920180.173 8     -1682.749          53.500
                  22058879.957    90327418.557 9     -1311.231          46.800

  23275222.203                   122312111.471 7      1591.238          49.500
                  23275221.004    95308136.921 9      1239.930          42.500

  20083880.984                   105541519.453 7      -222.530          50.000
                  20083880.043    82240135.467 9      -173.398          49.800

  21712138.578                   114098064.642 7      1996.577          51.500
                  21712138.598    88907586.714 9      1555.772          46.000

  23792463.523                   125030216.952 6     -2369.043          46.500
                  23792462.965    97426142.487 8     -1846.002          38.500

  23552919.188                   123771429.402 7      2738.157          49.500
                  23552916.066    96445262.103 9      2133.627          43.000

  24175575.258                   127043477.891 6     -2959.733          47.000
                  24175577.477    98994911.804 8     -2306.288          40.500

  21752195.078                   114308561.759 8      2452.478          55.000
                  21752192.816    89071622.120 9      1911.020          46.000

  21109977.078                   110933682.287 8     -1823.116          54.000
                  21109978.578    86441826.867 9     -1420.608          48.800

 18  7  1  0 13 20.0000000  0 11G01G08G10G11G14G18G20G22G27G31G32
  23335469.344                   122628726.328 7      3164.921          47.300
                  23335471.664    95554864.016 9      2466.177          41.500

  23609838.508                   124070512.970 7     -2166.535          48.500
                  23609840.727    96678321.359 9     -1688.212          43.000

  22060479.836                   115928596.782 8     -1683.682          53.000
                  22060481.574    90333976.960 9     -1311.962          46.800

  23273709.406                   122304161.887 7      1589.041          49.000
                  23273708.246    95301942.452 9      1238.208          42.500

  20084094.070                   105542639.246 7      -224.900          50.000
                  20084093.172    82241008.031 9      -175.245          49.500

  21710240.133                   114088088.239 8      1994.402          52.300
                  21710240.152    88899812.913 9      1554.071          46.500

  23794718.023                   125042064.358 6     -2369.774          46.300
                  23794717.465    97435374.225 8     -1846.577          38.000

  23550313.984                   123757738.787 7      2738.120          49.500
                  23550310.844    96434594.081 9      2133.603          43.300

  24178391.242                   127058275.979 6     -2959.512          46.300
                  24178393.480    99006442.773 8     -2306.114          40.300

  21749862.758                   114296305.251 8      2450.523          54.800
                  21749860.477    89062071.590 9      1909.500          46.300

  21111712.438                   110942801.805 8     -1824.406          53.500
                  21111713.957    86448932.985 9     -1421.615          49.000

 18  7  1  0 13 25.0000000  0 11G01G08G10G11G14G18G20G22G27G31G32
  23332458.766                   122612905.888 7      3163.634          47.500
                  23332461.145    95542536.413 9      2465.167          41.300

  23611900.805                   124081350.269 7     -2167.962          48.800
                  23611902.984    96686766.005 9     -1689.319          42.300

  22062082.492                   115937018.581 8     -1684.704          53.000
                  22062084.172    90340539.397 9     -1312.754          46.800

  23272198.805                   122296223.820 7      1586.774          49.500
                  23272197.684    95295756.947 9      1236.449          42.300

  20084309.508                   105543771.323 7      -227.325          50.300
                  20084308.586    82241890.167 9      -177.134          49.500

  21708343.859                   114078123.196 7      1992.173          52.000
                  21708343.898    88892047.943 9      1552.343          46.000

  23796973.281                   125053915.906 6     -2370.557          46.500
                  23796972.703    97444609.191 8     -1847.185          38.500

  23547708.906                   123744048.784 7      2738.013          48.500
                  23547705.746    96423926.546 9      2133.512          43.500

  24181207.063                   127073073.418 6     -2959.357          46.800
                  24181209.402    99017973.226 8     -2305.989          40.800

  21747532.375                   114284058.974 8      2448.508          54.800
                  21747530.094    89052529.039 9      1907.930          46.300

  21113449.117                   110951928.299 8     -1825.788          53.500
                  21113450.656    86456044.532 9     -1422.690          49.000

 18  7  1  0 13 30.0000000  0 11G01G08G10G11G14G18G20G22G27G31G32
  23329449.648                   122597093.079 7      3161.968          47.300
                  23329452.047    95530214.746 9      2463.871          42.300

  23613964.688                   124092196.034 7     -2169.817          49.800
                  23613966.848    96695217.247 9     -1690.767          42.500

  22063686.336                   115945446.667 8     -1686.102          53.000
                  22063687.957    90347106.731 9     -1313.844          46.800

  23270690.586                   122288298.409 7      1584.078          49.300
                  23270689.527    95289581.294 9      1234.346          42.000

  20084527.484                   105544916.826 7      -230.157          50.500
                  20084526.586    82242782.766 9      -179.343          49.500

  21706449.898                   114068170.574 7      1989.543          51.500
                  21706449.957    88884292.639 9      1550.296          46.300

  23799229.578                   125065772.755 6     -2371.789          46.800
                  23799229.020    97453848.296 8     -1848.146          37.800

  23545104.063                   123730360.544 7      2737.516          48.500
                  23545101.004    96413260.403 9      2133.129          43.000

  24184023.023                   127087871.343 7     -2959.607          47.300
                  24184025.324    99029504.079 8     -2306.193          40.800

  21745204.180                   114271824.109 8      2446.077          55.300
                  21745201.859    89042995.377 9      1906.034          46.300

  21115187.320                   110961062.838 8     -1827.538          53.500
                  21115188.922    86463162.355 9     -1424.056          49.300

 18  7  1  0 13 35.0000000  0 11G01G08G10G11G14G18G20G22G27G31G32
  23326441.664                   122581286.093 6      3160.893          47.000
                  23326444.063    95517897.613 9      2463.036          41.500

  23616029.844                   124103048.453 7     -2171.031          49.000
                  23616031.984    96703673.677 9     -1691.715          42.300

  22065290.992                   115953879.146 8     -1686.887          52.800
                  22065292.613    90353677.498 9     -1314.458          46.800

  23269184.430                   122280383.716 7      1582.049          49.500
                  23269183.391    95283414.007 9      1232.766          41.800

  20084747.688                   105546073.853 7      -232.359          50.000
                  20084746.766    82243684.352 9      -181.059          49.800

  21704558.016                   114058228.486 8      1987.536          52.300
                  21704558.055    88876545.578 9      1548.727          46.000

  23801486.523                   125077632.976 6     -2372.354          46.500
                  23801485.902    97463090.006 8     -1848.588          37.300

  23542499.242                   123716672.248 7      2737.647          48.800
                  23542496.203    96402594.185 9      2133.234          43.000

  24186838.680                   127102667.828 6     -2959.216          46.300
                  24186840.961    99041033.802 8     -2305.882          40.500

  21742877.773                   114259598.768 8      2444.275          54.800
                  21742875.434    89033469.138 9      1904.630          46.000

  21116926.719                   110970203.544 8     -1828.676          53.500
                  21116928.359    86470284.977 9     -1424.940          49.000

