     2.11           OBSERVATION DATA    M (MIXED)           RINEX VERSION / TYPE
teqc  2019Feb25                         20240504 22:35:50UTCPGM / RUN BY / DATE
NWCS                                                        MARKER NAME
Newcastle                                                   MARKER NUMBER
CORSnet-NSW         NSW                                     OBSERVER / AGENCY
                    TRIMBLE NETR9                           REC # / TYPE / VERS
CR6200323013        ASH701945E_M    SCIS                    ANT # / TYPE
 -4721163.3790  2535155.7690 -3447435.5210                  APPROX POSITION XYZ
        0.0000        0.0000        0.0000                  ANTENNA: DELTA H/E/N
     1     1                                                WAVELENGTH FACT L1/2
    14    C1    P1    L1    D1    S1    C2    P2    L2    D2# / TYPES OF OBSERV
          S2    C5    L5    D5    S5                        # / TYPES OF OBSERV
     5.0000                                                 INTERVAL
     0                                                      RCV CLOCK OFFS APPL
    18                                                      LEAP SECONDS
teqc edited: all GLONASS satellites excluded                COMMENT
  2018     7     1     0     0    0.0000000     GPS         TIME OF FIRST OBS
Linux 2.6.32-573.12.1.x86_64|x86_64|gcc -static|Linux 64|=+ COMMENT
TPP                 Reference Data Shop 04-JUL-18 01:00     COMMENT
                                                            END OF HEADER
 18  7  1  0  0  0.0000000  0 11G01G08G10G11G14G18G20G22G27G31G32
  23829609.164                   125225459.25914                        37.100
                  23829620.680    97578310.94616                        24.100

  23297870.039                   122431098.38216                        43.300
                  23297879.465    95400896.95617                        30.300

  21817810.633                   114653362.30617                        50.400
                  21817819.887    89340330.68318                        40.600

  23540672.852                   123707089.12316                        43.900
                  23540679.039    96395141.79017                        28.100

  20079871.883                   105520501.87317                        47.800
                  20079878.418    82223763.09319                        43.900

  22038393.891                   115812503.95416                        45.000
                  22038402.230    90243576.09318                        36.800

  23445953.984                   123209301.01315                        41.100
                  23445961.066    96007282.45917                        26.100

  23966029.117                   125942290.56415                        39.500
                  23966033.719    98136910.42016                        22.600

  23727186.547                   124687163.41914                        37.300
                  23727197.715    97158865.85116                        22.600

  22147240.578                   116384532.14817                        50.000
                  22147247.266    90689284.30718                        37.400

  20852096.703                   109578444.68617                        51.800
                  20852105.770    85385889.50519                        45.700

 18  7  1  0  0  5.0000000  0 11G01G08G10G11G14G18G20G22G27G31G32
  23826433.125                   125208760.785 4      3339.282          37.500
                  23826442.375    97565299.169 6      2602.039          24.700

  23299675.352                   122440588.049 6     -1898.739          43.200
                  23299685.258    95408291.495 7     -1479.543          29.600

  21819261.977                   114660990.513 7     -1526.064          49.600
                  21819271.254    89346274.734 8     -1189.136          40.700

  23538829.719                   123697405.940 6      1935.770          43.400
                  23538836.484    96387596.438 7      1508.389          28.700

  20079701.305                   105519605.739 7       178.148          48.100
                  20079707.453    82223064.811 9       138.817          43.700

  22036180.859                   115800871.941 6      2325.612          46.400
                  22036188.816    90234512.188 8      1812.163          36.400

  23448085.438                   123220502.899 5     -2240.740          41.300
                  23448092.230    96016011.177 6     -1746.016          25.800

  23963413.914                   125928547.061 5      2748.656          40.200
                  23963418.578    98126201.217 6      2141.809          23.300

  23729990.695                   124701896.388 4     -2946.745          37.100
                  23730001.328    97170346.073 6     -2296.167          23.000

  22144628.328                   116370805.119 7      2744.715          50.500
                  22144635.496    90678587.921 8      2138.742          38.300

  20853601.836                   109586355.699 7     -1582.908          51.000
                  20853611.352    85392053.930 9     -1233.438          45.300

 18  7  1  0  0 10.0000000  0 11G01G08G10G11G14G18G20G22G27G31G32
  23823255.820                   125192066.817 4      3338.459          38.100
                  23823265.645    97552290.867 6      2601.388          25.300

  23301483.289                   122450087.215 6     -1900.573          43.600
                  23301493.219    95415693.439 7     -1480.963          30.200

  21820714.883                   114668623.552 7     -1526.983          49.800
                  21820724.148    89352222.560 8     -1189.857          40.800

  23536989.063                   123687733.006 6      1933.784          43.600
                  23536995.348    96380059.093 7      1506.842          27.700

  20079533.094                   105518722.623 7       175.603          49.100
                  20079539.586    82222376.666 9       136.832          43.500

  22033968.859                   115789249.498 6      2323.733          44.600
                  22033976.773    90225455.727 8      1810.697          36.000

  23450217.391                   123231708.778 5     -2241.460          40.800
                  23450225.074    96024743.025 6     -1746.582          25.000

  23960798.320                   125914803.627 5      2748.685          40.300
                  23960803.461    98115492.029 6      2141.859          22.600

  23732794.992                   124716630.843 3     -2946.979          36.900
                  23732804.902    97181827.450 6     -2296.340          22.900

  22142017.422                   116357086.282 7      2743.115          49.900
                  22142024.469    90667897.926 8      2137.494          38.200

  20855109.148                   109594275.008 7     -1584.509          51.000
                  20855118.617    85398224.815 9     -1234.679          45.500

 18  7  1  0  0 15.0000000  0 11G01G08G10G11G14G18G20G22G27G31G32
  23820079.680                   125175377.399 4      3337.496          37.400
                  23820090.191    97539286.132 6      2600.628          24.200

  23303292.508                   122459595.935 6     -1902.527          43.200
                  23303302.344    95423102.831 7     -1482.500          30.300

  21822168.273                   114676261.478 7     -1527.983          50.700
                  21822177.395    89358174.187 8     -1190.641          40.800

  23535150.789                   123678070.483 6      1931.667          43.400
                  23535156.414    96372529.856 7      1505.203          28.900

  20079367.484                   105517852.643 7       172.934          48.100
                  20079374.242    82221698.760 9       134.751          43.200

  22031758.813                   115777636.600 6      2321.795          45.500
                  22031766.512    90216406.728 8      1809.187          36.600

  23452350.961                   123242918.723 5     -2242.339          41.600
                  23452358.402    96033478.056 6     -1747.280          25.600

  23958183.320                   125901060.297 5      2748.654          40.200
                  23958187.809    98104782.964 6      2141.801          22.300

  23735598.227                   124731366.885 4     -2947.313          37.100
                  23735609.945    97193310.069 6     -2296.585          22.900

  22139408.602                   116343375.739 7      2741.436          50.500
                  22139415.422    90657214.394 8      2136.181          38.600

  20856618.055                   109602202.699 7     -1586.217          50.900
                  20856626.980    85404402.235 9     -1236.009          45.800

 18  7  1  0  0 20.0000000  0 11G01G08G10G11G14G18G20G22G27G31G32
  23816905.555                   125158692.534 4      3336.588          37.300
                  23816915.027    97526284.947 6      2599.930          24.700

  23305103.617                   122469114.180 6     -1904.431          44.200
                  23305113.570    95430519.637 7     -1483.976          31.200

  21823622.633                   114683904.271 7     -1528.957          50.000
                  21823631.969    89364129.604 8     -1191.393          40.700

  23533313.547                   123668418.263 6      1929.585          44.100
                  23533320.422    96365008.645 7      1503.569          28.600

  20079204.609                   105516995.695 7       170.325          49.000
                  20079211.129    82221031.006 9       132.724          43.700

  22029551.492                   115766033.370 6      2319.852          45.500
                  22029558.930    90207365.245 8      1807.677          36.400

  23454485.281                   123254132.685 5     -2243.139          41.300
                  23454492.211    96042216.195 7     -1747.884          26.300

  23955567.625                   125887317.104 5      2748.625          40.000
                  23955572.168    98094073.975 6      2141.786          24.000

  23738403.016                   124746104.483 4     -2947.656          37.300
                  23738413.473    97204793.932 6     -2296.879          22.800

  22136801.109                   116329673.470 7      2739.762          50.100
                  22136808.230    90646537.308 8      2134.879          37.900

  20858128.023                   109610138.688 7     -1587.885          50.500
                  20858136.996    85410586.125 9     -1237.313          45.600

 18  7  1  0  0 25.0000000  0 11G01G08G10G11G14G18G20G22G27G31G32
  23813731.109                   125142012.239 4      3335.670          37.300
                  23813741.215    97513287.309 6      2599.222          25.700

  23306916.781                   122478641.942 6     -1906.324          43.900
                  23306926.793    95437943.861 7     -1485.448          31.400

  21825077.695                   114691551.965 7     -1529.954          50.000
                  21825086.648    89370088.844 8     -1192.165          40.600

  23531479.281                   123658776.420 6      1927.520          43.900
                  23531485.535    96357495.513 7      1501.966          28.400

  20079044.219                   105516151.866 7       167.712          48.700
                  20079050.680    82220373.477 9       130.686          43.700

  22027344.961                   115754439.746 6      2317.935          45.300
                  22027352.313    90198331.247 8      1806.177          36.400

  23456619.820                   123265350.705 5     -2243.941          41.500
                  23456626.285    96050957.522 6     -1748.524          24.500

  23952952.930                   125873574.094 5      2748.579          40.200
                  23952957.309    98083365.137 6      2141.760          25.600

  23741207.023                   124760843.650 4     -2948.006          37.500
                  23741218.184    97216278.963 6     -2297.158          23.000

  22134195.375                   116315979.520 7      2738.109          50.500
                  22134202.492    90635866.701 8      2133.592          37.900

  20859639.992                   109618083.030 7     -1589.566          51.000
                  20859648.785    85416776.522 9     -1238.627          45.600

 18  7  1  0  0 30.0000000  0 11G01G08G10G11G14G18G20G22G27G31G32
  23810557.531                   125125336.484 4      3334.775          37.100
                  23810568.070    97500293.224 7      2598.515          26.200

  23308732.141                   122488179.105 6     -1908.178          44.300
                  23308741.871    95445375.410 7     -1486.891          30.800

  21826534.570                   114699204.507 7     -1530.882          50.200
                  21826543.445    89376051.856 8     -1192.891          40.500

  23529646.250                   123649144.955 6      1925.474          43.800
                  23529653.563    96349990.478 7      1500.377          30.000

  20078885.766                   105515321.110 7       165.119          49.000
                  20078892.758    82219726.139 9       128.664          43.600

  22025140.641                   115742855.625 6      2316.074          45.500
                  22025148.199    90189304.664 8      1804.734          35.700

  23458754.844                   123276572.769 5     -2244.733          41.400
                  23458762.355    96059701.968 6     -1749.150          25.400

  23950337.570                   125859831.164 5      2748.600          40.400
                  23950342.414    98072656.373 6      2141.753          24.400

  23744012.938                   124775584.248 3     -2948.224          36.700
                  23744023.520    97227765.131 6     -2297.318          22.500

  22131590.586                   116302293.836 7      2736.488          50.300
                  22131598.023    90625202.538 8      2132.329          38.600

  20861153.273                   109626035.632 8     -1591.163          52.100
                  20861161.992    85422973.358 9     -1239.868          45.300

 18  7  1  0  0 35.0000000  0 11G01G08G10G11G14G18G20G22G27G31G32
  23807383.805                   125108665.356 3      3333.831          36.600
                  23807395.535    97487302.741 6      2597.771          24.600

  23310548.266                   122497725.859 6     -1910.135          43.700
                  23310558.359    95452814.430 7     -1488.410          30.800

  21827991.352                   114706861.971 7     -1531.900          50.200
                  21828000.309    89382018.715 8     -1193.689          40.400

  23527815.766                   123639523.866 6      1923.363          43.600
                  23527822.398    96342493.527 7      1498.727          28.300

  20078730.445                   105514503.434 7       162.476          48.300
                  20078736.781    82219088.990 9       126.600          43.800

  22022937.492                   115731281.256 6      2314.086          45.600
                  22022945.582    90180285.676 8      1803.185          36.100

  23460891.469                   123287798.947 5     -2245.605          41.200
                  23460898.465    96068449.626 6     -1749.814          25.600

  23947722.141                   125846088.487 5      2748.504          41.300
                  23947727.992    98061947.802 6      2141.695          24.500

  23746818.266                   124790326.407 3     -2948.546          36.900
                  23746828.438    97239252.516 6     -2297.563          22.600

  22128988.258                   116288616.524 7      2734.778          50.500
                  22128995.484    90614544.897 8      2130.997          39.200

  20862668.406                   109633996.619 7     -1592.881          51.600
                  20862676.949    85429176.721 9     -1241.207          46.000

 18  7  1  0  0 40.0000000  0 11G01G08G10G11G14G18G20G22G27G31G32
  23804213.664                   125091998.773 4      3332.928          37.400
                  23804223.645    97474315.795 6      2597.087          23.900

  23312366.750                   122507281.998 6     -1912.006          43.000
                  23312376.738    95460260.774 7     -1489.867          30.900

  21829449.281                   114714524.315 7     -1532.889          49.600
                  21829458.457    89387989.367 8     -1194.461          40.900

  23525986.828                   123629913.135 6      1921.288          43.400
                  23525993.055    96335004.646 7      1497.111          29.600

  20078577.258                   105513698.814 7       159.860          48.800
                  20078584.063    82218462.013 9       124.567          44.100

  22020737.008                   115719716.478 6      2312.157          45.400
                  22020744.859    90171274.164 8      1801.680          36.200

  23463028.016                   123299029.118 5     -2246.380          40.900
                  23463035.441    96077200.410 6     -1750.447          25.800

  23945107.555                   125832345.883 5      2748.483          40.800
                  23945112.539    98051239.279 6      2141.684          24.200

  23749623.438                   124805070.059 3     -2948.866          36.600
                  23749634.094    97250741.081 6     -2297.826          22.800

  22126386.922                   116274947.525 7      2733.105          50.600
                  22126394.223    90603893.738 8      2129.691          39.200

  20864184.445                   109641965.850 7     -1594.536          51.300
                  20864193.527    85435386.511 9     -1242.496          45.500

 18  7  1  0  0 45.0000000  0 11G01G08G10G11G14G18G20G22G27G31G32
  23801042.648                   125075336.916 3      3331.956          37.000
                  23801053.027    97461332.531 6      2596.321          24.000

  23314187.281                   122516847.620 6     -1913.944          42.600
                  23314197.121    95467714.511 7     -1491.385          31.100

  21830908.578                   114722191.613 7     -1533.894          50.300
                  21830917.395    89393963.882 8     -1195.244          40.300

  23524159.828                   123620312.905 6      1919.168          44.300
                  23524166.172    96327523.959 7      1495.452          28.900

  20078426.711                   105512907.351 7       157.219          48.900
                  20078432.832    82217845.283 9       122.514          43.400

  22018538.461                   115708161.455 6      2310.179          46.500
                  22018545.836    90162270.250 8      1800.140          35.900

  23465166.344                   123310263.431 5     -2247.212          41.100
                  23465173.027    96085954.418 6     -1751.077          25.400

  23942491.578                   125818603.509 5      2748.437          40.100
                  23942498.180    98040530.933 6      2141.631          22.900

  23752429.063                   124819815.274 3     -2949.191          37.000
                  23752440.488    97262230.862 6     -2298.084          22.800

  22123787.836                   116261287.023 7      2731.405          50.800
                  22123794.707    90593249.196 8      2128.367          38.400

  20865702.539                   109649943.475 7     -1596.217          50.700
                  20865711.836    85441602.844 9     -1243.804          45.700

 18  7  1  0  0 50.0000000  0 11G01G08G10G11G14G18G20G22G27G31G32
  23797873.055                   125058679.669 3      3331.064          36.700
                  23797883.289    97448352.845 6      2595.642          25.500

  23316009.234                   122526422.679 6     -1915.767          42.600
                  23316019.063    95475175.592 7     -1492.809          31.100

  21832368.477                   114729863.799 7     -1534.839          50.500
                  21832377.414    89399942.203 8     -1195.980          40.100

  23522334.609                   123610723.041 6      1917.117          44.500
                  23522341.371    96320051.328 7      1493.856          28.900

  20078278.844                   105512128.954 7       154.617          48.800
                  20078284.984    82217238.745 9       120.478          43.800

  22016341.531                   115696616.117 6      2308.281          46.100
                  22016349.066    90153273.884 8      1798.657          36.300

  23467304.992                   123321501.807 5     -2248.007          41.100
                  23467311.820    96094711.591 6     -1751.686          25.700

  23939876.367                   125804861.252 5      2748.432          39.400
                  23939883.031    98029822.693 6      2141.626          24.000

  23755235.992                   124834561.945 4     -2949.472          37.900
                  23755246.246    97273721.741 6     -2298.285          22.800

  22121189.766                   116247634.854 7      2729.752          50.900
                  22121196.832    90582611.146 8      2127.080          38.400

  20867222.359                   109657929.370 7     -1597.871          51.100
                  20867231.281    85447825.614 9     -1245.095          45.100

 18  7  1  0  0 55.0000000  0 11G01G08G10G11G14G18G20G22G27G31G32
  23794704.031                   125042027.101 4      3330.162          37.500
                  23794713.656    97435376.810 6      2594.948          24.100

  23317833.211                   122536007.169 6     -1917.635          43.200
                  23317842.914    95482644.027 7     -1494.268          30.700

  21833829.508                   114737540.915 7     -1535.801          50.500
                  21833838.633    89405924.369 8     -1196.726          40.700

  23520511.391                   123601143.642 6      1915.048          44.300
                  23520518.605    96312586.865 7      1492.245          29.200

  20078132.688                   105511363.627 7       152.030          49.300
                  20078139.578    82216642.387 9       118.464          43.600

  22014146.406                   115685080.393 6      2306.371          46.100
                  22014153.590    90144285.009 8      1797.167          36.100

  23469444.898                   123332744.292 6     -2248.802          42.400
                  23469451.109    96103471.953 6     -1752.307          25.300

  23937261.633                   125791119.187 5      2748.404          40.000
                  23937267.781    98019114.595 6      2141.620          25.100

  23758041.852                   124849310.068 4     -2949.719          37.300
                  23758052.629    97285213.790 6     -2298.483          22.600

  22118593.211                   116233991.081 7      2728.098          50.800
                  22118600.590    90571979.646 8      2125.790          38.500

  20868743.625                   109665923.565 7     -1599.482          51.300
                  20868752.773    85454054.860 9     -1246.349          45.600

 18  7  1  0  1  0.0000000  0 11G01G08G10G11G14G18G20G22G27G31G32
  23791536.359                   125025379.052 3      3329.171          36.900
                  23791545.816    97422404.316 6      2594.162          25.700

  23319659.195                   122545600.989 6     -1919.567          42.400
                  23319668.582    95490119.728 7     -1495.771          30.800

  21835291.156                   114745222.806 7     -1536.810          50.100
                  21835299.793    89411910.257 8     -1197.509          39.800

  23518691.078                   123591574.568 6      1912.937          44.100
                  23518697.461    96305130.440 7      1490.596          29.200

  20077989.625                   105510611.273 7       149.382          48.800
                  20077995.953    82216056.136 9       116.402          43.400

  22011952.836                   115673554.306 6      2304.425          47.000
                  22011960.301    90135303.644 8      1795.654          35.900

  23471584.203                   123343990.688 5     -2249.632          41.800
                  23471591.133    96112235.379 7     -1752.955          26.500

  23934647.188                   125777377.154 5      2748.372          40.000
                  23934652.137    98008406.509 6      2141.591          21.700

  23760849.234                   124864059.536 3     -2950.038          36.800
                  23760859.691    97296706.891 6     -2298.733          22.800

  22115998.445                   116220355.637 7      2726.381          50.600
                  22116005.625    90561354.629 8      2124.450          38.700

  20870266.266                   109673925.922 7     -1601.169          51.900
                  20870275.043    85460290.461 9     -1247.667          45.700

 18  7  1  0  1  5.0000000  0 11G01G08G10G11G14G18G20G22G27G31G32
  23788369.086                   125008735.746 4      3328.332          37.400
                  23788378.703    97409435.492 6      2593.512          22.900

  23321486.430                   122555204.328 6     -1921.371          42.600
                  23321495.828    95497602.851 7     -1497.177          30.500

  21836753.820                   114752909.703 7     -1537.726          50.200
                  21836763.102    89417900.041 8     -1198.228          40.200

  23516871.914                   123582015.998 6      1910.921          43.700
                  23516878.676    96297682.198 7      1489.030          27.400

  20077849.211                   105509872.072 7       146.830          48.600
                  20077855.797    82215480.137 9       114.411          44.100

  22009761.953                   115662038.033 6      2302.531          46.000
                  22009769.305    90126329.920 8      1794.183          36.700

  23473725.656                   123355241.235 6     -2250.406          42.100
                  23473732.352    96121002.035 7     -1753.570          26.800

  23932032.211                   125763635.390 5      2748.393          40.300
                  23932036.781    97997698.645 6      2141.607          22.300

  23763655.984                   124878810.518 3     -2950.245          36.900
                  23763667.027    97308201.136 6     -2298.879          24.700

  22113405.281                   116206728.695 7      2724.750          51.000
                  22113412.258    90550736.239 8      2123.181          39.000

  20871790.945                   109681936.617 7     -1602.754          51.300
                  20871799.621    85466532.555 9     -1248.898          45.700

 18  7  1  0  1 10.0000000  0 11G01G08G10G11G14G18G20G22G27G31G32
  23785202.578                   124992097.078 3      3327.437          36.800
                  23785212.617    97396470.300 6      2592.811          22.600

  23323315.805                   122564816.918 6     -1923.215          42.500
                  23323325.191    95505093.181 7     -1498.608          30.200

  21838217.414                   114760601.418 7     -1538.683          50.100
                  21838226.512    89423893.583 8     -1198.968          40.200

  23515055.391                   123572467.833 6      1908.833          43.800
                  23515061.383    96290242.076 7      1487.412          28.300

  20077710.633                   105509145.838 7       144.247          49.900
                  20077717.461    82214914.239 9       112.402          43.400

  22007572.313                   115650531.380 6      2300.592          45.700
                  22007579.148    90117363.703 8      1792.663          37.100

  23475867.133                   123366495.776 5     -2251.160          42.000
                  23475874.078    96129771.805 7     -1754.166          26.300

  23929417.242                   125749893.700 5      2748.374          40.200
                  23929421.266    97986990.843 6      2141.574          25.300

  23766464.086                   124893562.838 4     -2950.529          38.300
                  23766473.832    97319696.461 6     -2299.110          25.500

  22110813.914                   116193110.086 7      2723.082          50.900
                  22110820.852    90540124.341 8      2121.885          38.700

  20873316.813                   109689955.511 7     -1604.390          51.800
                  20873325.977    85472781.049 9     -1250.176          45.700

 18  7  1  0  1 15.0000000  0 11G01G08G10G11G14G18G20G22G27G31G32
  23782037.125                   124975463.098 3      3326.468          36.700
                  23782047.313    97383508.775 6      2592.049          25.100

  23325146.586                   122574438.990 6     -1925.163          42.100
                  23325155.680    95512590.894 7     -1500.125          29.900

  21839682.109                   114768298.102 7     -1539.733          50.300
                  21839691.559    89429891.001 8     -1199.791          40.300

  23513240.266                   123562930.147 6      1906.698          43.400
                  23513246.840    96282810.114 7      1485.740          28.500

  20077575.203                   105508432.689 7       141.585          49.500
                  20077581.539    82214358.539 9       110.331          43.600

  22005384.055                   115639034.522 6      2298.584          46.400
                  22005391.480    90108405.111 8      1791.103          36.700

  23478009.219                   123377754.406 5     -2252.042          42.000
                  23478016.395    96138544.756 6     -1754.837          25.800

  23926801.211                   125736152.185 5      2748.305          40.500
                  23926806.750    97976283.162 6      2141.539          24.100

  23769271.539                   124908316.592 4     -2950.850          37.500
                  23769281.746    97331192.887 6     -2299.377          22.900

  22108223.797                   116179499.972 7      2721.340          51.000
                  22108231.035    90529519.070 8      2120.525          39.100

  20874844.266                   109697982.670 8     -1606.083          52.100
                  20874853.035    85479035.971 9     -1251.486          45.800

 18  7  1  0  1 20.0000000  0 11G01G08G10G11G14G18G20G22G27G31G32
  23778872.500                   124958833.935 3      3325.431          36.800
                  23778883.504    97370550.979 6      2591.236          24.200

  23326979.328                   122584070.486 6     -1927.087          42.500
                  23326989.164    95520095.955 7     -1501.628          29.100

  21841148.172                   114775999.753 7     -1540.763          49.900
                  21841156.957    89435892.281 8     -1200.594          40.600

  23511426.930                   123553403.011 6      1904.541          43.500
                  23511433.637    96275386.384 7      1484.049          28.900

  20077442.375                   105507732.648 7       138.927          48.700
                  20077448.824    82213813.053 9       108.257          43.400

  22003198.406                   115627547.452 6      2296.598          45.400
                  22003205.742    90099454.140 8      1789.561          36.500

  23480152.875                   123389017.180 5     -2252.902          41.500
                  23480160.129    96147320.942 6     -1755.511          25.800

  23924186.438                   125722410.850 5      2748.215          40.300
                  23924192.461    97965575.630 6      2141.459          23.400

  23772078.664                   124923071.848 4     -2951.208          38.000
                  23772089.297    97342690.460 6     -2299.624          22.800

  22105635.602                   116165898.383 7      2719.602          51.400
                  22105642.668    90518920.435 8      2119.171          39.300

  20876373.461                   109706018.146 7     -1607.788          50.800
                  20876382.445    85485297.382 9     -1252.823          45.800

 18  7  1  0  1 25.0000000  0 11G01G08G10G11G14G18G20G22G27G31G32
  23775708.742                   124942209.399 3      3324.516          36.800
                  23775719.965    97357596.810 6      2590.535          24.700

  23328814.273                   122593711.196 5     -1928.902          41.200
                  23328823.766    95527608.184 7     -1503.027          29.400

  21842614.461                   114783706.219 7     -1541.693          49.900
                  21842623.105    89441897.320 8     -1201.321          39.900

  23509615.703                   123543886.229 6      1902.519          43.700
                  23509622.945    96267970.692 7      1482.488          29.000

  20077311.313                   105507045.555 7       136.385          48.600
                  20077317.969    82213277.654 9       106.278          43.400

  22001014.430                   115616070.090 6      2294.683          46.900
                  22001021.512    90090510.745 8      1788.063          37.300

  23482296.891                   123400283.918 5     -2253.679          41.300
                  23482304.031    96156100.212 7     -1756.108          27.200

  23921572.563                   125708669.620 5      2748.240          39.700
                  23921578.059    97954868.208 6      2141.462          23.200

  23774887.047                   124937828.304 4     -2951.397          37.400
                  23774897.574    97354189.015 6     -2299.796          24.100

  22103048.805                   116152305.121 7      2717.979          51.000
                  22103055.973    90508328.291 8      2117.900          39.000

  20877904.008                   109714061.748 7     -1609.381          51.500
                  20877913.121    85491565.124 9     -1254.064          45.600

 18  7  1  0  1 30.0000000  0 11G01G08G10G11G14G18G20G22G27G31G32
  23772546.328                   124925589.548 3      3323.581          36.900
                  23772557.305    97344646.289 6      2589.791          24.300

  23330650.016                   122603361.300 5     -1930.802          41.500
                  23330659.918    95535127.752 7     -1504.517          30.200

  21844081.836                   114791417.605 7     -1542.702          50.000
                  21844090.879    89447906.194 8     -1202.109          40.700

  23507807.273                   123534379.923 6      1900.391          44.100
                  23507813.875    96260563.201 7      1480.815          28.200

  20077183.156                   105506371.513 7       133.730          49.300
                  20077189.652    82212752.430 9       104.206          44.100

  21998832.211                   115604602.504 7      2292.691          47.200
                  21998839.074    90081574.959 8      1786.514          36.700

  23484441.570                   123411554.719 5     -2254.529          41.000
                  23484448.852    96164882.653 7     -1756.782          27.000

  23918956.813                   125694928.522 5      2748.162          40.900
                  23918963.289    97944160.854 6      2141.422          24.100

  23777695.078                   124952586.141 4     -2951.691          37.600
                  23777705.844    97365688.602 6     -2300.023          23.300

  22100464.039                   116138720.346 7      2716.242          51.300
                  22100470.988    90497742.758 8      2116.553          39.200

  20879436.406                   109722113.568 8     -1611.054          52.300
                  20879445.102    85497839.279 9     -1255.367          45.300

 18  7  1  0  1 35.0000000  0 11G01G08G10G11G14G18G20G22G27G31G32
  23769384.656                   124908974.453 3      3322.658          36.900
                  23769395.430    97331699.464 6      2589.083          24.400

  23332487.836                   122613020.797 5     -1932.619          41.600
                  23332498.039    95542654.625 7     -1505.936          28.100

  21845549.875                   114799133.888 7     -1543.631          49.900
                  21845559.168    89453918.872 8     -1202.828          39.900

  23506000.352                   123524884.066 6      1898.362          43.700
                  23506006.664    96253163.829 7      1479.239          29.500

  20077056.781                   105505710.486 7       131.184          48.600
                  20077063.402    82212237.344 9       102.223          43.900

  21996651.719                   115593144.653 7      2290.827          47.200
                  21996658.957    90072646.769 8      1785.058          36.900

  23486586.836                   123422829.575 5     -2255.269          41.400
                  23486594.449    96173668.254 7     -1757.355          27.000

  23916342.594                   125681187.617 5      2748.191          40.900
                  23916348.352    97933453.658 6      2141.452          24.700

  23780503.625                   124967345.309 4     -2951.899          38.000
                  23780514.977    97377189.242 6     -2300.175          24.700

  22097880.141                   116125144.053 7      2714.596          51.700
                  22097887.055    90487163.839 8      2115.268          39.300

  20880970.180                   109730173.559 7     -1612.633          51.300
                  20880979.016    85504119.787 9     -1256.601          45.500

 18  7  1  0  1 40.0000000  0 11G01G08G10G11G14G18G20G22G27G31G32
  23766223.938                   124892364.029 4      3321.776          37.300
                  23766234.301    97318756.288 6      2588.387          23.400

  23334327.852                   122622689.476 5     -1934.443          40.500
                  23334337.992    95550188.664 7     -1507.365          28.600

  21847019.211                   114806855.039 7     -1544.576          50.500
                  21847028.508    89459935.347 8     -1203.567          40.300

  23504194.852                   123515398.670 6      1896.284          43.900
                  23504201.613    96245772.600 7      1477.627          28.000

  20076933.773                   105505062.451 7       128.617          49.100
                  20076940.688    82211732.384 9       100.219          43.500

  21994472.938                   115581696.533 7      2288.892          47.400
                  21994480.363    90063726.154 8      1783.551          36.900

  23488733.492                   123434108.477 5     -2256.072          41.500
                  23488740.961    96182457.012 7     -1757.984          26.100

  23913728.102                   125667446.877 5      2748.162          41.200
                  23913733.348    97922746.589 6      2141.441          24.900

  23783313.055                   124982105.770 4     -2952.159          38.800
                  23783323.414    97388690.907 6     -2300.364          24.000

  22095298.234                   116111576.213 7      2712.936          51.400
                  22095305.387    90476591.504 8      2113.971          39.400

  20882505.516                   109738241.737 7     -1614.245          51.700
                  20882514.574    85510406.672 9     -1257.852          45.400

 18  7  1  0  1 45.0000000  0 11G01G08G10G11G14G18G20G22G27G31G32
  23763063.844                   124875758.506 4      3320.690          37.200
                  23763074.215    97305816.917 7      2587.546          26.200

  23336169.547                   122632367.486 5     -1936.383          40.900
                  23336179.805    95557729.951 7     -1508.870          28.600

  21848489.430                   114814581.193 7     -1545.653          50.300
                  21848498.625    89465955.732 8     -1204.409          40.300

  23502392.039                   123505923.845 6      1894.099          43.800
                  23502398.539    96238389.621 7      1475.918          29.200

  20076812.742                   105504427.492 7       125.935          48.700
                  20076819.250    82211237.612 9        98.128          44.100

  21992296.578                   115570258.242 6      2286.879          46.600
                  21992303.824    90054813.203 8      1781.979          36.700

  23490880.227                   123445391.484 5     -2256.958          41.800
                  23490887.695    96191248.963 6     -1758.669          25.800

  23911113.469                   125653706.402 5      2748.056          40.700
                  23911118.277    97912039.732 6      2141.337          23.900

  23786122.375                   124996867.619 4     -2952.492          38.900
                  23786132.418    97400193.643 6     -2300.665          23.200

  22092718.063                   116098016.988 7      2711.144          50.600
                  22092725.059    90466025.880 8      2112.574          39.500

  20884042.305                   109746318.169 7     -1615.958          51.500
                  20884051.438    85516699.998 9     -1259.188          45.500

 18  7  1  0  1 50.0000000  0 11G01G08G10G11G14G18G20G22G27G31G32
  23759904.047                   124859157.683 3      3319.776          36.700
                  23759915.012    97292881.201 6      2586.841          25.600

  23338012.375                   122642054.780 5     -1938.212          41.300
                  23338023.516    95565278.473 7     -1510.283          28.800

  21849960.906                   114822312.206 7     -1546.590          50.000
                  21849969.875    89471979.888 8     -1205.136          40.000

  23500590.906                   123496459.480 6      1892.019          44.300
                  23500597.445    96231014.791 7      1474.288          28.000

  20076694.711                   105503805.556 7       123.338          48.100
                  20076701.184    82210752.979 9        96.108          43.500

  21990122.156                   115558829.752 7      2284.921          47.900
                  21990129.055    90045907.882 8      1780.457          36.300

  23493028.867                   123456678.555 5     -2257.746          41.200
                  23493035.816    96200044.064 7     -1759.278          26.300

  23908497.813                   125639966.055 5      2748.055          40.300
                  23908503.473    97901332.963 6      2141.347          24.800

  23788930.891                   125011630.724 4     -2952.722          39.000
                  23788941.813    97411697.355 6     -2300.816          24.800

  22090139.914                   116084466.263 7      2709.457          51.000
                  22090146.703    90455466.877 8      2111.265          39.000

  20885580.414                   109754402.730 7     -1617.572          52.000
                  20885589.758    85522999.657 9     -1260.450          45.700

 18  7  1  0  1 55.0000000  0 11G01G08G10G11G14G18G20G22G27G31G32
  23756746.750                   124842561.723 3      3318.819          36.300
                  23756757.270    97279949.318 6      2586.082          23.900

  23339857.430                   122651751.294 5     -1940.041          41.400
                  23339868.469    95572834.202 7     -1511.714          28.300

  21851433.055                   114830048.251 7     -1547.596          49.400
                  21851442.156    89478007.976 8     -1205.918          40.200

  23498791.867                   123487005.748 6      1889.912          43.500
                  23498798.441    96223648.252 7      1472.647          27.900

  20076578.602                   105503196.737 7       120.733          49.100
                  20076585.043    82210278.576 9        94.079          43.500

  21987949.195                   115547411.172 7      2282.945          47.900
                  21987956.461    90037010.281 8      1778.919          36.000

  23495176.961                   123467969.783 5     -2258.572          40.900
                  23495183.953    96208842.420 7     -1759.927          27.400

  23905883.109                   125626226.031 5      2747.996          40.600
                  23905888.570    97890626.447 6      2141.309          23.500

  23791741.313                   125026395.195 4     -2953.004          37.700
                  23791751.270    97423202.144 6     -2301.049          24.300

  22087562.719                   116070924.162 7      2707.735          51.700
                  22087569.625    90444914.604 8      2109.914          39.300

  20887120.898                   109762495.578 7     -1619.217          51.600
                  20887129.563    85529305.768 9     -1261.726          45.800

 18  7  1  0  2  0.0000000  0 11G01G08G10G11G14G18G20G22G27G31G32
  23753590.211                   124825970.521 4      3317.881          37.800
                  23753600.309    97267021.117 6      2585.347          24.800

  23341705.031                   122661457.039 5     -1941.880          40.600
                  23341715.500    95580397.108 7     -1513.158          27.400

  21852906.352                   114837789.122 7     -1548.550          49.900
                  21852915.195    89484039.815 8     -1206.661          40.300

  23496994.844                   123477562.455 6      1887.830          43.500
                  23497001.301    96216289.843 7      1471.030          27.900

  20076465.492                   105502600.819 7       118.162          48.600
                  20076471.781    82209814.229 9        92.074          43.300

  21985778.008                   115536002.365 7      2281.010          47.800
                  21985785.008    90028120.298 8      1777.412          37.500

  23497326.469                   123479264.999 5     -2259.357          40.500
                  23497333.984    96217643.884 6     -1760.536          24.700

  23903269.148                   125612486.102 5      2747.993          39.300
                  23903274.352    97879920.027 6      2141.262          24.900

  23794550.813                   125041160.852 4     -2953.204          38.300
                  23794560.668    97434707.835 6     -2301.188          23.200

  22084987.063                   116057390.509 7      2706.067          51.500
                  22084993.883    90434368.903 8      2108.626          39.700

  20888662.375                   109770596.501 7     -1620.818          51.400
                  20888671.039    85535618.179 9     -1262.978          45.400

 18  7  1  0  2  5.0000000  0 11G01G08G10G11G14G18G20G22G27G31G32
  23750434.305                   124809384.163 4      3316.920          37.600
                  23750444.402    97254096.670 7      2584.620          26.300

  23343553.070                   122671172.068 5     -1943.705          39.700
                  23343564.184    95587967.255 7     -1514.574          27.200

  21854379.844                   114845534.923 7     -1549.519          50.400
                  21854388.340    89490075.509 8     -1207.422          40.500

  23495199.563                   123468129.699 6      1885.737          43.300
                  23495206.348    96208939.640 7      1469.401          29.300

  20076354.359                   105502017.921 7       115.572          48.800
                  20076360.820    82209360.022 9        90.051          43.700

  21983609.211                   115524603.404 7      2279.054          47.600
                  21983615.770    90019237.997 8      1775.894          36.900

  23499476.586                   123490564.284 5     -2260.143          40.400
                  23499484.207    96226448.513 6     -1761.147          25.600

  23900654.125                   125598746.405 5      2747.957          39.200
                  23900659.926    97869213.765 6      2141.243          23.900

  23797360.711                   125055927.797 4     -2953.413          38.100
                  23797370.848    97446214.528 6     -2301.342          22.900

  22082413.523                   116043865.439 7      2704.372          51.400
                  22082420.199    90423829.895 8      2107.306          39.200

  20890205.148                   109778705.577 7     -1622.424          51.500
                  20890214.336    85541936.937 9     -1264.228          45.700

 18  7  1  0  2 10.0000000  0 11G01G08G10G11G14G18G20G22G27G31G32
  23747277.805                   124792802.532 4      3315.948          37.300
                  23747288.441    97241175.916 6      2583.874          24.600

  23345404.258                   122680896.277 5     -1945.550          39.500
                  23345414.770    95595544.545 7     -1516.017          26.800

  21855855.250                   114853285.626 7     -1550.511          50.200
                  21855863.688    89496115.010 8     -1208.192          40.200

  23493406.813                   123458707.454 6      1883.620          42.800
                  23493413.352    96201597.635 7      1467.753          28.500

  20076246.172                   105501447.973 7       112.966          48.700
                  20076252.617    82208915.907 9        88.023          43.700

  21981441.516                   115513214.226 7      2277.081          47.200
                  21981448.219    90010363.313 8      1774.348          36.800

  23501627.617                   123501867.651 5     -2260.981          40.800
                  23501635.293    96235256.333 7     -1761.808          26.500

  23898039.695                   125585006.827 4      2747.976          38.300
                  23898045.094    97858507.594 6      2141.305          24.700

  23800171.570                   125070695.953 4     -2953.713          38.600
                  23800181.512    97457722.195 6     -2301.596          24.100

  22079841.406                   116030348.911 7      2702.637          51.300
                  22079848.539    90413297.545 8      2105.951          39.600

  20891750.070                   109786822.762 7     -1624.056          50.600
                  20891758.980    85548262.011 9     -1265.494          45.800

 18  7  1  0  2 15.0000000  0 11G01G08G10G11G14G18G20G22G27G31G32
  23744123.664                   124776225.800 4      3314.955          37.400
                  23744134.355    97228258.997 6      2583.072          24.800

  23347255.500                   122690629.777 5     -1947.432          39.900
                  23347266.824    95603129.078 7     -1517.479          26.500

  21857330.734                   114861041.256 7     -1551.499          50.200
                  21857339.766    89502158.353 8     -1208.958          40.300

  23491616.289                   123449295.724 6      1881.521          43.900
                  23491622.344    96194263.814 7      1466.128          27.900

  20076139.930                   105500891.002 7       110.378          49.200
                  20076146.520    82208481.897 9        86.014          42.900

  21979276.570                   115501834.894 6      2275.082          46.000
                  21979283.371    90001496.298 8      1772.792          37.300

  23503779.875                   123513175.087 5     -2261.814          40.400
                  23503787.078    96244067.314 6     -1762.446          26.000

  23895425.898                   125571267.513 4      2747.839          37.700
                  23895431.125    97847801.670 6      2141.181          25.200

  23802981.484                   125085465.304 5     -2953.970          39.800
                  23802991.379    97469230.771 6     -2301.790          24.700

  22077270.977                   116016840.964 7      2700.918          51.300
                  22077278.031    90402771.875 8      2104.617          39.500

  20893296.273                   109794948.102 8     -1625.705          52.100
                  20893305.027    85554593.442 9     -1266.781          46.000

 18  7  1  0  2 20.0000000  0 11G01G08G10G11G14G18G20G22G27G31G32
  23740969.727                   124759653.843 3      3314.000          36.700
                  23740980.289    97215345.784 6      2582.337          25.300

  23349109.344                   122700372.321 4     -1949.250          38.500
                  23349120.621    95610720.665 7     -1518.882          27.300

  21858807.539                   114868801.757 7     -1552.504          50.300
                  21858816.844    89508205.496 8     -1209.743          40.100

  23489826.477                   123439894.455 6      1879.416          44.100
                  23489833.941    96186938.152 7      1464.474          28.400

  20076036.594                   105500346.956 7       107.773          48.700
                  20076043.156    82208057.967 9        83.976          43.600

  21977112.836                   115490465.384 7      2273.111          47.400
                  21977119.375    89992636.944 8      1771.252          37.800

  23505931.898                   123524486.544 5     -2262.603          39.900
                  23505938.957    96252881.431 7     -1763.078          27.300

  23892811.734                   125557528.344 4      2747.764          38.000
                  23892816.484    97837095.828 6      2141.106          24.700

  23805792.641                   125100235.837 4     -2954.211          38.500
                  23805802.793    97480740.272 6     -2301.989          25.300

  22074702.164                   116003341.567 7      2699.196          51.400
                  22074709.219    90392252.878 8      2103.267          39.000

  20894844.188                   109803081.502 7     -1627.318          51.900
                  20894852.910    85560931.161 9     -1268.045          45.500

 18  7  1  0  2 25.0000000  0 11G01G08G10G11G14G18G20G22G27G31G32
  23737817.039                   124743086.716 4      3313.025          38.200
                  23737827.723    97202436.341 6      2581.574          23.800

  23350965.516                   122710124.060 5     -1951.101          39.400
                  23350975.770    95618319.439 7     -1520.346          27.400

  21860285.063                   114876567.186 7     -1553.491          50.200
                  21860294.453    89514256.482 8     -1210.518          39.900

  23488039.852                   123430503.757 6      1877.297          43.900
                  23488047.016    96179620.730 7      1462.816          29.400

  20075935.633                   105499815.882 7       105.169          48.600
                  20075941.996    82207644.146 9        81.947          43.500

  21974951.063                   115479105.798 7      2271.119          47.200
                  21974958.266    89983785.315 8      1769.702          36.500

  23508084.523                   123535802.067 5     -2263.442          39.400
                  23508092.105    96261698.698 7     -1763.701          26.400

  23890196.578                   125543789.363 4      2747.768          38.200
                  23890201.730    97826390.113 6      2141.102          24.500

  23808603.234                   125115007.513 5     -2954.420          39.600
                  23808614.055    97492250.677 6     -2302.156          25.500

  22072134.875                   115989850.790 7      2697.453          51.200
                  22072141.934    90381740.590 8      2101.913          39.200

  20896393.313                   109811223.010 8     -1628.968          52.300
                  20896402.309    85567275.190 9     -1269.322          45.600

 18  7  1  0  2 30.0000000  0 11G01G08G10G11G14G18G20G22G27G31G32
  23734666.336                   124726524.445 4      3312.164          37.300
                  23734676.133    97189530.691 6      2580.905          25.300

  23352822.898                   122719884.994 4     -1952.859          38.900
                  23352833.035    95625925.346 7     -1521.696          27.200

  21861763.969                   114884337.513 7     -1554.396          50.000
                  21861772.957    89520311.276 8     -1211.217          39.900

  23486254.859                   123421123.594 6      1875.254          43.200
                  23486262.004    96172311.505 7      1461.238          28.700

  20075836.898                   105499297.804 7       102.623          48.200
                  20075843.012    82207240.443 9        79.969          43.700

  21972791.570                   115467756.071 7      2269.197          47.200
                  21972798.184    89974941.371 8      1768.202          36.400

  23510239.172                   123547121.673 5     -2264.188          39.200
                  23510245.984    96270519.178 6     -1764.300          25.200

  23887581.648                   125530050.589 4      2747.815          38.300
                  23887586.914    97815684.554 6      2141.163          24.200

  23811414.297                   125129780.394 5     -2954.618          39.600
                  23811425.590    97503762.010 6     -2302.296          25.100

  22069569.008                   115976368.635 7      2695.794          51.400
                  22069576.184    90371235.022 8      2100.615          38.900

  20897944.234                   109819372.619 7     -1630.525          51.900
                  20897952.809    85573625.534 9     -1270.538          45.600

 18  7  1  0  2 35.0000000  0 11G01G08G10G11G14G18G20G22G27G31G32
  23731515.031                   124709967.126 4      3311.085          37.700
                  23731525.102    97176628.888 6      2580.068          24.400

  23354681.805                   122729655.111 5     -1954.756          40.500
                  23354692.910    95633538.437 6     -1523.190          25.300

  21863243.688                   114892112.830 7     -1555.470          49.100
                  21863252.297    89526369.965 8     -1212.055          39.600

  23484472.320                   123411754.060 6      1873.044          43.800
                  23484478.770    96165010.577 7      1459.523          28.900

  20075740.648                   105498792.734 7        99.959          48.900
                  20075747.188    82206846.880 9        77.892          44.000

  21970633.398                   115456416.319 6      2267.145          46.000
                  21970640.352    89966105.199 8      1766.608          37.000

  23512394.195                   123558445.384 5     -2265.067          40.100
                  23512401.254    96279342.852 7     -1764.979          26.200

  23884967.719                   125516312.069 5      2747.654          39.500
                  23884972.090    97804979.243 6      2141.017          22.600

  23814225.961                   125144554.472 5     -2954.936          39.900
                  23814236.879    97515274.254 6     -2302.546          22.900

  22067005.375                   115962895.156 7      2693.981          51.300
                  22067012.453    90360736.210 8      2099.210          39.000

  20899496.508                   109827530.355 7     -1632.211          50.400
                  20899505.297    85579982.212 9     -1271.854          45.700

 18  7  1  0  2 40.0000000  0 11G01G08G10G11G14G18G20G22G27G31G32
  23728365.758                   124693414.649 4      3310.092          38.000
                  23728375.789    97163730.845 6      2579.294          26.000

  23356543.648                   122739434.223 5     -1956.568          40.900
                  23356553.926    95641158.519 7     -1524.599          26.700

  21864724.305                   114899892.963 7     -1556.445          47.400
                  21864733.434    89532432.405 8     -1212.817          39.500

  23482691.398                   123402394.978 6      1870.940          43.500
                  23482697.957    96157717.792 7      1457.883          28.600

  20075647.367                   105498300.533 7        97.398          48.800
                  20075653.730    82206463.351 9        75.895          43.700

  21968477.461                   115445086.370 6      2265.202          45.700
                  21968484.301    89957276.663 8      1765.093          37.100

  23514550.016                   123569773.092 5     -2265.882          40.100
                  23514556.824    96288169.630 6     -1765.617          25.800

  23882352.602                   125502573.609 5      2747.655          39.800
                  23882357.277    97794273.943 6      2141.042          22.900

  23817038.602                   125159329.585 5     -2955.122          39.400
                  23817048.324    97526787.351 6     -2302.697          24.800

  22064442.961                   115949430.246 7      2692.262          51.700
                  22064449.879    90350244.081 8      2097.867          39.200

  20901050.422                   109835696.073 7     -1633.804          50.100
                  20901059.109    85586345.112 9     -1273.092          45.200

 18  7  1  0  2 45.0000000  0 11G01G08G10G11G14G18G20G22G27G31G32
  23725216.102                   124676867.092 4      3309.103          38.400
                  23725226.645    97150836.641 7      2578.511          26.800

  23358406.398                   122749222.546 5     -1958.427          41.600
                  23358416.461    95648785.786 7     -1526.033          28.100

  21866205.719                   114907678.104 6     -1557.422          46.500
                  21866214.523    89538498.743 8     -1213.570          39.400

  23480911.797                   123393046.578 6      1868.811          43.000
                  23480918.898    96150433.327 7      1456.217          28.500

  20075555.969                   105497821.365 7        94.786          48.900
                  20075562.371    82206089.969 9        73.860          43.800

  21966322.859                   115433766.359 7      2263.194          47.100
                  21966330.219    89948455.878 8      1763.524          36.900

  23516705.828                   123581104.915 5     -2266.701          40.200
                  23516712.832    96296999.607 6     -1766.259          25.800

  23879739.039                   125488835.485 4      2747.571          38.800
                  23879743.266    97783568.922 6      2140.968          24.500

  23819849.609                   125174105.933 5     -2955.352          39.200
                  23819859.871    97538301.357 6     -2302.850          25.600

  22061882.242                   115935974.092 7      2690.517          51.600
                  22061889.262    90339758.776 8      2096.500          39.300

  20902605.750                   109843869.951 7     -1635.431          50.200
                  20902614.484    85592714.372 9     -1274.367          45.400

 18  7  1  0  2 50.0000000  0 11G01G08G10G11G14G18G20G22G27G31G32
  23722068.867                   124660324.450 4      3308.155          37.500
                  23722078.641    97137946.287 7      2577.760          26.400

  23360270.664                   122759019.920 5     -1960.179          40.800
                  23360280.598    95656420.114 7     -1527.427          26.800

  21867687.680                   114915468.191 6     -1558.399          46.500
                  21867696.750    89544568.936 8     -1214.334          39.700

  23479135.391                   123383708.764 6      1866.749          43.200
                  23479141.875    96143157.106 7      1454.611          28.000

  20075467.039                   105497355.127 7        92.230          49.700
                  20075473.594    82205726.671 9        71.867          43.700

  21964171.281                   115422456.294 6      2261.220          46.900
                  21964177.641    89939642.843 8      1761.991          37.600

  23518862.867                   123592440.748 5     -2267.467          39.400
                  23518869.813    96305832.722 6     -1766.852          25.100

  23877124.672                   125475097.524 4      2747.562          37.300
                  23877129.777    97772864.011 6      2140.956          24.700

  23822660.531                   125188883.370 5     -2955.551          40.100
                  23822671.938    97549816.243 6     -2303.029          24.900

  22059323.313                   115922526.570 7      2688.823          50.800
                  22059330.105    90329280.194 8      2095.182          39.400

  20904162.914                   109852051.878 7     -1637.020          50.300
                  20904171.547    85599089.894 9     -1275.594          45.700

 18  7  1  0  2 55.0000000  0 11G01G08G10G11G14G18G20G22G27G31G32
  23718921.297                   124643786.723 4      3307.157          38.100
                  23718932.152    97125059.743 7      2577.000          26.800

  23362136.156                   122768826.426 5     -1962.003          40.500
                  23362146.898    95664061.534 7     -1528.843          27.900

  21869171.742                   114923263.156 6     -1559.404          46.600
                  21869180.434    89550642.932 8     -1215.113          39.400

  23477360.375                   123374381.542 6      1864.601          43.600
                  23477366.859    96135889.145 7      1452.934          28.300

  20075380.984                   105496901.815 7        89.619          49.400
                  20075387.344    82205373.439 9        69.831          43.600

  21962020.719                   115411156.167 6      2259.201          47.000
                  21962027.512    89930837.535 8      1760.422          36.800

  23521020.609                   123603780.661 5     -2268.316          40.300
                  23521027.434    96314669.007 6     -1767.516          26.000

  23874510.867                   125461359.780 4      2747.491          37.500
                  23874516.258    97762159.285 6      2140.917          24.500

  23825473.852                   125203661.897 5     -2955.815          39.800
                  23825484.156    97561331.960 7     -2303.217          26.700

  22056766.188                   115909087.736 7      2687.051          50.400
                  22056773.094    90318808.383 8      2093.801          39.200

  20905721.414                   109860241.838 7     -1638.641          50.200
                  20905730.230    85605471.683 9     -1276.862          45.600

 18  7  1  0  3  0.0000000  0 11G01G08G10G11G14G18G20G22G27G31G32
  23715775.344                   124627253.942 5      3306.142          39.400
                  23715785.754    97112177.060 6      2576.229          26.000

  23364004.602                   122778642.017 5     -1963.882          41.100
                  23364014.563    95671710.034 7     -1530.293          27.700

  21870655.336                   114931063.068 6     -1560.378          46.900
                  21870664.660    89556720.784 8     -1215.881          39.900

  23475587.383                   123365064.944 6      1862.445          43.200
                  23475593.660    96128629.459 7      1451.257          28.100

  20075297.109                   105496461.460 7        87.006          49.200
                  20075303.398    82205030.306 9        67.795          43.600

  21959871.961                   115399865.999 7      2257.215          47.800
                  21959879.414    89922040.009 8      1758.870          37.100

  23523179.430                   123615124.598 5     -2269.126          39.300
                  23523186.023    96323508.437 6     -1768.160          25.200

  23871896.805                   125447622.269 4      2747.467          38.100
                  23871902.000    97751454.756 6      2140.869          25.600

  23828286.313                   125218441.487 5     -2956.050          39.500
                  23828296.465    97572848.540 7     -2303.414          26.500

  22054210.359                   115895657.557 7      2685.318          50.500
                  22054217.520    90308343.311 8      2092.449          38.900

  20907281.391                   109868439.850 7     -1640.284          50.700
                  20907290.070    85611859.742 9     -1278.146          45.500

 18  7  1  0  3  5.0000000  0 11G01G08G10G11G14G18G20G22G27G31G32
  23712630.398                   124610726.096 4      3305.138          37.400
                  23712640.980    97099298.221 6      2575.431          25.100

  23365874.797                   122788466.763 5     -1965.698          41.800
                  23365884.492    95679365.677 7     -1531.720          28.200

  21872140.625                   114938867.926 7     -1561.400          48.400
                  21872149.691    89562802.484 8     -1216.674          39.800

  23473816.133                   123355758.933 6      1860.313          43.600
                  23473823.234    96121378.025 7      1449.587          28.500

  20075215.836                   105496034.042 7        84.401          49.300
                  20075222.059    82204697.253 9        65.764          43.800

  21957725.703                   115388585.748 7      2255.231          48.700
                  21957732.387    89913250.200 8      1757.325          36.900

  23525338.836                   123626472.640 5     -2269.969          39.700
                  23525345.957    96332351.061 6     -1768.817          25.300

  23869282.422                   125433884.937 4      2747.414          38.600
                  23869288.309    97740750.331 6      2140.842          25.300

  23831099.102                   125233222.151 5     -2956.246          40.300
                  23831108.832    97584365.939 6     -2303.579          25.100

  22051656.195                   115882236.091 7      2683.543          51.300
                  22051663.285    90297885.034 8      2091.074          39.700

  20908842.797                   109876645.913 7     -1641.906          50.900
                  20908851.523    85618254.079 9     -1279.410          45.300

 18  7  1  0  3 10.0000000  0 11G01G08G10G11G14G18G20G22G27G31G32
  23709486.656                   124594203.166 4      3304.207          38.400
                  23709496.051    97086423.226 7      2574.692          26.300

  23367744.984                   122798300.482 6     -1967.476          42.500
                  23367755.676    95687028.310 7     -1533.097          27.600

  21873626.609                   114946677.669 7     -1562.363          49.300
                  21873636.258    89568887.994 8     -1217.429          39.300

  23472047.898                   123346463.498 6      1858.226          43.600
                  23472054.938    96114134.832 7      1447.966          28.400

  20075136.844                   105495619.485 7        81.867          49.200
                  20075143.137    82204374.215 9        63.795          43.600

  21955580.625                   115377315.485 7      2253.241          47.800
                  21955588.199    89904468.177 8      1755.768          37.300

  23527499.055                   123637824.740 5     -2270.745          39.800
                  23527506.578    96341196.826 6     -1769.394          25.300

  23866668.211                   125420147.816 4      2747.405          38.900
                  23866673.898    97730046.102 6      2140.817          23.300

  23833911.938                   125248003.814 5     -2956.410          39.500
                  23833922.547    97595884.107 6     -2303.692          25.300

  22049104.000                   115868823.315 7      2681.836          51.400
                  22049111.105    90287433.529 8      2089.739          39.400

  20910405.758                   109884859.911 8     -1643.441          52.300
                  20910414.578    85624654.594 9     -1280.610          45.300

 18  7  1  0  3 15.0000000  0 11G01G08G10G11G14G18G20G22G27G31G32
  23706343.273                   124577685.279 5      3303.182          39.600
                  23706352.508    97073552.139 7      2573.909          26.400

  23369617.875                   122808143.249 6     -1969.275          42.700
                  23369628.441    95694697.999 7     -1534.509          29.700

  21875114.227                   114954492.353 7     -1563.344          48.100
                  21875123.137    89574977.360 8     -1218.191          39.700

  23470280.344                   123337178.692 6      1856.099          43.600
                  23470287.961    96106899.916 7      1446.306          28.800

  20075060.648                   105495217.871 7        79.289          49.300
                  20075066.457    82204061.269 9        61.786          44.000

  21953438.055                   115366055.267 6      2251.222          46.700
                  21953445.129    89895693.984 8      1754.191          37.200

  23529660.242                   123649180.890 5     -2271.560          40.200
                  23529667.285    96350045.787 6     -1770.034          25.000

  23864053.945                   125406410.945 5      2747.339          40.200
                  23864059.570    97719342.045 6      2140.769          24.400

  23836725.398                   125262786.590 5     -2956.603          39.200
                  23836735.332    97607403.163 6     -2303.853          25.500

  22046553.250                   115855419.260 7      2680.113          51.100
                  22046560.293    90276988.818 8      2088.401          40.200

  20911970.555                   109893081.975 7     -1645.036          51.300
                  20911979.301    85631061.396 9     -1281.845          45.500

 18  7  1  0  3 20.0000000  0 11G01G08G10G11G14G18G20G22G27G31G32
  23703200.328                   124561172.358 5      3302.184          39.200
                  23703210.637    97060684.921 7      2573.141          26.100

  23371493.352                   122817995.020 6     -1971.067          42.900
                  23371503.590    95702374.689 7     -1535.884          28.900

  21876602.070                   114962311.992 6     -1564.335          46.500
                  21876611.445    89581070.579 8     -1218.954          39.400

  23468515.992                   123327904.531 6      1853.969          43.900
                  23468523.121    96099673.303 7      1444.654          29.700

  20074986.422                   105494829.215 7        76.679          48.900
                  20074992.566    82203758.420 9        59.752          43.400

  21951297.375                   115354804.952 7      2249.258          47.300
                  21951304.500    89886927.502 8      1752.670          37.100

  23531821.367                   123660541.128 5     -2272.386          40.000
                  23531829.008    96358897.918 6     -1770.678          24.600

  23861440.680                   125392674.292 5      2747.302          39.900
                  23861444.852    97708638.156 6      2140.761          24.100

  23839538.008                   125277570.405 5     -2956.849          39.800
                  23839548.918    97618923.011 6     -2304.055          25.200

  22044004.008                   115842024.002 7      2678.345          51.000
                  22044011.070    90266550.960 8      2087.023          39.500

  20913536.430                   109901312.070 7     -1646.671          50.500
                  20913545.145    85637474.456 9     -1283.125          45.900

 18  7  1  0  3 25.0000000  0 11G01G08G10G11G14G18G20G22G27G31G32
  23700058.727                   124544664.416 4      3301.240          37.900
                  23700068.785    97047821.571 6      2572.391          26.000

  23373370.055                   122827855.685 6     -1972.845          43.000
                  23373379.832    95710058.332 7     -1537.286          29.200

  21878091.406                   114970136.556 6     -1565.305          46.200
                  21878100.277    89587167.641 8     -1219.722          39.500

  23466753.477                   123318640.985 6      1851.864          44.700
                  23466759.633    96092454.944 7      1443.012          28.400

  20074915.156                   105494453.426 7        74.142          48.800
                  20074921.301    82203465.597 9        57.776          43.100

  21949158.391                   115343564.689 7      2247.273          48.100
                  21949165.691    89878168.851 8      1751.132          37.500

  23533984.383                   123671905.414 5     -2273.180          40.500
                  23533992.094    96367753.205 6     -1771.297          23.900

  23858826.188                   125378937.870 5      2747.287          40.000
                  23858830.441    97697934.429 6      2140.768          24.100

  23842351.992                   125292355.174 5     -2956.998          40.300
                  23842362.449    97630443.588 7     -2304.159          26.900

  22041456.648                   115828637.471 7      2676.611          51.100
                  22041463.906    90256119.905 8      2085.671          39.500

  20915104.367                   109909550.107 7     -1648.239          50.300
                  20915113.141    85643893.706 9     -1284.342          45.100

 18  7  1  0  3 30.0000000  0 11G01G08G10G11G14G18G20G22G27G31G32
  23696918.977                   124528161.529 4      3300.156          37.800
                  23696928.355    97034962.185 6      2571.547          25.800

  23375247.828                   122837725.387 6     -1974.677          42.400
                  23375257.840    95717748.991 7     -1538.711          28.300

  21879581.102                   114977966.059 6     -1566.330          46.400
                  21879589.891    89593268.543 8     -1220.513          39.500

  23464992.430                   123309388.082 6      1849.707          44.100
                  23464999.219    96085244.897 7      1441.326          29.000

  20074846.047                   105494090.590 7        71.518          49.600
                  20074852.395    82203182.863 9        55.736          43.600

  21947020.781                   115332334.465 6      2245.231          47.000
                  21947028.676    89869418.028 8      1749.525          36.800

  23536147.680                   123683273.807 5     -2274.059          39.400
                  23536154.723    96376611.683 6     -1771.989          25.300

  23856212.117                   125365201.742 5      2747.190          40.800
                  23856216.445    97687230.976 6      2140.657          23.000

  23845164.992                   125307140.972 5     -2957.253          40.400
                  23845176.023    97641964.992 7     -2304.353          26.800

  22038911.188                   115815259.712 7      2674.817          51.600
                  22038918.512    90245695.690 8      2084.265          39.500

  20916673.500                   109917796.173 7     -1649.872          50.600
                  20916682.141    85650319.208 9     -1285.607          45.400

 18  7  1  0  3 35.0000000  0 11G01G08G10G11G14G18G20G22G27G31G32
  23693779.688                   124511663.627 4      3299.203          38.300
                  23693788.918    97022106.706 6      2570.793          24.700

  23377127.758                   122847604.166 6     -1976.462          43.000
                  23377137.688    95725446.746 7     -1540.088          28.700

  21881071.641                   114985800.531 7     -1567.270          47.500
                  21881080.840    89599373.323 8     -1221.245          40.200

  23463233.703                   123300145.837 6      1847.637          43.400
                  23463240.473    96078043.150 7      1439.715          29.100

  20074779.328                   105493740.684 7        68.988          50.000
                  20074786.152    82202910.209 9        53.757          43.900

  21944886.219                   115321114.189 6      2243.289          46.700
                  21944893.316    89860674.961 8      1748.017          37.000

  23538311.570                   123694646.255 4     -2274.805          38.600
                  23538318.949    96385473.323 6     -1772.563          24.000

  23853598.789                   125351465.867 5      2747.197          41.100
                  23853602.605    97676527.675 6      2140.675          24.700

  23847979.016                   125321927.749 5     -2957.372          40.200
                  23847989.664    97653487.143 6     -2304.442          25.800

  22036366.672                   115801890.762 7      2673.120          50.900
                  22036373.719    90235278.328 8      2082.957          39.900

  20918244.172                   109926050.228 7     -1651.410          51.400
                  20918252.871    85656750.945 9     -1286.812          45.400

 18  7  1  0  3 40.0000000  0 11G01G08G10G11G14G18G20G22G27G31G32
  23690640.680                   124495170.746 4      3298.177          38.100
                  23690650.637    97009255.094 6      2570.020          25.500

  23379009.188                   122857491.923 6     -1978.270          42.800
                  23379019.207    95733151.494 7     -1541.515          28.600

  21882563.484                   114993639.889 7     -1568.266          48.000
                  21882572.730    89605481.912 8     -1222.024          39.600

  23461476.648                   123290914.217 6      1845.476          43.600
                  23461483.281    96070849.681 7      1438.030          29.400

  20074715.664                   105493403.621 7        66.374          49.200
                  20074721.684    82202647.567 9        51.720          43.800

  21942753.055                   115309903.950 7      2241.249          47.200
                  21942760.398    89851939.703 8      1746.426          37.400

  23540476.742                   123706022.748 5     -2275.626          39.700
                  23540483.852    96394338.128 6     -1773.218          24.900

  23850984.117                   125337730.183 5      2747.109          40.500
                  23850989.465    97665824.539 6      2140.605          24.100

  23850793.047                   125336715.484 5     -2957.634          40.800
                  23850803.504    97665010.053 6     -2304.646          25.600

  22033824.508                   115788530.557 7      2671.336          51.000
                  22033831.871    90224867.788 8      2081.556          39.200

  20919816.352                   109934312.195 7     -1653.018          51.300
                  20919825.340    85663188.843 9     -1288.073          45.400

 18  7  1  0  3 45.0000000  0 11G01G08G10G11G14G18G20G22G27G31G32
  23687504.203                   124478682.948 4      3297.207          38.100
                  23687513.633    96996407.470 6      2569.243          25.800

  23380892.336                   122867388.637 6     -1980.026          42.600
                  23380902.398    95740863.222 7     -1542.878          28.900

  21884056.266                   115001484.237 6     -1569.235          46.300
                  21884065.727    89611594.387 8     -1222.786          39.200

  23459722.195                   123281693.312 6      1843.355          43.700
                  23459728.852    96063664.565 7      1436.384          29.700

  20074653.422                   105493079.517 7        63.816          50.200
                  20074659.855    82202395.020 9        49.723          43.400

  21940621.461                   115298703.821 7      2239.271          48.100
                  21940628.836    89843212.333 8      1744.883          36.800

  23542642.625                   123717403.360 5     -2276.414          40.300
                  23542649.832    96403206.129 6     -1773.842          23.800

  23848370.781                   125323994.759 5      2747.097          39.700
                  23848375.852    97655121.615 6      2140.592          24.300

  23853607.883                   125351504.180 5     -2957.758          41.600
                  23853617.938    97676533.710 7     -2304.749          27.000

  22031284.031                   115775179.214 7      2669.592          51.300
                  22031290.977    90214464.156 8      2080.201          39.800

  20921390.180                   109942582.174 7     -1654.596          50.200
                  20921398.770    85669632.976 9     -1289.289          45.500

 18  7  1  0  3 50.0000000  0 11G01G08G10G11G14G18G20G22G27G31G32
  23684367.117                   124462200.236 4      3296.138          37.600
                  23684376.855    96983563.806 6      2568.414          25.500

  23382778.078                   122877294.366 6     -1981.878          42.700
                  23382787.484    95748581.971 7     -1544.316          29.200

  21885549.859                   115009333.553 6     -1570.271          46.300
                  21885559.074    89617710.730 8     -1223.587          39.600

  23457968.672                   123272483.094 6      1841.164          43.200
                  23457976.551    96056487.767 7      1434.669          28.100

  20074594.016                   105492768.364 7        61.184          49.800
                  20074600.980    82202152.562 9        47.671          43.500

  21938492.008                   115287513.789 7      2237.177          47.500
                  21938499.133    89834492.822 8      1743.257          37.600

  23544809.406                   123728788.104 5     -2277.301          39.600
                  23544816.145    96412077.363 6     -1774.531          24.700

  23845756.906                   125310259.601 5      2747.018          39.400
                  23845762.703    97644418.907 6      2140.527          24.200

  23856421.367                   125366293.876 5     -2958.021          41.100
                  23856431.930    97688058.143 7     -2304.952          26.400

  22028745.109                   115761836.724 7      2667.767          51.000
                  22028752.031    90204067.415 8      2078.778          40.100

  20922965.625                   109950860.147 7     -1656.242          50.400
                  20922973.949    85676083.346 9     -1290.580          45.400

 18  7  1  0  3 55.0000000  0 11G01G08G10G11G14G18G20G22G27G31G32
  23681231.227                   124445722.564 4      3295.110          38.500
                  23681241.359    96970724.066 6      2567.616          24.400

  23384664.773                   122887208.869 6     -1983.616          42.300
                  23384674.363    95756307.562 7     -1545.676          29.500

  21887044.359                   115017187.743 6     -1571.216          46.100
                  21887053.758    89623830.878 8     -1224.326          39.600

  23456218.781                   123263283.487 6      1839.076          43.700
                  23456226.113    96049319.241 7      1433.053          28.500

  20074537.680                   105492470.048 7        58.631          49.600
                  20074544.309    82201920.103 9        45.686          43.400

  21936364.586                   115276333.772 6      2235.188          47.000
                  21936371.922    89825781.122 8      1741.710          37.500

  23546976.156                   123740176.816 5     -2278.055          39.500
                  23546983.223    96420951.659 6     -1775.102          25.900

  23843143.781                   125296524.649 5      2746.959          39.400
                  23843148.965    97633716.384 6      2140.467          23.900

  23859235.984                   125381084.419 5     -2958.168          40.900
                  23859246.508    97699583.228 6     -2305.074          25.800

  22026207.961                   115748503.021 7      2666.031          51.600
                  22026214.605    90193677.523 8      2077.425          39.000

  20924542.063                   109959145.976 7     -1657.805          51.400
                  20924550.922    85682539.840 9     -1291.798          45.400

 18  7  1  0  4  0.0000000  0 11G01G08G10G11G14G18G20G22G27G31G32
  23678096.125                   124429249.979 4      3294.145          38.900
                  23678106.281    96957888.280 6      2566.863          25.100

  23386553.719                   122897132.400 6     -1985.390          43.000
                  23386563.000    95764040.184 7     -1547.050          29.200

  21888540.234                   115025046.966 7     -1572.233          47.200
                  21888549.496    89629954.943 8     -1225.117          39.200

  23454470.625                   123254094.658 6      1836.919          43.400
                  23454477.168    96042159.120 7      1431.360          28.900

  20074483.211                   105492184.649 7        56.048          49.100
                  20074489.758    82201697.718 9        43.674          43.700

  21934238.922                   115265163.878 7      2233.195          47.300
                  21934246.434    89817077.307 8      1740.157          37.300

  23549144.125                   123751569.619 5     -2278.854          39.600
                  23549151.738    96429829.155 6     -1775.715          25.600

  23840530.484                   125282789.984 5      2746.910          40.200
                  23840534.754    97623014.062 6      2140.443          24.900

  23862051.086                   125395875.922 5     -2958.377          41.200
                  23862061.199    97711109.076 7     -2305.238          27.600

  22023672.445                   115735178.198 7      2664.262          50.800
                  22023678.918    90183294.552 8      2076.046          39.800

  20926120.516                   109967439.801 7     -1659.396          51.700
                  20926129.148    85689002.557 9     -1293.036          45.300

 18  7  1  0  4  5.0000000  0 11G01G08G10G11G14G18G20G22G27G31G32
  23674962.664                   124412782.433 4      3293.117          37.700
                  23674972.680    96945056.409 6      2566.064          23.900

  23388442.930                   122907064.678 6     -1987.155          42.900
                  23388453.039    95771779.616 7     -1548.429          29.800

  21890036.477                   115032911.029 7     -1573.214          48.900
                  21890046.031    89636082.781 8     -1225.880          39.400

  23452723.633                   123244916.407 6      1834.796          44.300
                  23452730.754    96035007.234 7      1429.721          28.900

  20074431.352                   105491912.047 7        53.487          49.300
                  20074437.969    82201485.296 9        41.677          43.600

  21932115.477                   115254004.011 6      2231.163          46.900
                  21932122.730    89808381.306 8      1738.568          37.400

  23551313.203                   123762966.503 5     -2279.702          40.100
                  23551320.238    96438709.860 7     -1776.399          27.000

  23837916.719                   125269055.470 5      2746.889          40.900
                  23837920.555    97612311.826 6      2140.435          25.000

  23864865.805                   125410668.261 5     -2958.532          40.900
                  23864876.211    97722635.562 6     -2305.345          25.200

  22021138.133                   115721862.163 7      2662.505          50.500
                  22021145.047    90172918.425 8      2074.675          39.800

  20927700.148                   109975741.464 7     -1660.967          52.000
                  20927708.547    85695471.384 9     -1294.257          45.700

 18  7  1  0  4 10.0000000  0 11G01G08G10G11G14G18G20G22G27G31G32
  23671830.164                   124396320.059 4      3292.063          37.100
                  23671840.223    96932228.589 7      2565.233          26.400

  23390334.766                   122917005.896 5     -1988.971          41.600
                  23390344.895    95779526.029 7     -1549.854          29.200

  21891534.219                   115040780.099 7     -1574.241          49.800
                  21891543.391    89642214.519 8     -1226.675          38.900

  23450979.484                   123235748.875 6      1832.633          43.800
                  23450986.277    96027863.719 7      1428.019          28.900

  20074381.836                   105491652.348 7        50.885          47.400
                  20074388.414    82201282.928 9        39.655          43.400

  21929993.219                   115242854.223 6      2229.112          46.300
                  21930001.043    89799693.156 8      1736.970          36.900

  23553483.172                   123774367.442 5     -2280.512          39.400
                  23553489.879    96447593.682 6     -1777.018          24.400

  23835303.156                   125255321.236 5      2746.795          41.700
                  23835306.738    97601609.800 6      2140.363          24.700

  23867681.336                   125425461.481 5     -2958.715          40.600
                  23867691.504    97734162.744 7     -2305.491          27.400

  22018605.750                   115708555.033 7      2660.702          51.100
                  22018613.145    90162549.236 8      2073.279          39.600

  20929281.445                   109984051.082 8     -1662.577          52.500
                  20929289.902    85701946.414 9     -1295.519          45.800

 18  7  1  0  4 15.0000000  0 11G01G08G10G11G14G18G20G22G27G31G32
  23668698.094                   124379862.835 3      3291.030          37.000
                  23668708.242    96919404.785 6      2564.429          24.900

  23392228.148                   122926956.093 6     -1990.747          43.000
                  23392238.348    95787279.419 7     -1551.227          29.400

  21893032.156                   115048654.169 7     -1575.216          49.500
                  21893041.539    89648350.154 8     -1227.436          39.200

  23449237.188                   123226592.131 6      1830.510          43.700
                  23449243.473    96020728.586 7      1426.378          29.600

  20074334.977                   105491405.572 7        48.318          47.500
                  20074341.453    82201090.633 9        37.651          43.600

  21927873.781                   115231714.620 6      2227.119          47.000
                  21927881.328    89791012.953 8      1735.413          37.700

  23555653.234                   123785772.533 5     -2281.334          40.600
                  23555659.996    96456480.772 7     -1777.672          26.200

  23832689.328                   125241587.329 5      2746.773          40.500
                  23832693.184    97590908.046 6      2140.342          23.500

  23870495.984                   125440255.658 5     -2958.924          40.900
                  23870506.703    97745690.683 7     -2305.665          26.100

  22016075.383                   115695256.846 7      2658.925          50.900
                  22016082.402    90152187.024 8      2071.888          39.800

  20930864.188                   109992368.644 8     -1664.154          52.100
                  20930872.664    85708427.627 9     -1296.741          45.500

 18  7  1  0  4 20.0000000  0 11G01G08G10G11G14G18G20G22G27G31G32
  23665566.695                   124363410.713 4      3289.981          37.700
                  23665577.605    96906584.959 6      2563.613          25.300

  23394123.875                   122936915.072 6     -1992.526          43.200
                  23394133.430    95795039.668 7     -1552.621          29.500

  21894531.734                   115056533.142 7     -1576.214          49.100
                  21894540.801    89654489.607 8     -1228.214          39.000

  23447496.500                   123217446.045 6      1828.328          43.400
                  23447502.438    96013601.770 7      1424.675          29.100

  20074290.406                   105491171.596 7        45.733          48.700
                  20074296.797    82200908.314 9        35.635          43.500

  21925755.938                   115220585.143 6      2225.033          47.000
                  21925763.375    89782340.621 8      1733.795          37.100

  23557824.852                   123797181.618 5     -2282.168          40.000
                  23557831.609    96465370.957 7     -1778.307          26.900

  23830075.055                   125227853.636 5      2746.685          39.900
                  23830080.238    97580206.463 6      2140.274          25.000

  23873312.172                   125455050.626 5     -2959.090          40.600
                  23873322.410    97757219.213 7     -2305.778          26.700

  22013546.719                   115681967.534 7      2657.103          50.300
                  22013553.598    90141831.723 8      2070.469          39.900

  20932448.547                   110000694.090 8     -1665.747          52.200
                  20932457.371    85714914.988 9     -1297.982          45.500

 18  7  1  0  4 25.0000000  0 11G01G08G10G11G14G18G20G22G27G31G32
  23662437.883                   124346963.675 4      3289.001          37.500
                  23662448.348    96893769.084 6      2562.851          24.800

  23396020.359                   122946882.839 6     -1994.251          43.800
                  23396030.113    95802806.764 7     -1553.959          30.400

  21896031.750                   115064417.043 7     -1577.149          49.100
                  21896041.363    89660632.906 8     -1228.946          39.400

  23445757.938                   123208310.665 6      1826.238          44.000
                  23445764.766    96006483.282 7      1423.052          29.700

  20074248.023                   105490950.471 7        43.226          48.600
                  20074254.734    82200736.008 9        33.681          43.600

  21923639.891                   115209465.770 6      2223.095          46.500
                  21923647.281    89773676.184 8      1732.278          36.800

  23559995.469                   123808594.771 5     -2282.946          40.000
                  23560003.285    96474264.316 6     -1778.916          25.600

  23827462.406                   125214120.175 5      2746.692          40.800
                  23827466.988    97569505.090 6      2140.292          25.200

  23876127.031                   125469846.405 5     -2959.185          41.600
                  23876137.965    97768748.382 7     -2305.858          27.300

  22011019.266                   115668687.083 7      2655.397          51.000
                  22011026.535    90131483.328 8      2069.134          39.800

  20934034.242                   110009027.388 8     -1667.272          52.500
                  20934042.910    85721408.463 9     -1299.168          45.600

 18  7  1  0  4 30.0000000  0 11G01G08G10G11G14G18G20G22G27G31G32
  23659309.656                   124330521.882 4      3287.954          38.700
                  23659319.617    96880957.305 6      2562.022          25.900

  23397918.516                   122956859.477 6     -1996.074          43.400
                  23397928.520    95810580.766 7     -1555.382          29.700

  21897533.156                   115072305.992 7     -1578.211          49.700
                  21897542.813    89666780.137 8     -1229.778          39.500

  23444021.172                   123199186.084 6      1824.028          44.300
                  23444028.137    95999373.226 7      1421.314          29.100

  20074208.633                   105490742.264 7        40.585          49.300
                  20074215.102    82200573.776 9        31.619          43.600

  21921525.828                   115198356.617 6      2220.987          46.600
                  21921533.586    89765019.699 8      1730.644          37.100

  23562168.188                   123820012.073 5     -2283.822          40.000
                  23562175.918    96483160.919 6     -1779.610          25.400

  23824848.906                   125200387.099 5      2746.543          40.500
                  23824853.707    97558804.007 6      2140.169          23.400

  23878942.805                   125484643.073 5     -2959.431          40.500
                  23878953.570    97780278.257 7     -2306.047          27.400

  22008494.117                   115655415.630 7      2653.552          50.800
                  22008501.012    90121141.937 8      2067.703          39.400

  20935621.289                   110017368.642 7     -1668.929          51.600
                  20935630.496    85727908.147 9     -1300.470          45.200

 18  7  1  0  4 35.0000000  0 11G01G08G10G11G14G18G20G22G27G31G32
  23656180.570                   124314085.278 4      3286.880          38.600
                  23656192.395    96868149.564 6      2561.204          25.700

  23399819.047                   122966844.905 6     -1997.803          43.900
                  23399828.730    95818361.607 7     -1556.730          29.900

  21899035.125                   115080199.850 7     -1579.184          49.600
                  21899044.645    89672931.188 8     -1230.539          38.900

  23442287.023                   123190072.202 6      1821.889          44.800
                  23442293.578    95992271.497 7      1419.654          28.100

  20074171.414                   105490546.889 7        38.015          48.900
                  20074178.031    82200421.527 9        29.623          43.600

  21919413.859                   115187257.584 6      2218.955          47.000
                  21919421.508    89756371.100 8      1729.059          36.900

  23564342.273                   123831433.422 5     -2284.607          41.000
                  23564349.664    96492060.675 6     -1780.221          26.000

  23822236.680                   125186654.210 5      2746.547          40.600
                  23822241.141    97548103.058 6      2140.173          24.400

  23881759.609                   125499440.561 6     -2959.581          42.100
                  23881768.906    97791808.769 7     -2306.169          26.200

  22005969.828                   115642153.064 7      2651.775          51.100
                  22005976.906    90110807.474 8      2066.316          39.900

  20937210.016                   110025717.713 7     -1670.462          51.900
                  20937219.313    85734413.916 9     -1301.662          45.200

 18  7  1  0  4 40.0000000  0 11G01G08G10G11G14G18G20G22G27G31G32
  23653055.016                   124297653.797 4      3285.845          38.100
                  23653065.434    96855345.808 7      2560.408          26.900

  23401720.828                   122976839.165 6     -1999.571          43.900
                  23401730.520    95826149.343 7     -1558.113          29.800

  21900538.039                   115088098.642 7     -1580.145          49.000
                  21900547.551    89679086.088 8     -1231.283          39.300

  23440555.008                   123180969.057 6      1819.756          44.000
                  23440561.617    95985178.141 7      1417.997          29.600

  20074136.852                   105490364.321 7        35.488          49.100
                  20074143.398    82200279.266 9        27.653          44.100

  21917303.523                   115176168.640 6      2216.964          46.900
                  21917311.215    89747730.362 8      1727.501          37.200

  23566516.313                   123842858.800 5     -2285.395          40.500
                  23566523.406    96500963.549 7     -1780.819          26.200

  23819624.047                   125172921.625 5      2746.498          41.100
                  23819627.555    97537402.349 6      2140.120          23.200

  23884574.703                   125514238.799 5     -2959.733          40.800
                  23884585.418    97803339.851 7     -2306.283          26.700

  22003448.039                   115628899.427 7      2650.000          50.000
                  22003454.762    90100479.975 8      2064.929          38.900

  20938800.648                   110034074.629 7     -1672.021          52.000
                  20938809.059    85740925.799 9     -1302.878          45.300

 18  7  1  0  4 45.0000000  0 11G01G08G10G11G14G18G20G22G27G31G32
  23649928.328                   124281227.469 4      3284.860          37.800
                  23649939.164    96842546.089 6      2559.630          24.300

  23403624.133                   122986842.319 6     -2001.350          44.300
                  23403633.727    95833944.013 7     -1559.501          28.800

  21902042.578                   115096002.446 7     -1581.185          49.400
                  21902051.930    89685244.889 8     -1232.092          39.300

  23438824.695                   123171876.676 6      1817.597          44.500
                  23438831.281    95978093.169 7      1416.304          29.600

  20074104.617                   105490194.617 7        32.909          49.100
                  20074110.941    82200147.035 9        25.640          43.600

  21915195.398                   115165089.966 6      2214.898          46.700
                  21915203.148    89739097.641 8      1725.890          37.200

  23568691.375                   123854288.297 5     -2286.234          40.400
                  23568698.125    96509869.649 7     -1781.477          26.100

  23817010.188                   125159189.344 5      2746.413          39.200
                  23817014.063    97526701.837 6      2140.083          23.900

  23887390.664                   125529037.797 5     -2959.861          41.000
                  23887400.680    97814871.519 7     -2306.375          26.500

  22000927.672                   115615654.742 7      2648.201          49.500
                  22000934.340    90090159.445 8      2063.533          39.500

  20940392.188                   110042439.411 7     -1673.609          52.000
                  20940401.055    85747443.809 9     -1304.111          45.400

 18  7  1  0  4 50.0000000  0 11G01G08G10G11G14G18G20G22G27G31G32
  23646803.438                   124264806.390 4      3283.786          38.400
                  23646814.465    96829750.436 6      2558.808          24.400

  23405529.742                   122996854.143 6     -2003.072          44.100
                  23405539.145    95841745.429 7     -1560.835          30.400

  21903547.516                   115103911.150 7     -1582.154          49.100
                  21903556.773    89691407.511 8     -1232.844          38.600

  23437096.633                   123162795.009 6      1815.455          43.300
                  23437103.461    95971016.554 7      1414.646          28.500

  20074074.680                   105490037.697 7        30.337          49.200
                  20074081.230    82200024.750 9        23.643          43.900

  21913089.273                   115154021.452 6      2212.855          47.000
                  21913097.043    89730472.817 8      1724.308          37.700

  23570867.164                   123865721.855 5     -2287.070          40.300
                  23570874.184    96518778.910 6     -1782.124          25.800

  23814396.016                   125145457.339 4      2746.357          38.700
                  23814400.387    97516001.568 6      2140.036          22.600

  23890207.180                   125543837.597 5     -2960.004          40.600
                  23890217.484    97826403.829 7     -2306.494          26.900

  21998408.883                   115602419.001 7      2646.420          50.200
                  21998415.867    90079845.884 8      2062.147          40.100

  20941985.641                   110050811.990 8     -1675.153          52.100
                  20941994.059    85753967.898 9     -1305.317          45.100

 18  7  1  0  4 55.0000000  0 11G01G08G10G11G14G18G20G22G27G31G32
  23643679.570                   124248390.542 4      3282.761          37.900
                  23643690.563    96816958.885 6      2557.986          25.400

  23407435.625                   123006874.807 6     -2004.839          43.900
                  23407445.602    95849553.729 7     -1562.208          28.300

  21905053.141                   115111824.858 7     -1583.138          48.800
                  21905062.574    89697574.035 8     -1233.614          39.300

  23435371.055                   123153724.157 6      1813.319          44.300
                  23435376.836    95963948.359 7      1412.980          28.900

  20074047.289                   105489893.635 7        27.796          48.700
                  20074054.113    82199912.501 9        21.660          43.600

  21910984.461                   115142963.137 6      2210.845          46.900
                  21910992.223    89721855.941 8      1722.738          37.100

  23573043.555                   123877159.477 5     -2287.857          40.500
                  23573050.535    96527691.345 7     -1782.756          26.500

  23811782.852                   125131725.610 4      2746.334          38.800
                  23811786.859    97505301.519 6      2139.990          22.900

  23893023.891                   125558638.142 5     -2960.164          40.700
                  23893033.461    97837936.717 7     -2306.618          26.600

  21995891.773                   115589192.296 7      2644.626          50.200
                  21995898.785    90069539.370 8      2060.747          39.600

  20943580.227                   110059192.444 7     -1676.703          51.700
                  20943588.926    85760498.117 9     -1306.517          45.800

 18  7  1  0  5  0.0000000  0 11G01G08G10G11G14G18G20G22G27G31G32
  23640557.352                   124231979.941 4      3281.634          38.000
                  23640567.863    96804171.411 7      2557.121          26.900

  23409344.359                   123016904.135 6     -2006.595          44.100
                  23409354.125    95857368.796 7     -1563.586          29.200

  21906560.031                   115119743.551 7     -1584.181          49.100
                  21906569.398    89703744.437 8     -1234.423          39.400

  23433646.164                   123144664.089 6      1811.109          44.100
                  23433653.164    95956888.567 7      1411.250          29.100

  20074022.188                   105489762.437 7        25.176          48.300
                  20074028.914    82199810.267 9        19.614          44.000

  21908882.336                   115131915.020 6      2208.753          46.000
                  21908890.230    89713247.025 8      1721.108          36.800

  23575221.125                   123888601.176 5     -2288.711          40.400
                  23575228.238    96536606.938 6     -1783.401          25.700

  23809170.063                   125117994.183 5      2746.242          39.500
                  23809174.438    97494601.719 6      2139.911          24.300

  23895840.406                   125573439.466 5     -2960.382          40.900
                  23895850.602    97849470.214 7     -2306.787          26.900

  21993376.320                   115575974.591 7      2642.784          50.300
                  21993383.750    90059239.867 8      2059.310          39.700

  20945176.469                   110067580.742 8     -1678.318          52.100
                  20945185.270    85767034.457 9     -1307.782          45.300

 18  7  1  0  5  5.0000000  0 11G01G08G10G11G14G18G20G22G27G31G32
  23637435.648                   124215574.568 5      3280.642          39.100
                  23637445.355    96791387.995 6      2556.353          25.300

  23411254.602                   123026942.204 6     -2008.319          44.300
                  23411264.664    95865190.659 7     -1564.921          29.600

  21908067.930                   115127667.191 7     -1585.123          48.600
                  21908077.656    89709918.699 8     -1235.155          39.000

  23431924.430                   123135614.804 6      1808.976          44.700
                  23431931.121    95949837.184 7      1409.574          29.600

  20073999.820                   105489644.066 7        22.636          47.900
                  20074006.039    82199718.025 9        17.640          43.900

  21906782.195                   115120877.182 6      2206.728          46.800
                  21906789.785    89704646.116 8      1719.526          37.400

  23577398.477                   123900046.927 5     -2289.488          40.800
                  23577405.668    96545525.697 6     -1784.009          25.000

  23806557.359                   125104263.024 5      2746.192          40.300
                  23806562.168    97483902.124 6      2139.884          25.000

  23898656.883                   125588241.465 5     -2960.465          41.100
                  23898666.953    97861004.242 7     -2306.860          28.100

  21990863.141                   115562765.875 7      2641.002          50.900
                  21990870.223    90048947.365 8      2057.928          39.600

  20946774.266                   110075976.843 8     -1679.865          52.600
                  20946782.883    85773576.868 9     -1308.980          45.400

 18  7  1  0  5 10.0000000  0 11G01G08G10G11G14G18G20G22G27G31G32
  23634314.313                   124199174.437 5      3279.587          39.400
                  23634324.500    96778608.682 7      2555.521          26.500

  23413166.977                   123036989.038 6     -2010.072          43.200
                  23413176.539    95873019.364 7     -1566.290          30.600

  21909576.820                   115135595.780 7     -1586.117          48.800
                  21909586.363    89716096.818 8     -1235.935          39.000

  23430204.477                   123126576.273 6      1806.843          43.600
                  23430210.801    95942794.162 7      1407.930          29.600

  20073979.711                   105489538.520 7        20.092          48.800
                  20073986.254    82199635.781 9        15.660          43.500

  21904683.352                   115109849.598 6      2204.709          46.800
                  21904691.117    89696053.187 8      1717.954          37.400

  23579577.797                   123911496.751 5     -2290.306          41.100
                  23579584.949    96554447.633 6     -1784.640          24.600

  23803944.938                   125090532.130 5      2746.171          40.400
                  23803949.656    97473202.736 6      2139.871          25.800

  23901473.445                   125603044.171 5     -2960.609          40.600
                  23901483.820    97872538.811 7     -2306.967          27.100

  21988351.188                   115549566.148 7      2639.228          50.300
                  21988357.773    90038661.873 8      2056.535          39.900

  20948373.375                   110084380.727 8     -1681.399          52.800
                  20948381.961    85780125.351 9     -1310.179          45.400

 18  7  1  0  5 15.0000000  0 11G01G08G10G11G14G18G20G22G27G31G32
  23631194.742                   124182779.619 4      3278.536          38.800
                  23631204.348    96765833.492 6      2554.705          25.300

  23415080.203                   123047044.599 6     -2011.820          42.800
                  23415089.887    95880854.868 7     -1567.650          30.600

  21911086.367                   115143529.424 7     -1587.135          49.800
                  21911095.645    89722278.872 8     -1236.730          39.300

  23428487.164                   123117548.585 6      1804.646          44.400
                  23428493.043    95935759.602 7      1406.222          28.900

  20073962.148                   105489445.830 7        17.503          48.900
                  20073968.371    82199563.559 9        13.640          43.800

  21902586.859                   115098832.194 6      2202.655          46.600
                  21902594.652    89687468.204 8      1716.356          37.400

  23581757.547                   123922950.685 5     -2291.123          40.900
                  23581763.695    96563372.788 6     -1785.292          25.100

  23801332.555                   125076801.622 5      2746.069          41.300
                  23801337.742    97462503.651 7      2139.781          27.600

  23904291.016                   125617847.628 5     -2960.736          41.100
                  23904301.184    97884073.952 6     -2307.056          25.600

  21985841.250                   115536375.492 7      2637.391          50.600
                  21985848.141    90028383.441 8      2055.109          39.500

  20949974.492                   110092792.488 8     -1682.980          52.200
                  20949982.883    85786679.968 9     -1311.409          45.600

 18  7  1  0  5 20.0000000  0 11G01G08G10G11G14G18G20G22G27G31G32
  23628076.422                   124166390.077 5      3277.481          39.200
                  23628086.082    96753062.419 6      2553.889          25.700

  23416995.672                   123057108.854 6     -2013.561          43.500
                  23417005.336    95888697.148 7     -1569.010          30.100

  21912596.789                   115151468.010 7     -1588.129          48.900
                  21912606.789    89728464.782 8     -1237.503          39.000

  23426771.172                   123108531.695 6      1802.511          44.300
                  23426777.098    95928733.451 7      1404.553          28.600

  20073946.867                   105489365.908 7        14.947          49.600
                  20073953.660    82199501.285 9        11.641          44.000

  21900492.250                   115087825.079 6      2200.593          46.500
                  21900500.418    89678891.240 8      1714.749          37.100

  23583937.508                   123934408.691 5     -2291.927          40.500
                  23583944.781    96572301.098 6     -1785.930          25.600

  23798719.383                   125063071.414 5      2746.012          41.700
                  23798724.805    97451804.774 7      2139.758          26.300

  23907107.820                   125632651.752 5     -2960.893          41.000
                  23907118.078    97895609.635 7     -2307.207          26.900

  21983332.867                   115523193.891 7      2635.590          50.300
                  21983339.492    90018112.069 8      2053.708          39.200

  20951576.336                   110101212.003 8     -1684.531          52.100
                  20951585.168    85793240.635 9     -1312.619          45.000

 18  7  1  0  5 25.0000000  0 11G01G08G10G11G14G18G20G22G27G31G32
  23624957.781                   124150005.777 4      3276.452          38.900
                  23624968.324    96740295.441 7      2553.081          26.900

  23418912.242                   123067181.734 6     -2015.228          42.300
                  23418922.344    95896546.139 7     -1570.302          29.700

  21914109.102                   115159411.489 7     -1589.061          49.100
                  21914118.020    89734654.501 8     -1238.225          39.600

  23425056.508                   123099525.540 6      1800.386          43.900
                  23425063.410    95921715.672 7      1402.899          29.300

  20073934.031                   105489298.710 7        12.441          49.500
                  20073940.426    82199448.918 9         9.695          43.700

  21898399.664                   115076828.160 7      2198.619          47.200
                  21898407.691    89670322.199 8      1713.215          36.800

  23586118.828                   123945870.659 5     -2292.694          40.600
                  23586125.453    96581232.503 6     -1786.530          26.000

  23796106.430                   125049341.379 5      2746.019          40.200
                  23796112.555    97441106.060 6      2139.751          25.600

  23909925.555                   125647456.495 5     -2960.990          39.800
                  23909935.238    97907145.782 7     -2307.252          26.100

  21980825.984                   115510021.277 7      2633.829          50.700
                  21980832.895    90007847.703 8      2052.333          39.400

  20953180.313                   110109639.221 8     -1686.030          52.500
                  20953188.539    85799807.297 9     -1313.790          44.900

 18  7  1  0  5 30.0000000  0 11G01G08G10G11G14G18G20G22G27G31G32
  23621840.555                   124133626.806 4      3275.380          38.600
                  23621851.719    96727532.617 7      2552.230          26.500

  23420830.641                   123077263.387 6     -2017.012          42.500
                  23420840.965    95904401.976 7     -1571.703          29.700

  21915621.484                   115167360.031 7     -1590.096          48.900
                  21915630.523    89740848.169 8     -1239.035          39.900

  23423345.305                   123090530.277 6      1798.184          44.700
                  23423351.656    95914706.383 7      1401.189          29.200

  20073923.602                   105489244.373 7         9.854          49.800
                  20073930.211    82199406.579 9         7.675          43.700

  21896309.070                   115065841.605 7      2196.473          47.200
                  21896316.930    89661761.257 8      1711.525          36.900

  23588301.305                   123957336.844 5     -2293.577          39.800
                  23588307.746    96590167.172 6     -1787.212          24.700

  23793493.781                   125035611.777 5      2745.900          40.500
                  23793498.742    97430407.671 6      2139.654          23.300

  23912742.484                   125662261.943 5     -2961.131          40.700
                  23912752.730    97918682.482 7     -2307.367          26.800

  21978321.359                   115496857.817 7      2631.965          49.900
                  21978327.910    89997590.470 8      2050.876          39.500

  20954785.125                   110118074.306 8     -1687.649          52.700
                  20954793.711    85806380.091 9     -1315.049          45.000

 18  7  1  0  5 35.0000000  0 11G01G08G10G11G14G18G20G22G27G31G32
  23618725.406                   124117253.167 5      3274.300          39.700
                  23618736.063    96714773.944 6      2551.392          24.300

  23422750.922                   123087353.571 6     -2018.748          43.100
                  23422760.938    95912264.463 7     -1573.064          30.200

  21917135.203                   115175313.526 7     -1591.102          49.100
                  21917144.223    89747045.695 8     -1239.818          38.700

  23421635.250                   123081545.783 6      1796.027          44.600
                  23421642.152    95907705.477 7      1399.497          29.500

  20073916.078                   105489202.740 7         7.305          50.000
                  20073922.277    82199374.139 9         5.692          43.800

  21894220.641                   115054865.345 6      2194.428          46.800
                  21894227.918    89653208.332 8      1709.942          36.900

  23590483.367                   123968807.061 5     -2294.412          39.900
                  23590489.945    96599105.002 6     -1787.858          24.400

  23790880.805                   125021882.396 5      2745.855          39.200
                  23790885.188    97419709.445 6      2139.639          23.000

  23915559.875                   125677068.032 5     -2961.286          39.900
                  23915570.270    97930219.675 7     -2307.490          26.900

  21975817.883                   115483703.414 7      2630.138          50.800
                  21975824.813    89987340.285 8      2049.458          39.500

  20956391.641                   110126517.106 8     -1689.200          52.700
                  20956400.227    85812958.896 9     -1316.256          44.900

 18  7  1  0  5 40.0000000  0 11G01G08G10G11G14G18G20G22G27G31G32
  23615610.633                   124100884.860 4      3273.248          38.800
                  23615621.469    96702019.417 6      2550.593          25.700

  23424672.844                   123097452.455 6     -2020.450          42.600
                  23424682.586    95920133.714 7     -1574.384          29.600

  21918649.188                   115183272.013 7     -1592.070          48.200
                  21918658.578    89753247.110 8     -1240.576          39.200

  23419927.453                   123072572.092 6      1793.908          43.900
                  23419934.707    95900712.974 7      1397.853          29.700

  20073910.406                   105489173.907 7         4.767          49.900
                  20073916.637    82199351.667 9         3.713          43.600

  21892133.555                   115043899.406 6      2192.391          47.000
                  21892141.266    89644663.440 8      1708.359          36.600

  23592666.656                   123980281.323 5     -2295.150          39.400
                  23592673.609    96608045.985 6     -1788.440          23.300

  23788268.469                   125008153.328 5      2745.833          39.900
                  23788271.563    97409011.471 6      2139.619          24.000

  23918377.992                   125691874.723 5     -2961.370          40.100
                  23918387.418    97941757.371 7     -2307.570          26.700

  21973316.758                   115470558.099 7      2628.373          49.300
                  21973323.316    89977097.191 8      2048.082          40.300

  20957999.875                   110134967.654 8     -1690.688          53.000
                  20958008.684    85819543.742 9     -1317.425          45.300

 18  7  1  0  5 45.0000000  0 11G01G08G10G11G14G18G20G22G27G31G32
  23612496.625                   124084521.993 5      3272.166          39.100
                  23612507.500    96689269.130 6      2549.730          24.000

  23426596.086                   123107559.958 6     -2022.169          42.800
                  23426605.871    95928009.689 7     -1575.711          29.800

  21920164.406                   115191235.522 7     -1593.073          48.900
                  21920174.180    89759452.437 8     -1241.354          39.700

  23418221.656                   123063609.332 6      1791.742          44.200
                  23418228.152    95893729.011 7      1396.168          29.200

  20073907.164                   105489157.891 7         2.212          49.600
                  20073913.516    82199339.187 9         1.719          44.100

  21890049.000                   115032943.812 6      2190.333          45.700
                  21890056.383    89636126.612 8      1706.752          37.300

  23594851.398                   123991759.717 5     -2295.978          40.000
                  23594857.715    96616990.177 6     -1789.059          24.700

  23785657.055                   124994424.650 5      2745.719          41.200
                  23785659.762    97398313.801 7      2139.532          26.500

  23921195.148                   125706682.103 5     -2961.502          40.200
                  23921205.301    97953295.581 7     -2307.668          26.400

  21970816.500                   115457421.949 7      2626.527          50.300
                  21970823.406    89966861.236 8      2046.639          39.500

  20959609.430                   110143425.997 7     -1692.246          51.700
                  20959617.902    85826134.653 9     -1318.629          45.000

 18  7  1  0  5 50.0000000  0 11G01G08G10G11G14G18G20G22G27G31G32
  23609384.188                   124068164.358 4      3271.069          38.400
                  23609394.801    96676522.923 6      2548.889          25.900

  23428520.859                   123117676.170 6     -2023.927          42.400
                  23428530.945    95935892.452 7     -1577.092          29.700

  21921680.922                   115199203.964 7     -1594.090          49.100
                  21921690.516    89765661.607 8     -1242.148          39.300

  23416518.633                   123054657.364 6      1789.537          43.600
                  23416525.008    95886753.461 7      1394.438          29.200

  20073906.742                   105489154.605 7        -0.353          49.500
                  20073913.328    82199336.627 9        -0.279          43.800

  21887966.313                   115021998.430 6      2188.240          46.900
                  21887973.648    89627597.753 8      1705.119          37.200

  23597036.445                   124003242.169 5     -2296.831          39.400
                  23597043.313    96625937.548 6     -1789.734          25.200

  23783044.313                   124980696.242 5      2745.668          42.000
                  23783047.824    97387616.323 6      2139.475          25.500

  23924013.219                   125721489.989 5     -2961.639          40.000
                  23924023.082    97964834.188 7     -2307.780          26.600

  21968318.938                   115444294.886 7      2624.671          50.400
                  21968325.719    89956632.353 8      2045.201          39.900

  20961220.453                   110151892.023 8     -1693.810          52.300
                  20961229.141    85832731.563 9     -1319.859          45.200

 18  7  1  0  5 55.0000000  0 11G01G08G10G11G14G18G20G22G27G31G32
  23606272.148                   124051812.061 4      3270.013          37.600
                  23606282.316    96663780.881 6      2548.064          25.600

  23430447.680                   123127800.856 6     -2025.636          43.000
                  23430457.563    95943781.806 7     -1578.416          30.000

  21923198.359                   115207177.342 7     -1595.081          49.400
                  21923208.156    89771874.628 8     -1242.917          39.400

  23414817.594                   123045716.202 6      1787.371          44.500
                  23414823.789    95879786.330 7      1392.748          28.600

  20073908.438                   105489164.044 7        -2.909          49.900
                  20073915.129    82199343.986 9        -2.271          43.400

  21885885.227                   115011063.384 6      2186.173          46.500
                  21885893.027    89619076.930 8      1703.512          37.500

  23599221.586                   124014728.665 5     -2297.612          39.500
                  23599228.965    96634888.041 6     -1790.354          22.600

  23780431.117                   124966968.101 5      2745.599          41.300
                  23780436.590    97376919.062 7      2139.429          26.300

  23926831.828                   125736298.418 5     -2961.715          39.200
                  23926840.930    97976373.220 7     -2307.831          26.900

  21965822.656                   115431176.929 7      2622.867          51.200
                  21965829.387    89946410.574 8      2043.798          39.700

  20962833.078                   110160365.741 8     -1695.368          52.100
                  20962841.730    85839334.453 9     -1321.068          45.100

 18  7  1  0  6  0.0000000  0 11G01G08G10G11G14G18G20G22G27G31G32
  23603161.430                   124035465.254 4      3268.940          37.900
                  23603171.348    96651043.113 6      2547.219          26.000

  23432376.031                   123137934.267 6     -2027.355          42.700
                  23432386.059    95951677.975 7     -1579.762          29.600

  21924716.391                   115215155.775 7     -1596.082          49.300
                  21924725.754    89778091.586 8     -1243.702          39.200

  23413118.227                   123036786.001 6      1785.155          44.400
                  23413124.281    95872827.734 7      1391.025          29.100

  20073912.656                   105489186.324 7        -5.472          49.600
                  20073919.262    82199361.341 9        -4.263          43.900

  21883806.203                   115000138.687 6      2184.117          46.400
                  21883814.105    89610564.177 8      1701.911          37.200

  23601408.367                   124026219.312 5     -2298.445          39.500
                  23601415.504    96643841.786 6     -1790.995          25.600

  23777818.258                   124953240.346 5      2745.514          40.200
                  23777824.543    97366222.124 7      2139.352          27.800

  23929648.477                   125751107.534 5     -2961.860          39.700
                  23929658.992    97987912.777 6     -2307.931          25.600

  21963327.672                   115418068.182 7      2621.015          50.800
                  21963335.129    89936195.974 8      2042.349          39.400

  20964446.930                   110168847.247 7     -1696.924          51.900
                  20964455.840    85845943.419 9     -1322.278          45.200

 18  7  1  0  6  5.0000000  0 11G01G08G10G11G14G18G20G22G27G31G32
  23600051.883                   124019123.785 4      3267.839          38.300
                  23600061.609    96638309.496 6      2546.376          25.300

  23434305.773                   123148076.193 6     -2029.101          43.000
                  23434315.688    95959580.765 7     -1581.109          29.000

  21926235.695                   115223139.184 7     -1597.093          48.600
                  21926244.949    89784312.414 8     -1244.483          38.800

  23411420.758                   123027866.597 6      1782.995          44.900
                  23411426.824    95865877.539 7      1389.355          28.900

  20073919.477                   105489221.322 7        -8.047          50.300
                  20073926.293    82199388.613 9        -6.270          44.000

  21881729.852                   114989224.342 6      2182.009          46.600
                  21881737.184    89602059.496 8      1700.265          37.100

  23603595.195                   124037714.038 5     -2299.295          39.600
                  23603602.688    96652798.729 6     -1791.669          25.400

  23775206.000                   124939512.864 5      2745.478          39.500
                  23775212.266    97355525.397 6      2139.343          25.800

  23932467.313                   125765917.135 5     -2961.974          39.400
                  23932477.223    97999452.719 7     -2308.032          26.600

  21960835.180                   115404968.579 7      2619.174          50.000
                  21960842.129    89925988.491 8      2040.922          39.600

  20966062.516                   110177336.421 8     -1698.459          52.700
                  20966070.996    85852558.361 9     -1323.475          45.000

 18  7  1  0  6 10.0000000  0 11G01G08G10G11G14G18G20G22G27G31G32
  23596943.500                   124002787.650 4      3266.776          38.700
                  23596953.383    96625580.053 7      2545.538          26.400

  23436237.570                   123158226.630 6     -2030.771          42.900
                  23436247.180    95967490.184 7     -1582.409          29.600

  21927755.977                   115231127.501 7     -1598.056          49.400
                  21927765.359    89790537.075 8     -1245.232          39.300

  23409725.953                   123018958.040 6      1780.823          44.600
                  23409731.574    95858935.803 7      1387.657          29.900

  20073928.477                   105489268.993 7       -10.565          50.200
                  20073934.984    82199425.759 9        -8.231          43.800

  21879654.539                   114978320.283 7      2179.986          47.100
                  21879662.117    89593562.826 8      1698.692          37.400

  23605784.148                   124049212.762 4     -2300.064          38.900
                  23605791.316    96661758.746 6     -1792.268          24.900

  23772594.031                   124925785.600 4      2745.417          39.000
                  23772599.871    97344828.861 6      2139.283          25.400

  23935285.813                   125780727.209 5     -2962.049          39.200
                  23935296.070    98010993.024 7     -2308.099          26.400

  21958344.047                   115391878.102 7      2617.352          50.500
                  21958350.563    89915788.124 8      2039.493          38.800

  20967679.359                   110185833.237 8     -1699.983          53.000
                  20967687.832    85859179.258 9     -1324.659          44.900

 18  7  1  0  6 15.0000000  0 11G01G08G10G11G14G18G20G22G27G31G32
  23593835.961                   123986456.981 5      3265.739          39.200
                  23593845.945    96612854.857 7      2544.730          26.900

  23438170.555                   123168385.676 6     -2032.472          42.700
                  23438180.586    95975406.323 7     -1583.744          29.600

  21929276.656                   115239120.851 7     -1599.045          47.900
                  21929286.371    89796765.658 8     -1246.007          39.700

  23408032.594                   123010060.376 6      1778.702          44.000
                  23408038.746    95852002.565 7      1386.003          29.800

  20073939.820                   105489329.475 7       -13.090          49.300
                  20073946.313    82199472.888 9       -10.199          44.200

  21877581.109                   114967426.750 6      2177.906          47.000
                  21877589.137    89585074.352 8      1697.080          37.800

  23607972.414                   124060715.569 5     -2300.844          39.300
                  23607979.734    96670721.973 6     -1792.875          24.700

  23769982.727                   124912058.751 5      2745.371          40.300
                  23769986.801    97334132.620 6      2139.244          25.600

  23938103.563                   125795537.872 4     -2962.133          38.700
                  23938114.063    98022533.796 7     -2308.150          26.500

  21955854.984                   115378796.815 7      2615.554          50.800
                  21955861.609    89905594.918 8      2038.096          39.900

  20969297.648                   110194337.785 8     -1701.503          52.500
                  20969306.246    85865806.184 9     -1325.847          45.100

 18  7  1  0  6 20.0000000  0 11G01G08G10G11G14G18G20G22G27G31G32
  23590729.766                   123970131.740 4      3264.603          38.600
                  23590739.813    96600133.905 7      2543.847          26.900

  23440105.469                   123178553.101 6     -2034.173          42.800
                  23440115.824    95983328.976 7     -1585.052          29.600

  21930799.023                   115247119.203 7     -1600.083          48.300
                  21930808.688    89802998.134 8     -1246.816          38.800

  23406341.617                   123001173.614 6      1776.455          44.300
                  23406347.691    95845077.818 7      1384.245          29.100

  20073954.000                   105489402.707 7       -15.694          49.800
                  20073960.449    82199529.952 9       -12.223          43.600

  21875510.234                   114956543.591 7      2175.778          47.400
                  21875518.195    89576593.978 8      1695.415          37.900

  23610162.102                   124072222.482 5     -2301.728          39.300
                  23610169.645    96679688.389 6     -1793.562          24.800

  23767370.711                   124898332.275 5      2745.241          40.400
                  23767374.340    97323436.648 7      2139.142          26.400

  23940922.344                   125810349.039 4     -2962.323          38.800
                  23940932.941    98034074.948 7     -2308.296          26.500

  21953367.008                   115365724.727 7      2613.657          50.300
                  21953373.855    89895408.875 8      2036.617          39.600

  20970917.406                   110202849.992 8     -1703.065          53.300
                  20970926.082    85872439.071 9     -1327.065          45.600

 18  7  1  0  6 25.0000000  0 11G01G08G10G11G14G18G20G22G27G31G32
  23587623.906                   123953811.938 4      3263.483          38.900
                  23587633.719    96587417.171 6      2542.976          26.000

  23442041.023                   123188729.091 6     -2035.905          42.600
                  23442052.168    95991258.309 7     -1586.419          29.300

  21932322.188                   115255122.546 7     -1601.107          49.000
                  21932331.473    89809234.502 8     -1247.612          38.400

  23404652.516                   122992297.762 6      1774.267          44.100
                  23404658.602    95838161.572 7      1382.536          29.300

  20073970.336                   105489488.678 7       -18.233          49.300
                  20073976.594    82199596.942 9       -14.207          44.000

  21873441.758                   114945670.679 6      2173.733          47.000
                  21873449.500    89568121.586 8      1693.814          37.900

  23612352.578                   124083733.467 4     -2302.524          39.000
                  23612359.969    96688657.964 6     -1794.164          24.200

  23764758.453                   124884606.118 5      2745.187          40.500
                  23764761.766    97312740.923 7      2139.103          26.300

  23943741.602                   125825160.700 5     -2962.391          39.200
                  23943751.535    98045616.495 7     -2308.354          27.600

  21950881.531                   115352661.807 7      2611.826          50.300
                  21950887.938    89885229.980 8      2035.192          39.900

  20972538.484                   110211369.874 8     -1704.607          52.400
                  20972547.438    85879077.936 9     -1328.267          45.200

 18  7  1  0  6 30.0000000  0 11G01G08G10G11G14G18G20G22G27G31G32
  23584519.148                   123937497.647 5      3262.438          39.300
                  23584529.465    96574704.735 6      2542.152          26.000

  23443979.344                   123198913.650 5     -2037.572          41.900
                  23443990.355    95999194.324 7     -1587.719          28.500

  21933845.875                   115263130.894 7     -1602.070          49.500
                  21933855.809    89815474.772 8     -1248.366          38.900

  23402965.359                   122983432.809 6      1772.141          45.000
                  23402971.316    95831253.812 7      1380.900          29.500

  20073989.164                   105489587.406 7       -20.757          49.400
                  20073995.480    82199673.869 9       -16.172          43.900

  21871374.281                   114934808.329 7      2171.642          47.300
                  21871382.266    89559657.410 8      1692.191          38.000

  23614544.367                   124095248.573 5     -2303.341          39.900
                  23614551.586    96697630.780 6     -1794.820          23.300

  23762146.680                   124870880.352 5      2745.129          40.900
                  23762150.914    97302045.514 7      2139.071          26.100

  23946560.195                   125839972.866 5     -2962.476          39.600
                  23946570.105    98057158.438 7     -2308.425          27.100

  21948397.617                   115339608.113 7      2610.010          49.800
                  21948404.383    89875058.278 8      2033.770          39.400

  20974161.602                   110219897.445 8     -1706.130          52.400
                  20974170.355    85885722.797 9     -1329.456          45.200

 18  7  1  0  6 35.0000000  0 11G01G08G10G11G14G18G20G22G27G31G32
  23581415.609                   123921188.757 4      3261.350          39.000
                  23581425.426    96561996.515 6      2541.310          25.100

  23445918.547                   123209106.604 5     -2039.255          41.300
                  23445929.680    96007136.880 7     -1589.020          28.900

  21935370.922                   115271144.219 7     -1603.057          47.800
                  21935380.273    89821718.913 8     -1249.140          39.500

  23401280.148                   122974578.710 6      1769.935          44.700
                  23401286.863    95824354.516 7      1379.166          28.900

  20074010.359                   105489698.833 7       -23.302          48.800
                  20074016.984    82199760.696 9       -18.154          43.900

  21869308.906                   114923956.332 6      2169.578          46.600
                  21869316.785    89551201.309 8      1690.580          38.100

  23616736.305                   124106767.724 5     -2304.131          39.700
                  23616743.445    96706606.738 6     -1795.430          23.600

  23759533.813                   124857154.922 5      2745.057          40.100
                  23759539.359    97291350.377 6      2138.992          26.000

  23949378.078                   125854785.440 5     -2962.597          39.200
                  23949388.797    98068700.714 6     -2308.526          25.200

  21945915.133                   115326563.650 7      2608.161          50.500
                  21945922.004    89864893.757 8      2032.334          39.300

  20975785.484                   110228432.642 7     -1707.648          51.900
                  20975794.297    85892373.595 9     -1330.634          44.700

 18  7  1  0  6 40.0000000  0 11G01G08G10G11G14G18G20G22G27G31G32
  23578313.742                   123904885.378 4      3260.324          37.700
                  23578323.258    96549292.599 7      2540.489          26.200

  23447860.711                   123219308.122 5     -2040.936          41.600
                  23447870.664    96015086.112 7     -1590.332          28.600

  21936896.563                   115279162.566 7     -1604.023          47.300
                  21936906.035    89827966.971 8     -1249.884          39.200

  23399597.359                   122965735.554 6      1767.827          45.300
                  23399603.820    95817463.730 7      1377.536          29.500

  20074033.797                   105489823.004 7       -25.805          49.400
                  20074040.434    82199857.452 9       -20.107          43.800

  21867246.109                   114913114.771 7      2167.512          48.200
                  21867254.324    89542753.347 8      1688.965          37.700

  23618929.391                   124118290.889 5     -2304.922          40.100
                  23618936.059    96715585.831 6     -1796.042          26.000

  23756922.375                   124843429.822 5      2745.050          39.200
                  23756927.953    97280655.525 6      2138.993          25.000

  23952197.672                   125869598.491 5     -2962.603          39.500
                  23952207.484    98080243.345 7     -2308.523          26.500

  21943434.883                   115313528.409 7      2606.350          49.900
                  21943441.797    89854736.437 8      2030.918          39.900

  20977411.531                   110236975.485 8     -1709.129          52.500
                  20977419.852    85899030.348 9     -1331.781          45.100

 18  7  1  0  6 45.0000000  0 11G01G08G10G11G14G18G20G22G27G31G32
  23575211.664                   123888587.531 4      3259.137          38.500
                  23575221.777    96536592.956 6      2539.585          25.300

  23449803.031                   123229518.143 5     -2042.667          41.300
                  23449813.742    96023041.967 7     -1591.690          27.900

  21938423.469                   115287185.931 7     -1605.070          48.500
                  21938433.047    89834218.942 8     -1250.702          38.800

  23397916.750                   122956903.391 6      1765.558          44.900
                  23397923.188    95810581.534 7      1375.759          29.300

  20074060.047                   105489959.946 7       -28.408          49.700
                  20074066.324    82199964.164 9       -22.138          43.100

  21865185.078                   114902283.729 7      2165.344          47.500
                  21865193.113    89534313.570 8      1687.281          37.800

  23621123.164                   124129818.202 5     -2305.776          39.200
                  23621129.863    96724568.135 6     -1796.701          23.000

  23754310.836                   124829705.136 5      2744.921          39.500
                  23754316.328    97269960.980 6      2138.893          25.700

  23955016.742                   125884412.032 5     -2962.719          39.800
                  23955026.340    98091786.353 7     -2308.614          26.800

  21940956.016                   115300502.483 7      2604.439          50.100
                  21940962.820    89844586.365 8      2029.434          39.300

  20979038.555                   110245526.019 8     -1710.714          52.400
                  20979047.453    85905693.104 9     -1333.017          45.300

 18  7  1  0  6 50.0000000  0 11G01G08G10G11G14G18G20G22G27G31G32
  23572111.945                   123872295.206 4      3258.033          39.000
                  23572121.496    96523897.649 7      2538.737          26.200

  23451747.414                   123239736.582 5     -2044.337          41.100
                  23451758.672    96031004.388 7     -1592.990          27.900

  21939950.992                   115295214.345 7     -1606.077          47.600
                  21939960.570    89840474.845 8     -1251.489          38.500

  23396238.133                   122948082.059 6      1763.408          45.000
                  23396244.590    95803707.768 7      1374.089          30.100

  20074088.469                   105490109.561 7       -30.937          49.100
                  20074095.109    82200080.755 9       -24.110          43.200

  21863126.141                   114891463.091 7      2163.302          48.100
                  21863133.641    89525881.903 8      1685.690          37.600

  23623316.758                   124141349.616 5     -2306.569          39.200
                  23623324.219    96733553.661 6     -1797.335          25.800

  23751700.453                   124815980.857 5      2744.844          40.700
                  23751705.258    97259266.748 7      2138.849          26.700

  23957835.531                   125899226.017 4     -2962.793          38.300
                  23957845.535    98103329.713 7     -2308.671          27.200

  21938478.977                   115287485.853 7      2602.602          50.600
                  21938485.707    89834443.543 8      2027.999          39.500

  20980666.813                   110254084.180 7     -1712.227          52.000
                  20980675.852    85912361.801 9     -1334.198          45.400

 18  7  1  0  6 55.0000000  0 11G01G08G10G11G14G18G20G22G27G31G32
  23569012.383                   123856008.340 5      3256.992          39.300
                  23569022.324    96511206.601 7      2537.896          26.200

  23453693.789                   123249963.378 5     -2046.027          41.200
                  23453704.551    96038973.317 7     -1594.315          27.900

  21941479.883                   115303247.699 6     -1607.055          46.000
                  21941489.273    89846734.601 8     -1252.252          38.600

  23394561.977                   122939271.632 6      1761.226          45.400
                  23394568.152    95796842.506 7      1372.379          29.600

  20074119.289                   105490271.868 7       -33.478          48.900
                  20074125.840    82200207.223 9       -26.088          43.600

  21861068.922                   114880652.943 6      2161.229          46.800
                  21861076.676    89517458.412 8      1684.076          37.600

  23625511.883                   124152885.091 5     -2307.411          39.800
                  23625519.504    96742542.348 6     -1797.988          25.000

  23749088.055                   124802256.918 6      2744.772          42.500
                  23749092.449    97248572.766 7      2138.783          26.400

  23960654.289                   125914040.376 4     -2962.865          38.900
                  23960664.535    98114873.362 7     -2308.713          27.700

  21936003.367                   115274478.452 7      2600.753          50.200
                  21936010.582    89824307.908 8      2026.562          39.500

  20982297.164                   110262649.932 7     -1713.734          50.300
                  20982305.719    85919036.416 9     -1335.380          44.900

 18  7  1  0  7  0.0000000  0 11G01G08G10G11G14G18G20G22G27G31G32
  23565914.250                   123839727.014 5      3255.837          40.600
                  23565924.258    96498519.839 7      2537.024          26.400

  23455641.133                   123260198.671 5     -2047.741          40.400
                  23455652.375    96046948.853 7     -1595.627          28.500

  21943009.805                   115311286.065 6     -1608.057          46.100
                  21943018.648    89852998.257 8     -1253.029          39.200

  23392887.438                   122930472.154 6      1759.021          44.800
                  23392893.961    95789985.767 7      1370.664          29.500

  20074152.711                   105490446.834 7       -35.993          48.600
                  20074159.152    82200343.560 9       -28.043          44.000

  21859014.078                   114869853.225 7      2159.138          47.600
                  21859021.516    89509043.050 8      1682.443          38.000

  23627708.250                   124164424.676 5     -2308.236          40.600
                  23627715.543    96751534.232 6     -1798.636          25.700

  23746476.602                   124788533.323 5      2744.708          41.700
                  23746480.039    97237879.036 6      2138.734          25.800

  23963474.203                   125928855.131 4     -2962.964          38.700
                  23963483.918    98126417.326 7     -2308.794          26.400

  21933530.438                   115261480.327 7      2598.887          49.900
                  21933536.746    89814179.508 8      2025.103          39.900

  20983928.344                   110271223.268 7     -1715.259          50.800
                  20983937.258    85925716.941 9     -1336.566          45.000

 18  7  1  0  7  5.0000000  0 11G01G08G10G11G14G18G20G22G27G31G32
  23562816.352                   123823451.266 4      3254.745          39.000
                  23562826.887    96485837.448 7      2536.161          26.600

  23457591.227                   123270442.278 5     -2049.374          41.400
                  23457601.793    96054930.895 7     -1596.919          28.100

  21944539.977                   115319329.447 6     -1609.052          46.500
                  21944549.301    89859265.821 8     -1253.805          39.400

  23391215.164                   122921683.645 6      1756.848          44.600
                  23391221.652    95783137.583 7      1368.973          29.600

  20074188.414                   105490634.521 7       -38.529          49.700
                  20074194.512    82200489.812 9       -30.024          43.600

  21856960.883                   114859063.882 7      2157.051          47.600
                  21856968.250    89500635.772 8      1680.825          38.100

  23629905.266                   124175968.386 5     -2309.042          40.000
                  23629912.207    96760529.315 6     -1799.262          24.800

  23743864.195                   124774810.067 5      2744.655          41.300
                  23743868.207    97227185.576 6      2138.695          24.600

  23966293.102                   125943670.248 4     -2963.001          38.900
                  23966303.129    98137961.564 7     -2308.818          27.300

  21931058.281                   115248491.540 7      2597.029          49.600
                  21931065.383    89804058.376 8      2023.657          39.700

  20985561.469                   110279804.221 7     -1716.772          51.600
                  20985570.172    85932403.394 9     -1337.742          45.400

 18  7  1  0  7 10.0000000  0 11G01G08G10G11G14G18G20G22G27G31G32
  23559720.891                   123807181.060 5      3253.566          39.400
                  23559730.895    96473159.363 7      2535.236          26.500

  23459541.891                   123280694.301 5     -2051.114          41.900
                  23459552.754    96062919.467 7     -1598.261          27.700

  21946072.000                   115327377.840 7     -1610.096          48.600
                  21946080.961    89865537.298 8     -1254.627          38.800

  23389544.484                   122912906.120 6      1754.597          44.300
                  23389551.215    95776297.959 7      1367.210          29.300

  20074226.633                   105490834.916 7       -41.125          48.900
                  20074232.836    82200645.967 9       -32.047          44.200

  21854909.953                   114848285.128 7      2154.872          47.700
                  21854917.195    89492236.749 8      1679.116          37.900

  23632101.984                   124187516.170 5     -2309.911          40.800
                  23632109.625    96769527.586 6     -1799.938          25.600

  23741252.883                   124761087.145 5      2744.536          39.600
                  23741257.297    97216492.378 6      2138.604          25.700

  23969112.742                   125958485.803 4     -2963.154          38.700
                  23969121.930    98149506.148 7     -2308.947          26.800

  21928588.398                   115235512.054 7      2595.128          50.000
                  21928595.227    89793944.498 8      2022.178          40.100

  20987195.539                   110288392.777 8     -1718.347          52.200
                  20987204.859    85939095.774 9     -1338.969          45.200

 18  7  1  0  7 15.0000000  0 11G01G08G10G11G14G18G20G22G27G31G32
  23556625.352                   123790916.351 4      3252.540          38.600
                  23556635.441    96460485.560 7      2534.445          26.400

  23461494.617                   123290954.694 5     -2052.729          41.100
                  23461505.223    96070914.577 7     -1599.521          28.500

  21947604.430                   115335431.174 7     -1611.051          49.300
                  21947613.363    89871812.612 8     -1255.362          38.800

  23387876.109                   122904139.531 6      1752.445          44.100
                  23387882.664    95769466.844 7      1365.552          30.100

  20074266.625                   105491047.916 7       -43.595          48.900
                  20074273.148    82200811.940 9       -33.970          43.900

  21852860.602                   114837516.798 7      2152.833          47.800
                  21852868.023    89483845.836 8      1677.535          38.000

  23634300.297                   124199067.998 5     -2310.676          40.600
                  23634307.816    96778528.993 6     -1800.532          25.400

  23738641.305                   124747364.543 4      2744.517          38.400
                  23738646.699    97205799.459 6      2138.589          24.200

  23971932.047                   125973301.615 4     -2963.153          38.700
                  23971942.180    98161050.932 7     -2308.946          27.600

  21926120.633                   115222541.817 7      2593.313          50.300
                  21926127.367    89783837.836 8      2020.755          39.900

  20988831.641                   110296988.838 8     -1719.797          52.500
                  20988840.422    85945793.999 9     -1340.100          45.200

 18  7  1  0  7 20.0000000  0 11G01G08G10G11G14G18G20G22G27G31G32
  23553532.016                   123774657.172 5      3251.383          39.900
                  23553541.426    96447816.083 7      2533.536          27.000

  23463448.492                   123301223.485 5     -2054.487          41.800
                  23463458.836    96078916.223 7     -1600.890          28.700

  21949137.766                   115343489.484 7     -1612.087          49.200
                  21949146.723    89878091.813 8     -1256.173          39.100

  23386209.977                   122895383.859 6      1750.237          43.800
                  23386216.801    95762644.239 7      1363.819          29.500

  20074309.844                   105491273.542 7       -46.147          48.900
                  20074316.289    82200987.751 9       -35.960          43.700

  21850813.641                   114826759.082 7      2150.699          47.800
                  21850820.871    89475463.202 8      1675.868          38.400

  23636499.547                   124210623.914 5     -2311.527          41.100
                  23636506.840    96787533.599 6     -1801.183          25.800

  23736031.547                   124733642.276 5      2744.389          39.900
                  23736035.617    97195106.835 6      2138.479          25.300

  23974750.719                   125988117.740 4     -2963.274          38.300
                  23974761.570    98172595.947 6     -2309.041          26.000

  21923654.102                   115209580.910 7      2591.424          50.800
                  21923660.523    89773738.428 8      2019.288          39.500

  20990468.406                   110305592.442 8     -1721.344          52.500
                  20990477.707    85952498.108 9     -1341.310          45.500

 18  7  1  0  7 25.0000000  0 11G01G08G10G11G14G18G20G22G27G31G32
  23550438.531                   123758403.715 5      3250.232          39.700
                  23550449.141    96435151.054 7      2532.648          27.000

  23465404.164                   123311500.665 6     -2056.147          42.500
                  23465414.445    96086924.421 7     -1602.197          28.400

  21950672.320                   115351552.908 7     -1613.130          48.200
                  21950681.328    89884374.996 8     -1256.984          38.900

  23384546.492                   122886639.244 6      1748.019          45.200
                  23384552.891    95755830.262 7      1362.093          29.700

  20074355.508                   105491511.928 7       -48.717          49.600
                  20074361.891    82201173.506 9       -37.958          43.300

  21848768.109                   114816011.850 7      2148.583          47.600
                  21848775.695    89467088.730 8      1674.227          37.600

  23638699.273                   124222183.906 5     -2312.346          40.400
                  23638706.844    96796541.372 6     -1801.824          25.000

  23733420.438                   124719920.496 5      2744.304          41.300
                  23733424.992    97184414.542 6      2138.419          25.500

  23977570.719                   126002934.269 4     -2963.360          38.000
                  23977581.078    98184141.300 7     -2309.113          26.600

  21921189.438                   115196629.435 7      2589.516          50.000
                  21921196.180    89763646.373 8      2017.804          39.800

  20992107.570                   110314203.694 8     -1722.885          52.700
                  20992116.445    85959208.174 9     -1342.510          44.700

 18  7  1  0  7 30.0000000  0 11G01G08G10G11G14G18G20G22G27G31G32
  23547346.836                   123742155.779 5      3249.146          39.200
                  23547356.945    96422490.308 7      2531.806          27.300

  23467361.773                   123321786.034 5     -2057.747          41.600
                  23467371.484    96094938.989 7     -1603.445          28.000

  21952207.984                   115359621.271 7     -1614.083          47.900
                  21952216.715    89890662.033 8     -1257.730          38.700

  23382884.227                   122877905.565 6      1745.834          44.000
                  23382890.805    95749024.789 7      1360.391          29.700

  20074403.227                   105491762.920 7       -51.219          49.800
                  20074409.332    82201369.085 9       -39.909          43.700

  21846725.359                   114805275.104 7      2146.505          48.000
                  21846732.707    89458722.439 8      1672.602          38.500

  23640900.117                   124233748.033 5     -2313.168          41.100
                  23640907.461    96805552.376 6     -1802.468          24.900

  23730809.047                   124706199.072 5      2744.230          41.200
                  23730813.723    97173722.512 7      2138.375          26.500

  23980390.883                   126017751.055 4     -2963.415          38.700
                  23980400.719    98195686.819 6     -2309.143          26.000

  21918726.867                   115183687.280 7      2587.667          50.200
                  21918733.551    89753561.577 8      2016.368          39.900

  20993747.492                   110322822.451 7     -1724.368          51.800
                  20993756.539    85965924.083 9     -1343.664          45.600

 18  7  1  0  7 35.0000000  0 11G01G08G10G11G14G18G20G22G27G31G32
  23544255.547                   123725913.533 4      3247.980          39.000
                  23544265.699    96409834.018 7      2530.888          26.700

  23469320.078                   123332079.762 5     -2059.413          41.700
                  23469330.867    96102960.050 7     -1604.732          27.600

  21953744.070                   115367694.705 7     -1615.073          47.700
                  21953753.078    89896953.021 8     -1258.505          38.600

  23381223.719                   122869182.891 6      1743.665          44.200
                  23381230.602    95742227.899 7      1358.702          29.500

  20074453.320                   105492026.643 7       -53.752          50.100
                  20074459.984    82201574.583 9       -41.886          44.100

  21844683.883                   114794548.998 7      2144.388          48.700
                  21844691.918    89450364.431 8      1670.955          38.200

  23643101.391                   124245316.264 5     -2313.970          41.100
                  23643108.754    96814566.588 6     -1803.085          25.000

  23728197.617                   124692478.098 5      2744.148          41.100
                  23728202.340    97163030.823 6      2138.301          25.600

  23983209.453                   126032568.169 4     -2963.434          37.800
                  23983220.031    98207232.636 7     -2309.178          26.500

  21916265.711                   115170754.569 7      2585.799          50.500
                  21916272.543    89743484.151 8      2014.908          39.500

  20995389.133                   110331448.804 8     -1725.880          53.200
                  20995397.793    85972645.913 9     -1344.844          45.200

 18  7  1  0  7 40.0000000  0 11G01G08G10G11G14G18G20G22G27G31G32
  23541166.477                   123709676.840 5      3246.927          40.100
                  23541176.004    96397182.064 7      2530.065          27.400

  23471280.359                   123342381.822 6     -2061.009          42.600
                  23471290.711    96110987.620 7     -1605.971          27.600

  21955281.289                   115375773.119 7     -1616.031          48.800
                  21955290.480    89903247.880 8     -1259.244          38.400

  23379566.703                   122860471.189 6      1741.509          44.800
                  23379572.926    95735439.554 7      1357.027          29.200

  20074505.750                   105492302.960 7       -56.250          50.300
                  20074512.281    82201789.894 9       -43.829          43.500

  21842644.898                   114783833.418 7      2142.301          47.600
                  21842652.461    89442014.631 8      1669.325          38.300

  23645303.500                   124256888.511 5     -2314.750          40.200
                  23645310.824    96823583.919 6     -1803.690          25.400

  23725585.531                   124678757.452 5      2744.135          39.400
                  23725590.457    97152339.408 6      2138.285          22.900

  23986030.180                   126047385.547 4     -2963.426          37.300
                  23986040.125    98218778.611 6     -2309.162          25.700

  21913806.234                   115157831.166 7      2583.962          50.800
                  21913812.949    89733413.975 8      2013.472          39.800

  20997031.875                   110340082.624 8     -1727.321          53.500
                  20997041.117    85979373.562 9     -1345.961          45.100

 18  7  1  0  7 45.0000000  0 11G01G08G10G11G14G18G20G22G27G31G32
  23538077.484                   123693445.833 5      3245.750          39.600
                  23538087.875    96384534.527 7      2529.156          26.200

  23473242.383                   123352692.230 6     -2062.765          43.800
                  23473252.840    96119021.701 7     -1607.347          27.400

  21956819.695                   115383856.601 7     -1617.127          48.600
                  21956828.727    89909546.691 8     -1260.097          39.300

  23377910.625                   122851770.525 6      1739.215          44.000
                  23377917.273    95728659.827 7      1355.219          30.300

  20074560.797                   105492592.004 7       -58.859          49.800
                  20074567.121    82202015.130 9       -45.868          43.700

  21840607.742                   114773128.457 7      2140.110          48.600
                  21840615.488    89433673.103 8      1667.619          38.500

  23647506.688                   124268464.851 5     -2315.622          40.300
                  23647513.766    96832604.442 6     -1804.378          24.700

  23722974.766                   124665037.210 4      2744.005          38.800
                  23722979.320    97141648.299 6      2138.183          23.400

  23988849.375                   126062203.252 3     -2963.604          37.000
                  23988859.250    98230324.871 6     -2309.293          25.800

  21911349.352                   115144917.234 7      2582.011          50.000
                  21911355.770    89723351.175 8      2011.955          40.000

  20998676.344                   110348724.029 8     -1728.913          53.000
                  20998685.191    85986107.124 9     -1347.208          45.200

 18  7  1  0  7 50.0000000  0 11G01G08G10G11G14G18G20G22G27G31G32
  23534990.438                   123677220.513 5      3244.605          39.500
                  23535000.391    96371891.431 7      2528.248          27.000

  23475206.281                   123363010.900 6     -2064.415          43.500
                  23475215.820    96127062.215 7     -1608.628          28.900

  21958358.648                   115391945.122 7     -1618.125          47.900
                  21958367.883    89915849.436 8     -1260.883          38.400

  23376256.898                   122843080.903 6      1737.023          44.100
                  23376263.766    95721888.686 7      1353.525          29.900

  20074618.125                   105492893.728 7       -61.359          50.100
                  20074624.598    82202250.238 9       -47.812          43.800

  21838572.977                   114762434.084 7      2138.019          48.100
                  21838580.035    89425339.832 8      1665.981          38.000

  23649710.609                   124280045.336 5     -2316.420          40.200
                  23649717.449    96841628.188 7     -1805.011          26.400

  23720364.297                   124651317.347 5      2743.911          39.500
                  23720368.410    97130957.533 6      2138.117          23.800

  23991668.367                   126077021.222 3     -2963.671          36.900
                  23991678.949    98241871.322 6     -2309.329          24.900

  21908893.914                   115132012.724 7      2580.147          50.500
                  21908900.070    89713295.713 8      2010.506          40.200

  21000322.469                   110357372.967 8     -1730.401          53.100
                  21000330.891    85992846.553 9     -1348.363          45.400

 18  7  1  0  7 55.0000000  0 11G01G08G10G11G14G18G20G22G27G31G32
  23531903.516                   123661000.844 5      3243.447          39.800
                  23531914.168    96359252.717 7      2527.359          26.900

  23477171.336                   123373337.666 6     -2066.009          43.900
                  23477180.516    96135109.058 7     -1609.885          27.300

  21959898.656                   115400038.604 7     -1619.096          47.800
                  21959907.613    89922156.044 8     -1261.638          38.900

  23374606.219                   122834402.258 6      1734.851          43.400
                  23374612.461    95715126.112 7      1351.831          29.300

  20074678.391                   105493208.032 7       -63.879          49.700
                  20074684.715    82202495.152 9       -49.774          43.800

  21836539.766                   114751750.217 7      2135.914          47.500
                  21836547.066    89417014.733 8      1664.351          37.700

  23651915.188                   124291629.881 5     -2317.266          40.400
                  23651921.523    96850655.110 6     -1805.660          24.200

  23717755.180                   124637597.901 5      2743.829          40.700
                  23717758.180    97120267.049 6      2138.059          25.500

  23994488.906                   126091839.380 3     -2963.658          36.700
                  23994499.195    98253417.946 6     -2309.344          25.500

  21906439.586                   115119117.623 7      2578.259          51.100
                  21906446.148    89703247.587 8      2009.034          40.100

  21001969.422                   110366029.389 8     -1731.892          52.900
                  21001977.895    85999591.816 9     -1349.527          45.400

 18  7  1  0  8  0.0000000  0 11G01G08G10G11G14G18G20G22G27G31G32
  23528818.367                   123644786.806 5      3242.332          39.600
                  23528828.980    96346618.415 7      2526.484          26.700

  23479138.398                   123383672.766 6     -2067.654          43.400
                  23479147.660    96143162.375 7     -1611.167          28.300

  21961439.961                   115408137.138 7     -1620.113          48.000
                  21961449.379    89928466.587 8     -1262.435          38.900

  23372956.641                   122825734.687 6      1732.634          43.900
                  23372962.465    95708372.158 7      1350.103          29.300

  20074740.156                   105493534.954 7       -66.401          49.900
                  20074746.727    82202749.894 9       -51.740          44.400

  21834508.836                   114741076.954 7      2133.789          47.400
                  21834515.613    89408697.908 8      1662.691          38.200

  23654120.078                   124303218.496 5     -2318.060          40.000
                  23654127.082    96859685.201 6     -1806.275          25.100

  23715143.867                   124623878.811 6      2743.798          42.100
                  23715148.820    97109576.855 6      2138.025          25.600

  23997309.148                   126106657.763 4     -2963.723          37.300
                  23997319.152    98264964.725 6     -2309.392          25.700

  21903987.352                   115106231.982 7      2576.377          50.500
                  21903994.379    89693206.837 8      2007.560          40.200

  21003618.336                   110374693.303 8     -1733.387          52.800
                  21003627.090    86006342.913 9     -1350.689          45.000

 18  7  1  0  8  5.0000000  0 11G01G08G10G11G14G18G20G22G27G31G32
  23525732.742                   123628578.425 5      3241.202          40.000
                  23525744.398    96333988.507 7      2525.601          26.400

  23481106.594                   123394016.123 6     -2069.338          43.400
                  23481116.125    96151222.120 7     -1612.463          28.300

  21962981.867                   115416240.645 7     -1621.140          47.900
                  21962991.320    89934780.998 8     -1263.226          38.800

  23371309.219                   122817078.097 6      1730.398          43.800
                  23371315.402    95701626.763 7      1348.368          29.600

  20074804.961                   105493874.436 7       -68.946          50.000
                  20074811.320    82203014.426 9       -53.722          44.200

  21832479.891                   114730414.284 7      2131.646          47.700
                  21832486.840    89400389.338 8      1661.018          38.100

  23656326.266                   124314811.136 5     -2318.887          40.400
                  23656332.660    96868718.413 6     -1806.912          25.500

  23712532.742                   124610160.073 6      2743.700          42.100
                  23712538.547    97098886.941 7      2137.940          26.200

  24000128.063                   126121476.298 3     -2963.765          36.900
                  24000138.629    98276511.626 6     -2309.438          25.800

  21901537.023                   115093355.727 7      2574.464          50.200
                  21901543.691    89683173.396 8      2006.076          39.900

  21005268.320                   110383364.645 8     -1734.910          52.600
                  21005277.020    86013099.809 9     -1351.881          44.900

 18  7  1  0  8 10.0000000  0 11G01G08G10G11G14G18G20G22G27G31G32
  23522649.383                   123612375.829 5      3240.059          40.100
                  23522661.043    96321363.098 6      2524.716          25.400

  23483076.477                   123404367.827 6     -2070.988          43.500
                  23483085.691    96159288.396 7     -1613.754          28.200

  21964524.836                   115424349.215 7     -1622.128          48.700
                  21964534.301    89941099.364 8     -1263.994          38.700

  23369663.953                   122808432.614 6      1728.205          43.800
                  23369670.027    95694890.016 7      1346.663          30.700

  20074871.867                   105494226.610 7       -71.452          50.300
                  20074878.055    82203288.853 9       -55.680          44.400

  21830452.883                   114719762.290 7      2129.473          47.900
                  21830459.848    89392089.081 8      1659.330          37.900

  23658532.875                   124326407.967 5     -2319.718          41.200
                  23658538.863    96877754.916 6     -1807.571          23.900

  23709921.820                   124596441.748 5      2743.620          40.900
                  23709927.676    97088197.332 7      2137.885          26.500

  24002948.602                   126136295.143 3     -2963.815          35.500
                  24002958.770    98288058.761 6     -2309.442          26.000

  21899088.859                   115080488.996 7      2572.569          51.000
                  21899095.578    89673147.375 8      2004.596          40.000

  21006919.758                   110392043.537 8     -1736.389          53.000
                  21006928.484    86019862.581 9     -1353.035          45.000

 18  7  1  0  8 15.0000000  0 11G01G08G10G11G14G18G20G22G27G31G32
  23519568.031                   123596178.944 5      3238.891          39.200
                  23519578.664    96308742.163 7      2523.801          26.600

  23485048.563                   123414727.650 6     -2072.634          43.500
                  23485057.141    96167360.985 7     -1615.049          27.900

  21966069.063                   115432462.791 7     -1623.107          48.100
                  21966078.211    89947421.627 8     -1264.760          39.000

  23368021.578                   122799798.137 6      1726.000          43.900
                  23368027.242    95688161.854 7      1344.938          29.300

  20074941.367                   105494591.361 7       -73.966          50.000
                  20074948.098    82203573.077 9       -57.639          43.200

  21828427.617                   114709120.820 7      2127.439          48.600
                  21828434.691    89383797.027 8      1657.742          37.900

  23660740.195                   124338008.828 5     -2320.511          41.100
                  23660746.777    96886794.534 6     -1808.176          25.100

  23707310.867                   124582723.770 4      2743.526          39.000
                  23707317.234    97077508.011 6      2137.819          22.900

  24005767.523                   126151114.100 3     -2963.820          35.400
                  24005778.629    98299605.990 6     -2309.461          24.200

  21896642.164                   115067631.677 7      2570.703          51.200
                  21896648.957    89663128.686 8      2003.144          40.800

  21008572.922                   110400729.858 8     -1737.875          53.500
                  21008581.484    86026631.144 9     -1354.189          45.000

 18  7  1  0  8 20.0000000  0 11G01G08G10G11G14G18G20G22G27G31G32
  23516486.859                   123579987.725 5      3237.757          39.400
                  23516497.516    96296125.636 7      2522.929          26.400

  23487021.547                   123425095.655 6     -2074.289          44.100
                  23487030.520    96175439.955 7     -1616.337          28.400

  21967613.969                   115440581.408 7     -1624.133          48.600
                  21967623.070    89953747.813 8     -1265.557          39.200

  23366379.766                   122791174.711 6      1723.757          44.000
                  23366386.152    95681442.304 7      1343.189          29.000

  20075013.102                   105494968.745 7       -76.511          49.900
                  20075019.242    82203867.140 9       -59.619          43.600

  21826404.961                   114698490.053 7      2125.293          48.100
                  21826411.879    89375513.310 8      1656.073          37.600

  23662949.148                   124349613.813 5     -2321.339          40.500
                  23662955.363    96895837.375 6     -1808.823          24.200

  23704700.984                   124569006.179 4      2743.447          38.600
                  23704706.059    97066819.013 6      2137.757          23.900

  24008588.125                   126165933.226 3     -2963.869          36.000
                  24008598.738    98311153.349 6     -2309.506          25.300

  21894197.188                   115054783.888 7      2568.770          50.500
                  21894203.980    89653117.427 8      2001.641          40.500

  21010227.273                   110409423.638 8     -1739.382          53.000
                  21010236.129    86033405.513 9     -1355.364          45.400

 18  7  1  0  8 25.0000000  0 11G01G08G10G11G14G18G20G22G27G31G32
  23513407.867                   123563802.272 5      3236.566          39.700
                  23513417.625    96283513.585 7      2522.007          26.900

  23488995.102                   123435471.868 6     -2075.919          44.100
                  23489004.496    96183525.312 7     -1617.592          28.900

  21969159.523                   115448705.076 7     -1625.169          48.400
                  21969168.770    89960077.941 8     -1266.363          39.600

  23364741.063                   122782562.381 6      1721.537          43.900
                  23364747.395    95674731.399 7      1341.453          30.500

  20075087.367                   105495358.641 7       -79.023          50.700
                  20075093.996    82204170.958 9       -61.581          43.900

  21824383.711                   114687869.962 7      2123.132          48.200
                  21824390.824    89367237.914 8      1654.386          38.200

  23665157.938                   124361222.891 5     -2322.152          41.200
                  23665164.484    96904883.402 6     -1809.466          23.400

  23702091.156                   124555289.042 5      2743.333          39.900
                  23702094.914    97056130.339 6      2137.664          24.100

  24011408.219                   126180752.559 3     -2963.920          36.300
                  24011419.109    98322700.867 6     -2309.542          25.900

  21891754.000                   115041945.604 7      2566.854          50.800
                  21891760.762    89643113.573 8      2000.146          40.300

  21011882.883                   110418124.889 8     -1740.868          52.100
                  21011891.980    86040185.712 9     -1356.523          45.000

 18  7  1  0  8 30.0000000  0 11G01G08G10G11G14G18G20G22G27G31G32
  23510328.297                   123547622.491 5      3235.477          40.100
                  23510338.473    96270905.961 6      2521.158          26.000

  23490972.117                   123445856.169 6     -2077.481          44.300
                  23490980.379    96191616.973 7     -1618.816          29.300

  21970706.461                   115456833.623 7     -1626.095          48.500
                  21970715.773    89966411.866 8     -1267.081          39.200

  23363103.758                   122773961.014 6      1719.386          44.200
                  23363110.742    95668029.030 7      1339.785          29.900

  20075163.797                   105495761.056 7       -81.471          49.900
                  20075170.066    82204484.532 9       -63.485          43.800

  21822365.016                   114677260.419 7      2121.073          48.700
                  21822372.301    89358970.734 8      1652.789          37.900

  23667367.258                   124372835.939 5     -2322.918          41.100
                  23667374.195    96913932.534 6     -1810.065          24.700

  23699481.336                   124541572.263 6      2743.339          42.300
                  23699484.879    97045441.936 7      2137.670          26.900

  24014228.227                   126195571.856 4     -2963.845          37.100
                  24014239.066    98334248.357 6     -2309.497          24.600

  21889313.094                   115029116.746 7      2565.026          51.000
                  21889319.422    89633117.060 8      1998.721          40.100

  21013540.078                   110426833.473 8     -1742.287          53.300
                  21013548.996    86046971.623 9     -1357.628          44.900

 18  7  1  0  8 35.0000000  0 11G01G08G10G11G14G18G20G22G27G31G32
  23507249.648                   123531448.521 5      3234.322          39.300
                  23507260.488    96258302.864 7      2520.269          27.300

  23492949.609                   123456248.618 6     -2079.155          43.400
                  23492958.531    96199715.004 7     -1620.135          29.900

  21972254.625                   115464967.327 7     -1627.140          47.800
                  21972264.066    89972749.819 8     -1267.901          39.700

  23361468.969                   122765370.769 6      1717.151          44.400
                  23361475.742    95661335.336 7      1338.042          29.800

  20075243.008                   105496176.199 7       -84.059          49.200
                  20075249.051    82204808.021 9       -65.504          44.300

  21820347.758                   114666661.680 7      2118.883          48.600
                  21820355.254    89350711.982 8      1651.079          37.900

  23669578.445                   124384453.164 5     -2323.779          40.700
                  23669585.086    96922984.906 6     -1810.735          24.700

  23696871.250                   124527856.074 5      2743.191          41.600
                  23696875.453    97034753.969 7      2137.551          26.900

  24017048.883                   126210391.431 3     -2963.906          36.900
                  24017059.363    98345796.056 6     -2309.530          24.700

  21886873.594                   115016297.516 7      2563.087          50.700
                  21886879.984    89623128.058 8      1997.211          39.800

  21015198.797                   110435549.586 8     -1743.816          52.900
                  21015207.477    86053763.392 9     -1358.820          45.100

 18  7  1  0  8 40.0000000  0 11G01G08G10G11G14G18G20G22G27G31G32
  23504173.250                   123515280.313 5      3233.205          39.200
                  23504184.395    96245704.264 6      2519.377          25.800

  23494928.461                   123466649.160 6     -2080.751          42.900
                  23494937.688    96207819.310 7     -1621.366          28.700

  21973802.992                   115473105.999 7     -1628.122          48.100
                  21973812.297    89979091.637 8     -1268.667          39.100

  23359836.734                   122756791.571 6      1714.946          45.200
                  23359843.281    95654650.249 7      1336.323          29.800

  20075324.266                   105496603.875 7       -86.539          50.200
                  20075330.738    82205141.275 9       -67.432          44.000

  21818333.352                   114656073.528 7      2116.782          49.200
                  21818340.320    89342461.471 8      1649.442          37.900

  23671790.008                   124396074.443 5     -2324.568          40.500
                  23671796.465    96932040.440 6     -1811.349          25.200

  23694259.945                   124514140.252 5      2743.150          40.700
                  23694266.063    97024066.298 7      2137.523          27.000

  24019869.344                   126225211.043 4     -2963.926          37.200
                  24019879.289    98357343.814 6     -2309.555          25.500

  21884436.078                   115003487.773 7      2561.201          50.800
                  21884442.652    89613146.436 8      1995.742          40.400

  21016858.719                   110444273.073 8     -1745.270          53.000
                  21016867.777    86060560.912 9     -1359.951          45.100

 18  7  1  0  8 45.0000000  0 11G01G08G10G11G14G18G20G22G27G31G32
  23501097.664                   123499117.869 5      3232.044          39.800
                  23501108.746    96233110.161 6      2518.470          25.300

  23496909.523                   123477057.885 6     -2082.351          43.800
                  23496918.457    96215930.017 7     -1622.611          29.000

  21975352.641                   115481249.695 7     -1629.107          48.200
                  21975361.910    89985437.368 8     -1269.434          38.900

  23358206.320                   122748223.468 6      1712.754          44.000
                  23358212.785    95647973.799 7      1334.611          29.700

  20075408.375                   105497044.138 7       -89.026          49.600
                  20075414.715    82205484.341 9       -69.373          44.600

  21816320.195                   114645496.082 7      2114.645          48.300
                  21816327.469    89334219.307 8      1647.774          37.600

  23674001.734                   124407699.781 5     -2325.375          40.300
                  23674008.605    96941099.144 6     -1811.976          24.600

  23691649.539                   124500424.812 5      2743.085          39.400
                  23691656.672    97013378.960 6      2137.450          25.500

  24022687.969                   126240030.734 3     -2963.927          36.600
                  24022699.410    98368891.604 6     -2309.560          24.300

  21881999.969                   114990687.565 7      2559.300          50.900
                  21882007.043    89603172.255 8      1994.260          40.600

  21018520.109                   110453003.964 8     -1746.757          53.200
                  21018528.844    86067364.206 9     -1361.111          44.600

 18  7  1  0  8 50.0000000  0 11G01G08G10G11G14G18G20G22G27G31G32
  23498022.961                   123482961.286 5      3230.856          40.200
                  23498034.430    96220520.608 6      2517.552          24.300

  23498892.336                   123487474.863 6     -2084.018          43.500
                  23498900.207    96224047.152 7     -1623.913          28.100

  21976903.859                   115489398.477 7     -1630.126          47.600
                  21976912.891    89991787.072 8     -1270.230          39.200

  23356577.641                   122739666.494 6      1710.510          43.500
                  23356584.879    95641306.023 7      1332.866          29.500

  20075494.516                   105497497.045 7       -91.574          49.700
                  20075500.801    82205837.255 9       -71.357          44.300

  21814309.492                   114634929.389 7      2112.524          48.500
                  21814316.496    89325985.522 8      1646.129          38.100

  23676215.203                   124419329.269 5     -2326.194          40.800
                  23676221.813    96950161.060 6     -1812.617          24.700

  23689040.273                   124486709.768 4      2743.010          38.500
                  23689047.156    97002691.948 6      2137.393          24.000

  24025507.914                   126254850.533 3     -2963.913          36.700
                  24025519.469    98380439.487 6     -2309.539          25.100

  21879566.094                   114977896.943 7      2557.386          51.000
                  21879572.836    89593205.544 8      1992.769          40.900

  21020183.086                   110461742.284 8     -1748.234          53.000
                  21020191.961    86074173.287 9     -1362.266          44.600

 18  7  1  0  8 55.0000000  0 11G01G08G10G11G14G18G20G22G27G31G32
  23494949.188                   123466810.495 5      3229.650          39.500
                  23494961.227    96207935.603 6      2516.589          25.900

  23500875.961                   123497899.758 6     -2085.594          43.000
                  23500884.262    96232170.453 7     -1625.145          28.100

  21978455.164                   115497552.300 7     -1631.145          47.500
                  21978464.652    89998140.695 8     -1271.024          39.100

  23354951.859                   122731120.611 6      1708.311          44.300
                  23354958.672    95634646.899 7      1331.148          29.900

  20075583.000                   105497962.537 7       -94.084          49.400
                  20075588.875    82206199.981 9       -73.315          43.800

  21812300.891                   114624373.367 7      2110.363          48.500
                  21812308.305    89317760.049 8      1644.443          37.700

  23678429.141                   124430962.821 5     -2327.013          40.800
                  23678435.664    96959226.177 6     -1813.257          23.300

  23686431.383                   124472995.194 4      2742.888          38.300
                  23686436.895    96992005.296 6      2137.316          23.800

  24028328.680                   126269670.467 3     -2963.986          36.600
                  24028339.129    98391987.478 6     -2309.577          25.400

  21877134.188                   114965115.886 7      2555.468          51.200
                  21877140.621    89583246.282 8      1991.275          40.900

  21021847.445                   110470488.023 8     -1749.714          53.600
                  21021856.410    86080988.143 9     -1363.412          45.200

 18  7  1  0  9  0.0000000  0 11G01G08G10G11G14G18G20G22G27G31G32
  23491877.641                   123450665.496 4      3228.560          39.000
                  23491888.363    96195355.078 6      2515.769          25.700

  23502860.992                   123508332.786 6     -2087.270          43.600
                  23502869.531    96240300.087 7     -1626.445          27.600

  21980007.641                   115505711.136 7     -1632.177          47.900
                  21980017.352    90004498.220 8     -1271.827          39.100

  23353328.336                   122722585.839 6      1706.073          44.400
                  23353334.105    95627996.428 7      1329.409          30.900

  20075673.711                   105498440.555 7       -96.604          49.500
                  20075680.164    82206572.462 9       -75.278          44.000

  21810293.813                   114613828.110 7      2108.173          47.400
                  21810301.063    89309542.962 8      1642.738          37.500

  23680643.180                   124442600.425 5     -2327.827          41.300
                  23680650.273    96968294.428 7     -1813.889          26.500

  23683821.984                   124459281.076 5      2742.785          40.800
                  23683826.957    96981318.985 6      2137.229          26.000

  24031148.391                   126284490.344 3     -2963.957          36.500
                  24031159.254    98403535.419 6     -2309.576          25.100

  21874703.969                   114952344.373 7      2553.534          51.400
                  21874710.656    89573294.458 8      1989.761          40.500

  21023513.055                   110479241.135 8     -1751.215          53.200
                  21023521.969    86087808.752 9     -1364.585          44.900

 18  7  1  0  9  5.0000000  0 11G01G08G10G11G14G18G20G22G27G31G32
  23488806.469                   123434526.362 5      3227.356          39.700
                  23488816.387    96182779.152 7      2514.816          26.400

  23504848.102                   123518773.906 6     -2088.917          43.000
                  23504856.680    96248436.024 7     -1627.722          28.500

  21981561.195                   115513875.014 7     -1633.214          47.800
                  21981570.680    90010859.678 8     -1272.630          38.600

  23351705.641                   122714062.145 6      1703.826          44.100
                  23351712.164    95621354.588 7      1327.664          29.600

  20075767.289                   105498931.129 7       -99.156          49.300
                  20075773.566    82206954.729 9       -77.268          44.100

  21808289.336                   114603293.595 7      2106.006          47.700
                  21808296.422    89301334.249 8      1641.043          37.900

  23682858.961                   124454242.154 5     -2328.721          41.800
                  23682865.801    96977365.908 6     -1814.586          24.900

  23681212.539                   124445567.389 5      2742.652          41.600
                  23681216.473    96970632.978 7      2137.139          26.200

  24033967.992                   126299310.350 3     -2964.079          35.200
                  24033979.043    98415083.455 6     -2309.664          22.200

  21872275.406                   114939582.437 7      2551.566          51.200
                  21872281.941    89563350.089 8      1988.234          39.700

  21025179.898                   110488001.600 8     -1752.723          53.000
                  21025188.727    86094635.087 9     -1365.755          45.200

 18  7  1  0  9 10.0000000  0 11G01G08G10G11G14G18G20G22G27G31G32
  23485736.820                   123418393.023 5      3226.210          39.800
                  23485746.016    96170207.712 6      2513.937          26.000

  23506836.563                   123529222.987 6     -2090.425          44.600
                  23506844.430    96256578.167 7     -1628.901          29.300

  21983115.453                   115522043.886 7     -1634.154          48.300
                  21983125.160    90017225.034 8     -1273.369          39.000

  23350085.750                   122705549.537 6      1701.667          44.100
                  23350092.246    95614721.392 7      1325.970          30.700

  20075862.539                   105499434.190 7      -101.600          49.600
                  20075869.078    82207346.725 9       -79.168          44.400

  21806286.727                   114592769.759 7      2103.933          48.200
                  21806293.785    89293133.862 8      1639.431          38.500

  23685074.852                   124465887.872 5     -2329.461          41.100
                  23685081.660    96986440.488 6     -1815.167          24.700

  23678602.063                   124431854.114 5      2742.629          41.100
                  23678606.949    96959947.282 6      2137.108          23.500

  24036788.281                   126314130.275 3     -2963.987          35.300
                  24036799.609    98426631.434 6     -2309.610          24.300

  21869848.602                   114926830.072 7      2549.710          51.000
                  21869855.250    89553413.186 8      1986.786          40.600

  21026848.758                   110496769.398 8     -1754.138          52.800
                  21026856.906    86101467.134 9     -1366.865          45.000

 18  7  1  0  9 15.0000000  0 11G01G08G10G11G14G18G20G22G27G31G32
  23482667.813                   123402265.670 5      3224.997          40.400
                  23482677.598    96157640.939 7      2512.983          27.400

  23508826.047                   123539680.313 6     -2092.125          44.100
                  23508834.480    96264726.731 7     -1630.221          27.300

  21984670.961                   115530217.925 7     -1635.216          48.300
                  21984680.656    90023594.403 8     -1274.188          39.100

  23348467.961                   122697048.179 6      1699.352          43.900
                  23348474.332    95608096.953 7      1324.171          30.200

  20075961.117                   105499949.960 7      -104.176          49.900
                  20075967.344    82207748.627 9       -81.178          43.800

  21804286.266                   114582256.811 7      2101.702          48.200
                  21804293.438    89284941.958 8      1637.692          37.900

  23687292.328                   124477537.858 5     -2330.339          41.500
                  23687299.090    96995518.398 6     -1815.849          24.400

  23675991.930                   124418141.439 5      2742.502          40.100
                  23675997.031    96949262.056 6      2137.011          24.300

  24039609.008                   126328950.350 3     -2964.005          36.700
                  24039619.926    98438179.544 6     -2309.616          24.300

  21867423.688                   114914087.462 7      2547.745          51.700
                  21867430.563    89543483.881 9      1985.260          41.100

  21028518.273                   110505544.688 8     -1755.663          53.500
                  21028526.969    86108305.019 9     -1368.042          45.200

 18  7  1  0  9 20.0000000  0 11G01G08G10G11G14G18G20G22G27G31G32
  23479600.109                   123386144.076 5      3223.859          40.800
                  23479610.082    96145078.645 7      2512.104          26.500

  23510817.750                   123550145.474 6     -2093.662          44.900
                  23510826.043    96272881.418 7     -1631.431          27.500

  21986227.469                   115538396.884 7     -1636.183          48.500
                  21986237.203    90029967.620 8     -1274.953          38.600

  23346852.492                   122688557.802 6      1697.200          44.100
                  23346858.949    95601481.078 7      1322.500          30.100

  20076061.586                   105500478.112 7      -106.619          49.600
                  20076067.773    82208160.174 9       -83.078          43.500

  21802287.430                   114571754.545 6      2099.607          47.000
                  21802294.332    89276758.374 8      1636.052          38.100

  23689509.203                   124489191.793 5     -2331.093          40.700
                  23689516.883    97004599.382 6     -1816.448          24.600

  23673382.234                   124404429.044 4      2742.473          38.700
                  23673388.891    96938577.093 6      2136.979          24.800

  24042428.625                   126343770.320 3     -2963.999          36.700
                  24042440.078    98449727.549 6     -2309.611          23.500

  21865000.414                   114901354.297 7      2545.868          51.400
                  21865006.934    89533561.935 8      1983.792          40.900

  21030189.867                   110514327.199 8     -1757.086          52.800
                  21030198.555    86115148.534 9     -1369.159          44.900

 18  7  1  0  9 25.0000000  0 11G01G08G10G11G14G18G20G22G27G31G32
  23476532.383                   123370028.453 5      3222.660          40.700
                  23476543.367    96132521.017 7      2511.167          27.600

  23512810.484                   123560618.717 6     -2095.300          43.900
                  23512818.668    96281042.388 7     -1632.697          27.500

  21987784.766                   115546580.962 6     -1637.234          46.400
                  21987794.258    90036344.820 8     -1275.766          38.700

  23345238.859                   122680078.665 6      1694.932          44.600
                  23345245.402    95594873.960 7      1320.727          30.200

  20076164.289                   105501018.867 7      -109.155          50.300
                  20076170.867    82208581.548 9       -85.062          44.100

  21800291.031                   114561263.081 7      2097.415          47.200
                  21800298.688    89268583.211 8      1634.344          38.100

  23691727.539                   124500849.865 5     -2331.949          41.200
                  23691735.008    97013683.594 6     -1817.118          25.300

  23670774.555                   124390717.207 5      2742.295          39.200
                  23670780.238    96927892.609 6      2136.836          24.900

  24045249.344                   126358590.324 3     -2964.024          37.000
                  24045260.793    98461275.605 6     -2309.619          24.000

  21862579.625                   114888630.898 7      2543.906          51.600
                  21862585.863    89523647.603 8      1982.263          40.800

  21031862.102                   110523117.132 8     -1758.594          52.800
                  21031870.922    86121997.831 9     -1370.332          44.700

 18  7  1  0  9 30.0000000  0 11G01G08G10G11G14G18G20G22G27G31G32
  23473467.148                   123353918.700 5      3221.460          40.600
                  23473477.715    96119967.965 7      2510.226          27.400

  23514805.516                   123571099.948 6     -2096.904          43.800
                  23514814.086    96289209.595 7     -1633.961          28.400

  21989343.438                   115554770.060 7     -1638.244          47.500
                  21989352.809    90042725.926 8     -1276.550          38.900

  23343627.688                   122671610.605 6      1692.703          44.800
                  23343633.723    95588275.475 7      1318.986          29.300

  20076269.594                   105501572.134 7      -111.667          49.800
                  20076276.074    82209012.664 9       -87.013          43.700

  21798296.898                   114550782.350 7      2095.269          47.900
                  21798303.793    89260416.400 8      1632.675          37.400

  23693946.875                   124512511.990 5     -2332.755          40.600
                  23693954.461    97022770.940 6     -1817.741          24.200

  23668165.102                   124377005.771 5      2742.234          40.300
                  23668171.379    96917208.366 7      2136.814          26.200

  24048070.148                   126373410.251 3     -2963.989          36.600
                  24048080.555    98472823.604 6     -2309.604          25.200

  21860160.297                   114875917.129 7      2541.983          50.700
                  21860166.617    89513740.768 9      1980.766          41.400

  21033536.344                   110531914.348 8     -1760.046          52.600
                  21033545.105    86128852.808 9     -1371.469          44.900

 18  7  1  0  9 35.0000000  0 11G01G08G10G11G14G18G20G22G27G31G32
  23470403.383                   123337814.836 5      3220.320          40.700
                  23470412.820    96107419.510 7      2509.351          26.500

  23516801.227                   123581589.145 6     -2098.487          43.700
                  23516810.676    96297382.990 7     -1635.176          28.600

  21990902.516                   115562964.198 7     -1639.230          47.600
                  21990912.105    90049110.967 8     -1277.320          39.000

  23342018.016                   122663153.674 6      1690.499          44.600
                  23342024.551    95581685.655 7      1317.272          29.500

  20076377.266                   105502137.916 7      -114.164          48.700
                  20076383.590    82209453.529 9       -88.953          43.600

  21796304.406                   114540312.442 7      2093.119          48.000
                  21796311.715    89252258.031 8      1631.005          37.700

  23696167.352                   124524178.205 5     -2333.579          41.500
                  23696174.652    97031861.490 6     -1818.356          24.800

  23665556.195                   124363294.859 5      2742.138          41.300
                  23665562.078    96906524.550 6      2136.722          26.000

  24050889.953                   126388230.146 4     -2963.950          37.100
                  24050900.961    98484371.561 6     -2309.558          24.500

  21857742.430                   114863213.022 7      2540.050          51.100
                  21857749.082    89503841.466 8      1979.265          40.900

  21035211.719                   110540718.901 8     -1761.496          52.500
                  21035220.910    86135713.497 9     -1372.591          45.300

 18  7  1  0  9 40.0000000  0 11G01G08G10G11G14G18G20G22G27G31G32
  23467339.914                   123321716.904 5      3219.120          40.500
                  23467349.832    96094875.666 6      2508.398          25.900

  23518798.531                   123592086.283 6     -2100.055          43.000
                  23518808.000    96305562.586 7     -1636.412          28.800

  21992462.563                   115571163.384 7     -1640.243          47.500
                  21992472.211    90055499.947 8     -1278.115          38.900

  23340411.086                   122654707.900 6      1688.274          44.600
                  23340417.504    95575104.536 7      1315.534          30.400

  20076487.297                   105502716.233 7      -116.669          47.600
                  20076493.637    82209904.175 9       -90.918          43.900

  21794314.094                   114529853.335 7      2090.972          48.500
                  21794321.367    89244108.077 8      1629.326          38.100

  23698387.750                   124535848.482 5     -2334.380          41.000
                  23698394.867    97040955.210 6     -1818.992          25.000

  23662946.273                   124349584.367 5      2742.063          42.000
                  23662952.125    96895841.040 6      2136.681          25.800

  24053710.148                   126403050.016 3     -2963.966          36.700
                  24053721.125    98495919.485 6     -2309.577          22.600

  21855326.891                   114850518.574 7      2538.120          51.500
                  21855333.512    89493949.689 8      1977.755          40.900

  21036888.516                   110549530.767 8     -1762.950          52.600
                  21036897.484    86142579.884 9     -1373.729          44.900

 18  7  1  0  9 45.0000000  0 11G01G08G10G11G14G18G20G22G27G31G32
  23464277.609                   123305624.956 5      3217.883          41.300
                  23464288.125    96082336.493 7      2507.440          27.200

  23520797.930                   123602591.427 6     -2101.672          42.400
                  23520807.680    96313748.412 7     -1637.665          26.600

  21994023.781                   115579367.668 6     -1641.263          46.800
                  21994033.824    90061892.889 8     -1278.902          38.700

  23338806.164                   122646273.341 6      1686.011          43.700
                  23338812.449    95568532.150 7      1313.773          30.900

  20076600.000                   105503307.108 7      -119.194          47.400
                  20076606.164    82210364.595 9       -92.883          43.200

  21792325.648                   114519405.072 7      2088.781          48.300
                  21792333.082    89235966.574 8      1627.623          37.700

  23700609.211                   124547522.920 5     -2335.203          40.800
                  23700616.723    97050052.178 6     -1819.641          24.800

  23660337.836                   124335874.382 5      2741.973          40.600
                  23660342.512    96885157.897 6      2136.602          24.700

  24056529.305                   126417869.807 3     -2963.948          35.800
                  24056540.625    98507467.363 6     -2309.552          24.400

  21852913.344                   114837833.853 7      2536.161          50.800
                  21852919.363    89484065.493 9      1976.229          41.500

  21038566.766                   110558349.982 8     -1764.447          52.500
                  21038575.809    86149451.998 9     -1374.897          45.100

 18  7  1  0  9 50.0000000  0 11G01G08G10G11G14G18G20G22G27G31G32
  23461216.648                   123289538.844 5      3216.732          41.600
                  23461226.535    96069801.853 7      2506.559          27.900

  23522798.156                   123613104.375 6     -2103.215          42.700
                  23522807.699    96321940.311 7     -1638.870          28.200

  21995585.953                   115587576.920 6     -1642.282          46.000
                  21995595.207    90068289.701 8     -1279.699          38.800

  23337203.383                   122637849.842 6      1683.792          44.000
                  23337209.316    95561968.378 7      1312.046          30.000

  20076714.656                   105503910.397 7      -121.672          48.600
                  20076721.363    82210834.686 9       -94.810          43.800

  21790339.508                   114508967.659 7      2086.611          48.800
                  21790347.004    89227833.521 8      1625.936          38.000

  23702831.555                   124559201.351 5     -2336.027          40.900
                  23702838.871    97059152.232 6     -1820.284          25.000

  23657728.055                   124322164.813 4      2741.861          38.600
                  23657732.758    96874475.122 6      2136.526          22.900

  24059349.469                   126432689.455 3     -2963.937          35.700
                  24059360.922    98519015.135 6     -2309.557          23.400

  21850501.086                   114825158.740 7      2534.232          51.400
                  21850507.672    89474188.783 9      1974.732          41.800

  21040246.539                   110567176.382 7     -1765.874          51.400
                  21040255.559    86156329.709 9     -1376.006          44.700

 18  7  1  0  9 55.0000000  0 11G01G08G10G11G14G18G20G22G27G31G32
  23458156.898                   123273458.859 5      3215.481          41.100
                  23458166.602    96057271.996 7      2505.567          27.300

  23524799.773                   123623625.331 6     -2104.846          42.400
                  23524809.953    96330138.450 7     -1640.141          28.200

  21997149.219                   115595791.340 6     -1643.317          46.200
                  21997159.043    90074690.552 8     -1280.511          39.300

  23335601.859                   122629437.687 6      1681.520          43.900
                  23335608.301    95555413.454 7      1310.284          30.600

  20076831.844                   105504526.323 7      -124.220          48.700
                  20076838.242    82211314.632 9       -96.794          43.400

  21788355.352                   114498541.113 7      2084.407          48.500
                  21788362.750    89219708.935 8      1624.220          37.700

  23705054.852                   124570884.016 5     -2336.902          40.600
                  23705062.027    97068255.614 6     -1820.970          24.400

  23655120.039                   124308455.798 4      2741.750          38.100
                  23655124.090    96863792.786 6      2136.439          24.700

  24062169.938                   126447509.134 3     -2963.960          36.000
                  24062180.652    98530562.937 6     -2309.586          22.900

  21848091.031                   114812493.488 7      2532.252          51.500
                  21848097.348    89464319.761 8      1973.183          40.800

  21041927.609                   110576010.224 8     -1767.379          52.800
                  21041936.270    86163213.220 9     -1377.177          44.700

 18  7  1  0 10  0.0000000  0 11G01G08G10G11G14G18G20G22G27G31G32
  23455097.258                   123257384.768 5      3214.326          41.100
                  23455107.508    96044746.728 7      2504.663          27.000

  23526803.789                   123634154.161 5     -2106.436          41.700
                  23526813.840    96338342.727 7     -1641.373          27.200

  21998713.141                   115604010.747 6     -1644.298          46.800
                  21998722.977    90081095.280 8     -1281.271          39.200

  23334003.469                   122621036.597 6      1679.321          44.000
                  23334009.859    95548867.149 7      1308.578          29.700

  20076951.445                   105505154.688 7      -126.683          49.100
                  20076957.621    82211804.272 9       -98.715          43.400

  21786373.602                   114488125.391 7      2082.257          48.000
                  21786380.496    89211592.796 8      1622.543          37.600

  23707278.586                   124582570.682 5     -2337.676          40.900
                  23707286.168    97077362.101 6     -1821.573          23.900

  23652512.422                   124294747.203 5      2741.643          39.400
                  23652516.336    96853110.797 6      2136.350          25.300

  24064990.789                   126462328.577 3     -2963.868          36.500
                  24065000.977    98542110.548 6     -2309.520          22.800

  21845682.602                   114799837.880 7      2530.335          51.200
                  21845689.047    89454458.246 8      1971.693          41.000

  21043610.211                   110584851.251 8     -1768.804          53.000
                  21043618.809    86170102.327 9     -1378.284          45.200

 18  7  1  0 10  5.0000000  0 11G01G08G10G11G14G18G20G22G27G31G32
  23452040.141                   123241316.660 5      3213.117          39.800
                  23452049.836    96032226.123 7      2503.724          27.500

  23528808.313                   123644690.902 5     -2107.999          41.300
                  23528818.949    96346553.181 7     -1642.606          27.700

  22000278.422                   115612235.255 7     -1645.345          47.600
                  22000287.730    90087503.978 8     -1282.087          39.000

  23332406.844                   122612646.748 6      1677.060          44.500
                  23332413.594    95542329.613 7      1306.798          29.900

  20077073.391                   105505795.573 7      -129.213          49.300
                  20077079.766    82212303.662 9      -100.684          44.100

  21784393.188                   114477720.515 7      2080.067          48.200
                  21784400.652    89203485.099 8      1620.836          37.600

  23709503.344                   124594261.428 5     -2338.508          41.600
                  23709511.035    97086471.761 6     -1822.206          24.700

  23649903.766                   124281039.124 5      2741.526          41.200
                  23649908.238    96842429.171 7      2136.254          27.000

  24067810.219                   126477148.018 3     -2963.873          36.800
                  24067821.230    98553658.136 6     -2309.496          24.500

  21843276.406                   114787192.046 7      2528.368          50.500
                  21843282.941    89444604.354 8      1970.154          40.500

  21045293.828                   110593699.586 8     -1770.286          53.400
                  21045302.750    86176997.133 9     -1379.443          44.800

 18  7  1  0 10 10.0000000  0 11G01G08G10G11G14G18G20G22G27G31G32
  23448983.648                   123225254.556 5      3211.945          40.400
                  23448993.340    96019710.227 7      2502.805          26.300

  23530815.242                   123655235.529 5     -2109.548          40.900
                  23530825.793    96354769.755 7     -1643.793          29.100

  22001844.625                   115620464.792 7     -1646.307          48.400
                  22001854.152    90093916.604 8     -1282.837          38.900

  23330812.695                   122604268.051 6      1674.855          43.900
                  23330818.953    95535800.749 7      1305.085          30.500

  20077197.695                   105506448.912 7      -131.660          50.000
                  20077203.742    82212812.756 9      -102.589          43.600

  21782415.359                   114467326.572 6      2077.926          47.000
                  21782422.441    89195385.916 8      1619.169          37.600

  23711729.125                   124605956.250 5     -2339.271          40.800
                  23711736.742    97095584.622 7     -1822.820          26.300

  23647295.063                   124267331.532 5      2741.494          41.600
                  23647300.641    96831747.940 7      2136.229          26.700

  24070629.750                   126491967.215 3     -2963.802          36.900
                  24070640.645    98565205.553 6     -2309.444          23.800

  21840871.852                   114774555.946 7      2526.442          51.300
                  21840877.910    89434758.040 8      1968.653          40.700

  21046978.930                   110602555.165 8     -1771.688          53.200
                  21046987.883    86183897.588 9     -1380.534          44.800

 18  7  1  0 10 15.0000000  0 11G01G08G10G11G14G18G20G22G27G31G32
  23445928.320                   123209198.471 5      3210.735          40.800
                  23445937.945    96007198.981 7      2501.873          28.300

  23532822.844                   123665787.995 5     -2111.143          41.700
                  23532833.617    96362992.467 7     -1645.063          27.600

  22003411.094                   115628699.385 7     -1647.334          48.600
                  22003420.953    90100333.162 8     -1283.627          38.900

  23329220.523                   122595900.590 6      1672.594          43.700
                  23329226.875    95529280.664 7      1303.313          29.500

  20077324.313                   105507114.763 7      -134.183          49.800
                  20077330.781    82213331.606 9      -104.558          43.800

  21780439.797                   114456943.449 7      2075.761          47.600
                  21780446.961    89187295.185 8      1617.476          37.600

  23713955.398                   124617655.190 5     -2340.121          41.000
                  23713962.398    97104700.647 6     -1823.456          24.400

  23644685.305                   124253624.419 5      2741.393          41.600
                  23644691.844    96821067.064 7      2136.158          26.200

  24073450.422                   126506786.239 4     -2963.770          37.400
                  24073461.152    98576752.840 6     -2309.433          23.900

  21838468.969                   114761929.608 7      2524.481          51.100
                  21838475.410    89424919.335 8      1967.130          40.600

  21048665.336                   110611417.974 8     -1773.139          53.200
                  21048674.609    86190803.666 9     -1381.663          44.900

 18  7  1  0 10 20.0000000  0 11G01G08G10G11G14G18G20G22G27G31G32
  23442874.383                   123193148.378 5      3209.533          40.900
                  23442883.883    95994692.410 7      2500.939          26.900

  23534832.602                   123676348.359 5     -2112.697          40.400
                  23534843.484    96371221.309 7     -1646.256          28.300

  22004979.500                   115636939.015 6     -1648.330          46.600
                  22004988.668    90106753.652 8     -1284.412          39.200

  23327630.719                   122587544.273 6      1670.369          44.300
                  23327636.555    95522769.247 7      1301.591          29.600

  20077453.766                   105507793.062 7      -136.646          49.800
                  20077459.910    82213860.151 9      -106.478          44.200

  21778465.984                   114446571.186 7      2073.561          47.500
                  21778473.164    89179212.911 8      1615.751          37.500

  23716182.430                   124629358.179 5     -2340.905          41.100
                  23716189.543    97113819.849 6     -1824.067          24.800

  23642077.656                   124239917.731 5      2741.299          40.300
                  23642083.000    96810386.523 6      2136.080          25.100

  24076270.422                   126521605.111 4     -2963.740          37.700
                  24076280.566    98588300.003 6     -2309.409          22.500

  21836068.219                   114749313.053 7      2522.545          50.200
                  21836074.703    89415088.253 9      1965.622          41.100

  21050353.281                   110620288.017 8     -1774.574          52.600
                  21050362.488    86197715.392 9     -1382.783          44.800

 18  7  1  0 10 25.0000000  0 11G01G08G10G11G14G18G20G22G27G31G32
  23439821.266                   123177104.304 5      3208.360          41.900
                  23439830.785    95982190.544 7      2500.025          28.500

  23536843.688                   123686916.593 5     -2114.262          40.500
                  23536854.520    96379456.287 7     -1647.468          28.600

  22006548.281                   115645183.721 6     -1649.338          46.300
                  22006558.086    90113178.098 8     -1285.202          38.800

  23326041.930                   122579199.187 6      1668.145          44.600
                  23326048.676    95516266.576 7      1299.854          30.700

  20077584.539                   105508483.832 7      -139.140          49.500
                  20077591.133    82214398.415 9      -108.419          43.900

  21776494.234                   114436209.895 7      2071.397          47.500
                  21776501.609    89171139.173 8      1614.077          37.800

  23718410.055                   124641065.326 5     -2341.742          41.300
                  23718417.340    97122942.302 6     -1824.740          24.500

  23639469.039                   124226211.503 5      2741.238          39.400
                  23639474.285    96799706.352 6      2136.022          22.800

  24079089.609                   126536423.781 4     -2963.700          37.100
                  24079100.664    98599847.025 6     -2309.382          23.500

  21833669.203                   114736706.286 7      2520.586          50.300
                  21833675.695    89405264.796 9      1964.091          41.100

  21052042.695                   110629165.293 7     -1776.020          51.600
                  21052051.891    86204632.747 9     -1383.907          45.000

 18  7  1  0 10 30.0000000  0 11G01G08G10G11G14G18G20G22G27G31G32
  23436769.273                   123161066.317 5      3207.112          42.000
                  23436779.180    95969693.415 7      2499.051          27.100

  23538856.250                   123697492.647 5     -2115.841          40.300
                  23538866.988    96387697.365 7     -1648.702          26.800

  22008117.945                   115653433.473 6     -1650.339          46.300
                  22008128.000    90119606.466 8     -1285.973          39.800

  23324456.539                   122570865.370 6      1665.861          44.000
                  23324463.410    95509772.697 7      1298.075          29.800

  20077718.805                   105509187.044 7      -141.634          49.800
                  20077725.289    82214946.369 9      -110.362          44.300

  21774524.648                   114425859.461 7      2069.197          47.600
                  21774532.199    89163073.896 8      1612.358          38.100

  23720638.633                   124652776.534 5     -2342.559          41.200
                  23720645.660    97132067.925 6     -1825.374          24.600

  23636861.859                   124212505.772 5      2741.120          39.500
                  23636865.266    96789026.580 6      2135.943          24.900

  24081910.023                   126551242.222 4     -2963.640          37.100
                  24081920.516    98611393.838 6     -2309.327          23.500

  21831272.281                   114724109.305 7      2518.608          49.800
                  21831278.520    89395448.967 8      1962.557          41.000

  21053733.250                   110638049.785 7     -1777.468          50.300
                  21053742.039    86211555.725 9     -1385.037          44.900

 18  7  1  0 10 35.0000000  0 11G01G08G10G11G14G18G20G22G27G31G32
  23433718.672                   123145034.440 5      3205.835          41.100
                  23433728.715    95957201.040 7      2498.057          28.500

  23540870.336                   123708076.482 5     -2117.404          40.100
                  23540881.203    96395944.494 7     -1649.916          28.300

  22009688.875                   115661688.353 6     -1651.406          46.100
                  22009698.762    90126038.840 8     -1286.811          39.200

  23322872.148                   122562542.812 6      1663.594          44.200
                  23322879.141    95503287.590 7      1296.295          30.200

  20077855.047                   105509902.744 7      -144.147          49.600
                  20077861.207    82215504.060 9      -112.318          44.300

  21772557.164                   114415519.972 7      2066.997          48.300
                  21772564.633    89155017.155 8      1610.648          37.600

  23722868.102                   124664491.910 5     -2343.439          42.000
                  23722875.195    97141196.785 6     -1826.077          25.200

  23634254.383                   124198800.601 5      2740.968          41.700
                  23634257.207    96778347.238 7      2135.814          26.100

  24084729.781                   126566060.554 4     -2963.639          37.900
                  24084740.027    98622940.582 6     -2309.326          22.800

  21828876.828                   114711522.131 7      2516.626          51.000
                  21828883.680    89385640.785 8      1961.006          40.900

  21055425.164                   110646941.552 7     -1778.953          50.500
                  21055434.180    86218484.376 9     -1386.200          45.000

 18  7  1  0 10 40.0000000  0 11G01G08G10G11G14G18G20G22G27G31G32
  23430668.430                   123129008.529 5      3204.702          41.400
                  23430678.820    95944713.329 7      2497.171          26.400

  23542885.234                   123718667.984 5     -2118.974          40.500
                  23542896.680    96404197.620 7     -1651.156          26.800

  22011260.914                   115669948.246 6     -1652.409          46.200
                  22011270.605    90132475.117 8     -1287.589          38.900

  23321290.914                   122554231.431 6      1661.338          43.900
                  23321297.539    95496811.186 7      1294.550          29.600

  20077993.930                   105510630.894 7      -146.654          48.200
                  20077999.988    82216071.450 9      -114.278          44.300

  21770591.695                   114405191.451 7      2064.797          48.200
                  21770598.902    89146968.964 8      1608.928          37.600

  23725098.523                   124676211.312 5     -2344.261          41.400
                  23725105.855    97150328.764 7     -1826.694          26.400

  23631646.617                   124185095.915 5      2740.882          41.800
                  23631650.582    96767668.228 7      2135.747          27.000

  24087549.633                   126580878.574 4     -2963.616          37.600
                  24087560.254    98634487.091 6     -2309.327          21.800

  21826483.523                   114698944.758 7      2514.654          51.400
                  21826489.996    89375840.226 9      1959.476          41.300

  21057118.734                   110655840.457 7     -1780.373          51.100
                  21057127.688    86225418.579 9     -1387.299          44.900

 18  7  1  0 10 45.0000000  0 11G01G08G10G11G14G18G20G22G27G31G32
  23427619.961                   123112988.775 5      3203.439          41.700
                  23427630.074    95932230.406 7      2496.181          26.600

  23544901.875                   123729267.373 5     -2120.531          40.300
                  23544912.902    96412456.883 7     -1652.365          27.600

  22012833.633                   115678213.231 6     -1653.443          46.100
                  22012843.465    90138915.361 8     -1288.389          39.500

  23319711.656                   122545931.299 6      1659.078          43.600
                  23319717.996    95490343.552 7      1292.781          29.900

  20078134.695                   105511371.465 7      -149.139          48.500
                  20078140.813    82216648.521 9      -116.212          43.800

  21768628.125                   114394873.841 7      2062.621          48.100
                  21768635.301    89138929.264 8      1607.232          37.600

  23727329.031                   124687934.814 5     -2345.054          41.400
                  23727336.547    97159463.940 6     -1827.301          25.400

  23629037.586                   124171391.744 5      2740.761          41.500
                  23629042.984    96756989.638 7      2135.667          26.100

  24090369.047                   126595696.353 4     -2963.558          38.200
                  24090380.074    98646033.401 6     -2309.275          24.700

  21824092.039                   114686377.231 7      2512.683          50.700
                  21824098.430    89366047.350 9      1957.938          41.200

  21058813.445                   110664746.590 7     -1781.823          50.800
                  21058822.605    86232358.424 9     -1388.436          44.800

 18  7  1  0 10 50.0000000  0 11G01G08G10G11G14G18G20G22G27G31G32
  23424572.453                   123096975.084 5      3202.278          41.000
                  23424581.984    95919752.211 7      2495.273          27.400

  23546920.227                   123739874.545 5     -2122.095          39.700
                  23546931.594    96420722.192 7     -1653.572          27.900

  22014407.063                   115686483.239 6     -1654.406          46.100
                  22014416.840    90145359.520 8     -1289.144          38.700

  23318134.211                   122537642.394 6      1656.869          44.000
                  23318140.383    95483884.662 7      1291.061          30.200

  20078277.789                   105512124.412 7      -151.579          49.100
                  20078284.176    82217235.234 9      -118.113          43.900

  21766666.789                   114384567.168 7      2060.468          48.200
                  21766674.383    89130898.091 8      1605.553          38.100

  23729560.914                   124699662.379 5     -2345.843          41.100
                  23729567.668    97168602.301 6     -1827.922          24.500

  23626429.477                   124157687.969 5      2740.729          41.100
                  23626435.531    96746311.382 7      2135.626          26.700

  24093189.461                   126610513.880 4     -2963.485          38.100
                  24093199.184    98657579.494 6     -2309.201          23.000

  21821702.250                   114673819.499 7      2510.750          50.800
                  21821708.691    89356262.107 9      1956.430          41.300

  21060509.578                   110673659.874 7     -1783.226          50.300
                  21060518.563    86239303.836 9     -1389.519          44.900

 18  7  1  0 10 55.0000000  0 11G01G08G10G11G14G18G20G22G27G31G32
  23421526.523                   123080967.549 5      3201.017          40.200
                  23421535.887    95907278.785 7      2494.314          26.700

  23548940.414                   123750489.478 5     -2123.608          39.900
                  23548951.754    96428993.553 7     -1654.766          27.500

  22015981.922                   115694758.424 6     -1655.460          46.100
                  22015991.309    90151807.711 8     -1289.968          39.000

  23316559.164                   122529364.822 6      1654.610          44.500
                  23316565.480    95477434.616 7      1289.297          29.700

  20078423.344                   105512889.886 7      -154.080          49.400
                  20078429.996    82217831.708 9      -120.066          43.400

  21764707.648                   114374271.502 7      2058.238          48.100
                  21764714.816    89122875.491 8      1603.823          37.900

  23731793.438                   124711394.095 5     -2346.665          41.600
                  23731800.504    97177743.904 6     -1828.577          24.700

  23623821.766                   124143984.743 5      2740.604          39.200
                  23623827.688    96735633.569 6      2135.519          25.500

  24096009.180                   126625331.178 4     -2963.429          37.700
                  24096019.078    98669125.464 6     -2309.162          22.600

  21819314.438                   114661271.714 7      2508.768          51.300
                  21819320.996    89346484.618 9      1954.880          41.100

  21062207.086                   110682580.404 7     -1784.685          51.200
                  21062216.215    86246254.903 9     -1390.665          44.600

 18  7  1  0 11  0.0000000  0 11G01G08G10G11G14G18G20G22G27G31G32
  23418481.297                   123064966.074 5      3199.812          40.700
                  23418491.453    95894810.127 7      2493.342          26.900

  23550961.625                   123761112.116 5     -2125.154          40.800
                  23550973.551    96437270.928 7     -1655.958          28.900

  22017558.117                   115703038.555 6     -1656.436          46.600
                  22017567.754    90158259.761 8     -1290.724          38.900

  23314985.742                   122521098.442 6      1652.376          44.600
                  23314992.723    95470993.269 7      1287.572          30.700

  20078571.703                   105513667.731 7      -156.556          49.800
                  20078577.871    82218437.824 9      -121.993          44.000

  21762750.461                   114363986.777 7      2056.067          48.400
                  21762757.492    89114861.424 8      1602.126          37.900

  23734027.117                   124723129.841 5     -2347.476          41.400
                  23734033.430    97186888.617 6     -1829.188          25.400

  23621215.297                   124130281.967 5      2740.512          40.500
                  23621219.434    96724956.102 6      2135.452          25.000

  24098828.586                   126640148.101 4     -2963.337          38.100
                  24098838.637    98680671.111 6     -2309.087          24.300

  21816928.438                   114648733.687 7      2506.828          50.000
                  21816935.039    89336714.724 8      1953.368          40.900

  21063905.813                   110691508.009 8     -1786.082          53.000
                  21063915.301    86253211.470 9     -1391.753          45.000

 18  7  1  0 11  5.0000000  0 11G01G08G10G11G14G18G20G22G27G31G32
  23415437.680                   123048970.787 5      3198.567          40.800
                  23415447.863    95882346.267 7      2492.393          26.900

  23552984.734                   123771742.512 5     -2126.681          41.100
                  23552996.305    96445554.332 7     -1657.137          28.000

  22019134.305                   115711323.837 6     -1657.476          46.400
                  22019143.711    90164715.823 8     -1291.535          38.900

  23313415.281                   122512843.386 6      1650.104          44.700
                  23313422.168    95464560.765 7      1285.797          29.500

  20078721.836                   105514458.081 7      -159.064          50.000
                  20078728.105    82219053.682 9      -123.948          43.600

  21760795.242                   114353713.074 7      2053.862          47.600
                  21760802.742    89106855.935 8      1600.407          37.800

  23736260.516                   124734869.701 5     -2348.298          41.100
                  23736268.027    97196036.578 6     -1829.848          25.300

  23618608.125                   124116579.825 5      2740.390          40.200
                  23618611.543    96714279.093 6      2135.366          25.900

  24101648.023                   126654964.834 4     -2963.340          38.500
                  24101658.164    98692216.598 6     -2309.085          22.300

  21814544.492                   114636205.644 7      2504.809          51.000
                  21814551.227    89326952.612 8      1951.795          40.900

  21065606.211                   110700442.865 8     -1787.544          53.000
                  21065615.227    86260173.697 9     -1392.893          44.600

 18  7  1  0 11 10.0000000  0 11G01G08G10G11G14G18G20G22G27G31G32
  23412395.211                   123032981.619 5      3197.351          40.500
                  23412405.711    95869887.175 7      2491.446          27.700

  23555009.539                   123782380.621 5     -2128.264          41.100
                  23555020.340    96453843.770 7     -1658.389          28.500

  22020711.898                   115719614.182 7     -1658.496          47.500
                  22020721.469    90171175.830 8     -1292.334          39.100

  23311846.492                   122504599.562 6      1647.838          44.200
                  23311853.332    95458136.996 7      1284.045          29.500

  20078874.594                   105515260.797 7      -161.549          49.400
                  20078880.676    82219679.174 9      -125.886          43.900

  21758842.414                   114343450.342 7      2051.657          47.500
                  21758849.570    89098859.001 8      1598.695          36.900

  23738495.594                   124746613.625 5     -2349.129          41.400
                  23738502.941    97205187.672 6     -1830.501          25.200

  23616000.906                   124102878.175 5      2740.270          41.100
                  23616004.559    96703602.468 6      2135.287          25.600

  24104467.953                   126669781.223 4     -2963.289          38.600
                  24104477.664    98703761.831 6     -2309.046          23.000

  21812162.297                   114623687.450 7      2502.843          50.400
                  21812169.188    89317198.174 8      1950.266          40.900

  21067307.914                   110709384.819 8     -1788.979          53.000
                  21067316.996    86267141.451 9     -1394.013          44.200

 18  7  1  0 11 15.0000000  0 11G01G08G10G11G14G18G20G22G27G31G32
  23409353.797                   123016998.652 5      3196.062          40.900
                  23409364.660    95857432.933 7      2490.448          27.400

  23557034.922                   123793026.359 5     -2129.782          41.400
                  23557046.262    96462139.142 7     -1659.562          27.900

  22022290.367                   115727909.602 7     -1659.526          47.200
                  22022300.180    90177639.793 8     -1293.138          38.800

  23310279.914                   122496367.030 6      1645.554          44.500
                  23310286.449    95451722.042 7      1282.242          29.900

  20079029.672                   105516075.932 7      -164.075          49.400
                  20079036.074    82220314.346 9      -127.852          43.500

  21756891.664                   114333198.593 7      2049.415          47.400
                  21756899.047    89090870.631 8      1596.946          37.400

  23740731.742                   124758361.658 6     -2349.964          42.500
                  23740738.504    97214341.977 6     -1831.134          25.600

  23613393.195                   124089177.087 5      2740.135          41.200
                  23613396.973    96692926.275 6      2135.171          25.800

  24107287.461                   126684597.283 4     -2963.254          38.000
                  24107297.027    98715306.809 6     -2309.030          23.900

  21809782.266                   114611179.165 7      2500.821          50.500
                  21809788.754    89307451.457 8      1948.694          40.800

  21069010.703                   110718333.955 8     -1790.432          53.400
                  21069019.738    86274114.803 9     -1395.144          44.100

 18  7  1  0 11 20.0000000  0 11G01G08G10G11G14G18G20G22G27G31G32
  23406313.742                   123001021.806 5      3194.908          40.500
                  23406324.133    95844983.446 7      2489.532          28.000

  23559062.625                   123803679.767 5     -2131.252          41.100
                  23559074.180    96470440.494 7     -1660.713          28.400

  22023870.016                   115736210.073 7     -1660.465          47.300
                  22023879.508    90184107.690 8     -1293.869          38.400

  23308715.563                   122488145.680 6      1643.413          44.000
                  23308722.020    95445315.802 7      1280.581          30.200

  20079187.047                   105516903.413 7      -166.466          50.500
                  20079193.508    82220959.132 9      -129.709          43.800

  21754943.086                   114322957.863 7      2047.269          48.100
                  21754950.391    89082890.838 8      1595.277          38.200

  23742967.531                   124770113.747 5     -2350.716          41.800
                  23742974.914    97223499.439 6     -1831.716          26.000

  23610784.711                   124075476.525 5      2740.076          40.900
                  23610790.777    96682250.506 6      2135.116          25.700

  24110106.508                   126699412.954 4     -2963.082          37.900
                  24110116.309    98726851.488 6     -2308.916          23.400

  21807403.898                   114598680.764 7      2498.912          49.900
                  21807410.301    89297712.447 8      1947.206          40.900

  21070714.734                   110727290.177 8     -1791.788          52.700
                  21070724.168    86281093.671 9     -1396.195          44.100

 18  7  1  0 11 25.0000000  0 11G01G08G10G11G14G18G20G22G27G31G32
  23403273.758                   122985051.217 5      3193.652          40.500
                  23403284.598    95832538.821 7      2488.564          27.100

  23561091.438                   123814340.933 5     -2132.795          41.700
                  23561102.793    96478747.889 7     -1661.923          29.100

  22025450.500                   115744515.652 6     -1661.455          46.000
                  22025460.113    90190579.567 8     -1294.638          39.000

  23307153.047                   122479935.706 6      1641.144          44.700
                  23307159.281    95438918.417 7      1278.809          30.200

  20079347.133                   105517743.305 7      -168.925          50.200
                  20079353.242    82221613.600 9      -131.626          43.700

  21752996.258                   114312728.233 7      2045.094          48.100
                  21753003.965    89074919.698 8      1593.581          38.300

  23745204.375                   124781869.918 6     -2351.502          42.300
                  23745212.047    97232660.075 6     -1832.322          25.900

  23608177.523                   124061776.460 5      2739.994          39.500
                  23608183.625    96671575.156 7      2135.057          26.400

  24112925.547                   126714228.305 4     -2963.005          38.300
                  24112935.637    98738395.897 6     -2308.835          22.600

  21805027.328                   114586192.362 7      2496.926          49.400
                  21805034.191    89287981.223 8      1945.654          40.900

  21072420.563                   110736253.556 7     -1793.210          51.500
                  21072429.668    86288078.122 9     -1397.307          45.000

 18  7  1  0 11 30.0000000  0 11G01G08G10G11G14G18G20G22G27G31G32
  23400236.234                   122969086.796 5      3192.396          40.100
                  23400245.914    95820099.023 7      2487.575          27.900

  23563121.805                   123825009.729 6     -2134.337          42.500
                  23563132.621    96487061.214 7     -1663.109          28.500

  22027032.156                   115752826.331 6     -1662.497          46.300
                  22027041.711    90197055.413 8     -1295.451          38.800

  23305592.727                   122471737.020 6      1638.883          44.500
                  23305599.301    95432529.827 7      1277.050          29.900

  20079509.336                   105518595.614 7      -171.425          49.900
                  20079515.305    82222277.734 9      -133.572          43.600

  21751051.547                   114302509.564 7      2042.870          48.100
                  21751058.887    89066957.105 8      1591.846          37.500

  23747442.203                   124793630.213 5     -2352.348          41.200
                  23747449.691    97241823.950 6     -1832.997          23.800

  23605572.453                   124048076.942 5      2739.901          40.600
                  23605577.254    96660900.241 6      2134.988          25.600

  24115744.711                   126729043.316 4     -2962.926          38.100
                  24115754.711    98749940.051 6     -2308.786          25.300

  21802652.766                   114573713.880 7      2494.943          50.900
                  21802659.383    89278257.730 9      1944.111          41.300

  21074127.672                   110745224.048 7     -1794.624          51.300
                  21074136.742    86295068.111 9     -1398.404          44.600

 18  7  1  0 11 35.0000000  0 11G01G08G10G11G14G18G20G22G27G31G32
  23397199.117                   122953128.529 5      3191.178          40.900
                  23397209.711    95807664.023 7      2486.628          27.200

  23565153.617                   123835686.124 5     -2135.843          41.900
                  23565164.449    96495380.492 7     -1664.298          29.400

  22028614.594                   115761142.054 6     -1663.534          46.900
                  22028624.023    90203535.201 8     -1296.262          39.400

  23304034.680                   122463549.628 6      1636.582          44.900
                  23304041.117    95426150.040 7      1275.260          29.700

  20079673.773                   105519460.290 7      -173.904          50.500
                  20079679.973    82222951.510 9      -135.506          43.900

  21749109.641                   114292301.992 7      2040.676          48.600
                  21749116.809    89059003.152 8      1590.136          38.100

  23749681.320                   124805394.502 5     -2353.163          41.500
                  23749688.254    97250990.933 6     -1833.649          25.800

  23602965.539                   124034377.953 5      2739.773          41.700
                  23602969.855    96650225.710 7      2134.887          26.200

  24118564.445                   126743857.872 4     -2962.841          38.400
                  24118574.129    98761483.838 6     -2308.718          24.700

  21800280.023                   114561245.309 7      2492.948          50.600
                  21800286.488    89268541.960 8      1942.555          41.000

  21075836.055                   110754201.610 8     -1796.052          52.700
                  21075844.957    86302063.610 9     -1399.520          44.100

 18  7  1  0 11 40.0000000  0 11G01G08G10G11G14G18G20G22G27G31G32
  23394164.211                   122937176.600 5      3189.894          40.500
                  23394174.539    95795233.947 7      2485.627          27.200

  23567186.422                   123846370.295 5     -2137.444          41.800
                  23567197.402    96503705.816 7     -1665.539          29.400

  22030197.703                   115769462.928 6     -1664.585          46.600
                  22030207.238    90210018.991 8     -1297.080          38.900

  23302478.727                   122455373.619 6      1634.300          44.100
                  23302485.172    95419779.123 7      1273.469          29.400

  20079840.586                   105520337.449 7      -176.431          50.400
                  20079846.930    82223635.018 9      -137.479          44.000

  21747169.305                   114282105.547 7      2038.407          48.400
                  21747176.676    89051057.871 8      1588.369          37.900

  23751920.703                   124817163.014 5     -2354.018          41.000
                  23751927.816    97260161.212 6     -1834.324          24.400

  23600358.844                   124020679.588 5      2739.622          41.600
                  23600362.285    96639551.640 7      2134.786          27.200

  24121382.953                   126758672.161 4     -2962.785          37.600
                  24121393.160    98773027.438 6     -2308.654          24.600

  21797909.453                   114548786.804 7      2490.906          49.800
                  21797915.582    89258834.033 9      1940.968          41.400

  21077545.906                   110763186.359 8     -1797.507          52.600
                  21077555.125    86309064.720 9     -1400.660          44.700

 18  7  1  0 11 45.0000000  0 11G01G08G10G11G14G18G20G22G27G31G32
  23391129.695                   122921230.817 5      3188.657          41.400
                  23391139.941    95782808.664 6      2484.662          25.700

  23569221.406                   123857062.004 6     -2138.942          43.000
                  23569231.824    96512037.015 7     -1666.708          29.400

  22031782.008                   115777788.800 6     -1665.546          46.900
                  22031791.664    90216506.681 8     -1297.830          39.100

  23300925.398                   122447208.824 6      1632.081          44.200
                  23300931.621    95413416.935 7      1271.759          29.200

  20080010.000                   105521226.875 7      -178.863          50.800
                  20080016.117    82224328.073 9      -139.368          44.400

  21745230.734                   114271919.992 7      2036.241          48.400
                  21745238.508    89043121.074 8      1586.678          38.500

  23754160.242                   124828935.513 5     -2354.830          41.200
                  23754167.922    97269334.538 6     -1834.910          25.900

  23597751.500                   124006981.683 5      2739.554          41.600
                  23597755.168    96628877.930 7      2134.715          26.300

  24124202.328                   126773485.908 4     -2962.707          38.400
                  24124212.438    98784570.612 6     -2308.613          22.500

  21795540.445                   114536338.186 7      2488.931          50.100
                  21795546.910    89249133.809 8      1939.427          40.400

  21079257.023                   110772178.098 8     -1798.896          52.200
                  21079265.711    86316071.263 9     -1401.736          44.500

 18  7  1  0 11 50.0000000  0 11G01G08G10G11G14G18G20G22G27G31G32
  23388096.625                   122905291.300 5      3187.395          41.500
                  23388107.301    95770388.265 7      2483.680          27.000

  23571257.664                   123867761.302 5     -2140.460          41.800
                  23571267.742    96520374.133 7     -1667.895          30.000

  22033368.070                   115786119.800 6     -1666.607          45.900
                  22033377.074    90222998.369 8     -1298.652          39.100

  23299373.609                   122439055.423 6      1629.776          44.700
                  23299380.051    95407063.635 7      1269.964          30.700

  20080181.586                   105522128.715 7      -181.355          50.000
                  20080187.859    82225030.807 9      -141.314          43.800

  21743294.766                   114261745.649 7      2033.980          48.000
                  21743302.824    89035193.016 8      1584.921          38.300

  23756401.281                   124840712.100 5     -2355.640          41.200
                  23756409.336    97278511.099 6     -1835.540          24.800

  23595144.539                   123993284.329 5      2739.436          40.300
                  23595148.406    96618204.667 6      2134.614          26.000

  24127020.117                   126788299.265 4     -2962.616          38.600
                  24127031.203    98796113.472 6     -2308.527          24.100

  21793173.227                   114523899.580 7      2486.932          50.300
                  21793180.207    89239441.392 8      1937.870          40.800

  21080969.523                   110781176.946 7     -1800.329          51.400
                  21080978.867    86323083.357 9     -1402.854          44.500

 18  7  1  0 11 55.0000000  0 11G01G08G10G11G14G18G20G22G27G31G32
  23385064.453                   122889358.074 5      3186.112          40.700
                  23385075.141    95757972.763 7      2482.676          26.100

  23573294.781                   123878468.246 5     -2142.010          42.000
                  23573305.539    96528717.188 7     -1669.092          27.900

  22034954.336                   115794455.925 6     -1667.670          46.800
                  22034963.133    90229494.052 8     -1299.486          39.000

  23297824.453                   122430913.396 6      1627.465          44.200
                  23297830.672    95400719.203 7      1268.156          29.700

  20080355.492                   105523042.966 7      -183.851          50.200
                  20080361.930    82225743.213 9      -143.261          44.300

  21741360.805                   114251582.402 7      2031.733          48.400
                  21741368.250    89027273.606 8      1583.168          38.100

  23758643.336                   124852492.898 5     -2356.523          40.800
                  23758650.781    97287690.937 6     -1836.247          24.700

  23592537.758                   123979587.556 5      2739.280          39.700
                  23592542.734    96607531.849 6      2134.507          25.700

  24129839.906                   126803112.256 4     -2962.573          38.400
                  24129850.289    98807656.072 6     -2308.509          23.600

  21790808.375                   114511471.057 7      2484.877          49.700
                  21790814.547    89229756.833 8      1936.267          40.700

  21082683.219                   110790182.900 7     -1801.790          51.900
                  21082691.895    86330100.975 9     -1403.989          45.400

 18  7  1  0 12  0.0000000  0 11G01G08G10G11G14G18G20G22G27G31G32
  23382033.992                   122873431.077 5      3184.876          41.300
                  23382044.234    95745562.131 7      2481.707          27.500

  23575333.281                   123889182.725 6     -2143.518          42.100
                  23575344.383    96537066.134 7     -1670.270          29.600

  22036541.555                   115802797.085 6     -1668.646          46.600
                  22036550.898    90235993.654 8     -1300.246          38.800

  23296277.461                   122422782.652 6      1625.238          44.300
                  23296283.137    95394383.558 7      1266.419          30.000

  20080531.656                   105523969.503 7      -186.310          49.900
                  20080538.406    82226465.190 9      -145.177          44.100

  21739428.570                   114241430.269 7      2029.529          49.200
                  21739436.316    89019362.852 8      1581.449          38.000

  23760886.242                   124864277.794 5     -2357.309          40.400
                  23760893.797    97296873.966 6     -1836.865          23.500

  23589932.047                   123965891.297 5      2739.191          39.400
                  23589936.813    96596859.470 7      2134.421          26.400

  24132658.023                   126817924.736 4     -2962.478          39.000
                  24132668.711    98819198.248 6     -2308.428          22.800

  21788445.016                   114499052.428 7      2482.911          50.700
                  21788451.953    89220079.981 8      1934.731          40.700

  21084398.453                   110799195.867 8     -1803.175          52.200
                  21084407.395    86337124.071 9     -1405.077          44.600

 18  7  1  0 12  5.0000000  0 11G01G08G10G11G14G18G20G22G27G31G32
  23379004.438                   122857510.404 5      3183.618          42.000
                  23379015.035    95733156.412 7      2480.742          27.200

  23577374.242                   123899904.771 6     -2144.993          42.200
                  23577384.277    96545420.968 7     -1671.422          29.600

  22038129.320                   115811143.350 6     -1669.672          46.500
                  22038139.027    90242497.230 8     -1301.041          38.400

  23294732.086                   122414663.190 6      1622.992          44.700
                  23294738.691    95388056.704 7      1264.676          30.600

  20080710.211                   105524908.400 7      -188.779          49.400
                  20080716.887    82227196.794 9      -147.103          43.900

  21737499.094                   114231289.200 7      2027.318          49.600
                  21737506.664    89011460.723 8      1579.735          37.700

  23763129.852                   124876066.742 5     -2358.113          40.700
                  23763137.012    97306060.157 6     -1837.476          24.500

  23587326.406                   123952195.622 5      2739.087          40.600
                  23587331.281    96586187.530 7      2134.356          26.900

  24135476.664                   126832736.744 4     -2962.373          37.900
                  24135487.211    98830740.075 6     -2308.363          25.300

  21786083.641                   114486643.829 7      2480.912          50.300
                  21786090.508    89210410.941 8      1933.177          40.500

  21086114.953                   110808215.902 8     -1804.587          52.100
                  21086123.770    86344152.668 9     -1406.169          44.500

 18  7  1  0 12 10.0000000  0 11G01G08G10G11G14G18G20G22G27G31G32
  23375975.477                   122841595.997 5      3182.385          41.100
                  23375985.961    95720755.566 7      2479.786          27.200

  23579416.305                   123910634.216 6     -2146.458          42.100
                  23579425.945    96553781.574 7     -1672.572          29.700

  22039718.578                   115819494.680 7     -1670.656          47.300
                  22039728.418    90249004.765 8     -1301.813          38.500

  23293189.289                   122406555.125 6      1620.731          44.200
                  23293195.578    95381738.728 7      1262.914          30.200

  20080891.328                   105525859.615 7      -191.207          48.900
                  20080897.660    82227938.001 9      -148.994          43.900

  21735571.648                   114221159.271 7      2025.112          49.200
                  21735578.695    89003567.270 8      1578.015          38.100

  23765374.055                   124887859.804 5     -2358.929          39.900
                  23765381.160    97315249.541 6     -1838.121          24.300

  23584720.000                   123938500.527 5      2738.986          41.300
                  23584725.516    96575516.027 7      2134.268          27.200

  24138295.289                   126847548.301 4     -2962.287          38.100
                  24138305.746    98842281.519 6     -2308.269          23.600

  21783724.430                   114474245.235 7      2478.921          49.900
                  21783731.477    89200749.697 8      1931.629          40.400

  21087832.609                   110817242.960 8     -1805.964          52.700
                  21087841.488    86351186.734 9     -1407.241          44.100

 18  7  1  0 12 15.0000000  0 11G01G08G10G11G14G18G20G22G27G31G32
  23372948.438                   122825687.844 5      3181.150          41.600
                  23372958.934    95708359.617 7      2478.814          26.900

  23581459.555                   123921371.229 6     -2147.984          42.600
                  23581469.832    96562148.076 7     -1673.750          30.200

  22041309.172                   115827851.062 7     -1671.667          47.500
                  22041317.668    90255516.224 8     -1302.599          38.400

  23291648.188                   122398458.345 6      1618.471          44.500
                  23291654.613    95375429.556 7      1261.148          29.300

  20081074.742                   105526823.095 7      -193.643          49.600
                  20081081.309    82228688.762 9      -150.888          43.800

  21733645.805                   114211040.412 7      2022.903          48.900
                  21733652.758    88995682.446 8      1576.287          37.900

  23767618.680                   124899656.850 5     -2359.725          40.600
                  23767625.727    97324442.050 6     -1838.746          24.100

  23582114.391                   123924805.943 5      2738.872          41.300
                  23582119.645    96564844.906 7      2134.189          26.900

  24141113.648                   126862359.229 5     -2962.132          39.400
                  24141124.094    98853822.523 6     -2308.153          23.400

  21781366.703                   114461856.623 7      2476.933          49.900
                  21781373.805    89191096.237 8      1930.071          40.600

  21089551.797                   110826276.990 8     -1807.343          53.800
                  21089560.801    86358226.231 9     -1408.315          44.600

 18  7  1  0 12 20.0000000  0 11G01G08G10G11G14G18G20G22G27G31G32
  23369922.383                   122809786.159 5      3179.783          40.900
                  23369932.668    95695968.689 7      2477.746          26.200

  23583504.047                   123932115.784 6     -2149.582          42.200
                  23583514.180    96570520.460 7     -1675.007          29.100

  22042900.172                   115836212.662 6     -1672.789          47.000
                  22042909.551    90262031.752 8     -1303.473          38.300

  23290110.508                   122390373.081 6      1616.086          44.600
                  23290116.473    95369129.347 7      1259.291          29.900

  20081260.375                   105527799.059 7      -196.228          50.100
                  20081267.301    82229449.256 9      -152.904          43.600

  21731722.656                   114200932.809 7      2020.595          49.200
                  21731730.090    88987806.394 8      1574.489          38.100

  23769864.250                   124911458.091 5     -2360.607          41.000
                  23769871.180    97333637.809 6     -1839.418          23.200

  23579507.898                   123911112.016 5      2738.697          40.300
                  23579513.215    96554174.292 6      2134.062          25.100

  24143932.297                   126877169.801 5     -2962.127          39.400
                  24143942.895    98865363.198 6     -2308.160          22.800

  21779011.305                   114449478.209 7      2474.833          50.000
                  21779017.938    89181450.719 8      1928.441          40.200

  21091271.938                   110835318.170 8     -1808.846          53.200
                  21091280.668    86365271.314 9     -1409.496          44.100

 18  7  1  0 12 25.0000000  0 11G01G08G10G11G14G18G20G22G27G31G32
  23366897.852                   122793890.788 5      3178.531          41.800
                  23366908.254    95683582.693 7      2476.766          28.300

  23585550.102                   123942867.869 6     -2151.053          42.100
                  23585559.820    96578898.713 7     -1676.150          30.300

  22044492.320                   115844579.359 6     -1673.766          47.000
                  22044501.410    90268551.253 8     -1304.229          38.100

  23288573.641                   122382299.166 6      1613.847          45.200
                  23288580.082    95362837.980 7      1257.544          30.400

  20081448.719                   105528787.359 7      -198.684          49.600
                  20081455.293    82230219.368 9      -154.819          43.900

  21729801.492                   114190836.380 7      2018.361          49.100
                  21729808.668    88979939.046 8      1572.751          38.400

  23772110.758                   124923263.424 5     -2361.413          40.100
                  23772117.734    97342836.781 6     -1840.082          24.800

  23576901.938                   123897418.649 5      2738.615          39.500
                  23576906.438    96543504.150 6      2133.995          25.000

  24146750.008                   126891979.876 5     -2961.955          39.400
                  24146761.133    98876903.498 6     -2308.011          24.000

  21776657.820                   114437109.909 7      2472.831          50.500
                  21776664.527    89171813.080 8      1926.884          40.400

  21092994.258                   110844366.397 8     -1810.229          53.000
                  21093002.879    86372321.877 9     -1410.570          44.900

 18  7  1  0 12 30.0000000  0 11G01G08G10G11G14G18G20G22G27G31G32
  23363874.055                   122778001.641 5      3177.312          41.900
                  23363885.117    95671201.543 7      2475.807          26.900

  23587598.125                   123953627.358 6     -2152.518          42.700
                  23587607.184    96587282.719 7     -1677.281          29.300

  22046085.453                   115852951.033 6     -1674.747          46.600
                  22046094.504    90275074.635 8     -1304.998          38.500

  23287039.281                   122374236.491 6      1611.639          44.900
                  23287046.195    95356555.376 7      1255.821          30.200

  20081638.867                   105529787.811 7      -201.083          49.200
                  20081645.398    82230998.935 9      -156.684          43.800

  21727881.945                   114180750.906 7      2016.204          48.900
                  21727889.551    88972080.236 8      1571.063          38.300

  23774357.367                   124935072.726 5     -2362.215          40.900
                  23774365.395    97352038.813 6     -1840.688          24.800

  23574296.641                   123883725.714 4      2738.528          38.700
                  23574300.859    96532834.346 7      2133.922          26.500

  24149568.633                   126906789.256 4     -2961.823          38.900
                  24149579.203    98888443.273 6     -2307.921          24.900

  21774306.023                   114424751.545 7      2470.854          49.500
                  21774312.551    89162183.191 8      1925.340          40.000

  21094716.969                   110853421.472 8     -1811.571          53.000
                  21094726.152    86379377.777 9     -1411.615          44.100

 18  7  1  0 12 35.0000000  0 11G01G08G10G11G14G18G20G22G27G31G32
  23360851.109                   122762118.986 5      3176.026          41.800
                  23360861.992    95658825.433 7      2474.823          28.100

  23589646.266                   123964394.432 6     -2154.003          42.600
                  23589656.070    96595672.655 7     -1678.447          29.400

  22047679.375                   115861327.931 6     -1675.771          45.500
                  22047688.836    90281602.083 8     -1305.801          38.500

  23285506.570                   122366185.347 6      1609.340          45.000
                  23285513.965    95350281.754 7      1254.033          30.900

  20081831.523                   105530800.707 7      -203.551          49.200
                  20081838.137    82231788.203 9      -158.607          44.100

  21725964.867                   114170676.762 7      2013.955          49.300
                  21725972.258    88964230.254 8      1569.314          38.700

  23776605.867                   124946886.212 5     -2363.041          40.800
                  23776613.289    97361244.118 6     -1841.320          24.400

  23571692.352                   123870033.515 5      2738.406          39.700
                  23571696.320    96522165.110 7      2133.824          26.100

  24152386.211                   126921598.237 4     -2961.729          39.000
                  24152396.969    98899982.707 6     -2307.824          24.000

  21771956.258                   114412403.446 7      2468.819          49.300
                  21771962.945    89152561.297 8      1923.760          40.500

  21096441.633                   110862483.671 8     -1812.975          52.500
                  21096450.465    86386439.227 9     -1412.709          44.600

 18  7  1  0 12 40.0000000  0 11G01G08G10G11G14G18G20G22G27G31G32
  23357830.461                   122746242.668 5      3174.753          40.900
                  23357841.023    95646454.290 7      2473.828          27.300

  23591696.695                   123975168.931 6     -2155.501          42.400
                  23591706.699    96604068.366 7     -1679.602          28.600

  22049274.484                   115869709.872 6     -1676.811          45.700
                  22049283.840    90288133.461 8     -1306.607          38.300

  23283976.531                   122358145.533 6      1607.052          45.000
                  23283983.520    95344016.968 7      1252.248          30.000

  20082026.875                   105531825.901 7      -206.029          50.100
                  20082032.938    82232587.059 9      -160.542          44.500

  21724050.625                   114160613.713 7      2011.707          49.600
                  21724057.664    88956388.917 8      1567.569          38.800

  23778855.313                   124958703.753 5     -2363.864          40.800
                  23778861.723    97370452.591 6     -1841.973          22.500

  23569085.570                   123856341.872 5      2738.299          41.100
                  23569090.602    96511496.306 7      2133.743          26.700

  24155204.391                   126936406.602 4     -2961.644          38.700
                  24155215.691    98911521.706 6     -2307.781          21.800

  21769608.563                   114400065.395 7      2466.797          49.900
                  21769614.996    89142947.231 8      1922.181          39.600

  21098167.438                   110871552.826 8     -1814.394          52.600
                  21098176.246    86393506.102 9     -1413.821          44.300

 18  7  1  0 12 45.0000000  0 11G01G08G10G11G14G18G20G22G27G31G32
  23354811.016                   122730372.769 5      3173.451          40.900
                  23354820.703    95634088.139 7      2472.820          27.700

  23593748.750                   123985950.913 5     -2157.028          41.700
                  23593758.203    96612469.915 7     -1680.801          29.100

  22050870.133                   115878096.976 6     -1677.823          46.200
                  22050879.117    90294668.866 8     -1307.393          38.200

  23282449.859                   122350117.149 6      1604.739          45.000
                  23282455.902    95337761.090 7      1250.443          29.600

  20082224.547                   105532863.444 7      -208.512          50.200
                  20082230.598    82233395.536 9      -162.474          44.400

  21722137.469                   114150562.002 7      2009.438          49.400
                  21722144.863    88948556.413 8      1565.794          38.700

  23781104.117                   124970525.415 5     -2364.694          41.200
                  23781111.191    97379664.265 6     -1842.624          23.000

  23566481.328                   123842650.893 5      2738.150          41.100
                  23566485.949    96500828.005 7      2133.617          27.400

  24158022.633                   126951214.442 4     -2961.538          38.600
                  24158033.465    98923060.271 6     -2307.692          24.500

  21767262.586                   114387737.530 7      2464.736          49.300
                  21767268.969    89133341.104 8      1920.574          39.900

  21099894.523                   110880629.036 8     -1815.816          52.900
                  21099903.238    86400578.467 9     -1414.922          44.300

 18  7  1  0 12 50.0000000  0 11G01G08G10G11G14G18G20G22G27G31G32
  23351792.352                   122714509.267 5      3172.154          40.800
                  23351802.152    95621726.982 7      2471.803          27.300

  23595801.711                   123996740.303 5     -2158.480          41.700
                  23595811.195    96620877.229 7     -1681.929          28.700

  22052467.242                   115886489.161 6     -1678.858          46.400
                  22052476.406    90301208.226 8     -1308.202          38.500

  23280923.375                   122342100.122 6      1602.475          45.100
                  23280930.109    95331514.050 7      1248.681          30.600

  20082423.789                   105533913.224 7      -210.960          49.500
                  20082430.387    82234213.543 9      -164.382          43.900

  21720226.727                   114140521.408 7      2007.201          49.300
                  21720234.188    88940732.580 8      1564.052          38.500

  23783354.297                   124982351.125 5     -2365.494          41.300
                  23783361.348    97388879.091 6     -1843.240          24.400

  23563875.023                   123828960.480 5      2738.011          40.100
                  23563880.559    96490160.153 6      2133.521          25.400

  24160840.250                   126966021.644 4     -2961.419          39.000
                  24160851.195    98934598.333 6     -2307.588          22.600

  21764918.344                   114375419.757 7      2462.720          49.800
                  21764924.961    89123742.839 8      1919.004          39.800

  21101622.875                   110889712.148 8     -1817.202          53.100
                  21101632.188    86407656.215 9     -1415.998          44.100

 18  7  1  0 12 55.0000000  0 11G01G08G10G11G14G18G20G22G27G31G32
  23348774.336                   122698652.097 5      3170.868          41.700
                  23348784.445    95609370.740 7      2470.814          28.700

  23597856.484                   124007537.061 6     -2159.993          42.200
                  23597865.969    96629290.296 7     -1683.122          28.500

  22054065.352                   115894886.402 6     -1679.891          45.300
                  22054074.582    90307751.525 8     -1309.005          38.300

  23279400.258                   122334094.443 6      1600.209          44.500
                  23279406.883    95325275.856 7      1246.913          29.400

  20082626.055                   105534975.261 7      -213.430          49.100
                  20082632.234    82235041.104 9      -166.309          43.800

  21718318.367                   114130491.951 7      2004.932          48.500
                  21718325.570    88932917.418 8      1562.288          38.500

  23785605.938                   124994180.917 5     -2366.322          41.700
                  23785612.738    97398097.101 6     -1843.872          24.100

  23561269.438                   123815270.599 4      2737.896          38.900
                  23561275.258    96479492.723 6      2133.418          24.800

  24163658.406                   126980828.203 4     -2961.300          38.800
                  24163668.520    98946135.908 6     -2307.497          23.000

  21762576.297                   114363112.074 7      2460.683          49.600
                  21762583.082    89114152.441 8      1917.419          40.200

  21103352.906                   110898802.179 8     -1818.592          53.200
                  21103361.617    86414739.358 9     -1417.085          44.700

 18  7  1  0 13  0.0000000  0 11G01G08G10G11G14G18G20G22G27G31G32
  23345757.766                   122682801.368 5      3169.622          41.100
                  23345768.035    95597019.510 7      2469.846          27.300

  23599912.000                   124018341.226 6     -2161.414          42.400
                  23599921.449    96637709.113 7     -1684.206          29.000

  22055664.359                   115903288.751 6     -1680.889          46.700
                  22055673.453    90314298.805 8     -1309.784          37.700

  23277878.992                   122326100.218 6      1597.925          44.300
                  23277885.398    95319046.584 7      1245.139          29.700

  20082830.648                   105536049.578 7      -215.859          49.400
                  20082837.191    82235878.236 9      -168.198          43.800

  21716411.961                   114120473.745 7      2002.715          49.900
                  21716419.484    88925111.025 8      1560.558          38.300

  23787857.414                   125006014.804 5     -2367.135          40.800
                  23787864.887    97407318.304 6     -1844.516          22.900

  23558664.906                   123801581.328 4      2737.801          39.000
                  23558669.625    96468825.768 6      2133.353          25.600

  24166474.938                   126995634.132 5     -2961.146          39.400
                  24166485.805    98957673.009 6     -2307.384          24.400

  21760236.023                   114350814.548 7      2458.682          49.000
                  21760243.090    89104569.961 8      1915.853          39.200

  21105083.883                   110907899.176 8     -1819.961          53.500
                  21105092.953    86421827.930 9     -1418.153          44.500

 18  7  1  0 13  5.0000000  0 11G01G08G10G11G14G18G20G22G27G31G32
  23342742.695                   122666957.132 5      3168.340          41.600
                  23342753.160    95584673.370 7      2468.827          27.000

  23601969.281                   124029152.825 5     -2162.873          41.700
                  23601979.270    96646133.750 7     -1685.357          28.500

  22057263.922                   115911696.274 6     -1681.901          45.800
                  22057273.617    90320850.118 8     -1310.569          37.900

  23276359.914                   122318117.438 6      1595.647          44.600
                  23276366.281    95312826.234 7      1243.365          30.700

  20083037.094                   105537136.194 7      -218.285          49.500
                  20083043.621    82236724.947 9      -170.090          43.600

  21714507.813                   114110466.811 7      2000.490          49.300
                  21714515.316    88917313.405 8      1558.829          38.600

  23790110.453                   125017852.803 5     -2367.919          40.700
                  23790117.227    97416542.701 6     -1845.115          24.300

  23556060.594                   123787892.653 5      2737.708          40.600
                  23556063.953    96458159.273 7      2133.275          27.200

  24169292.945                   127010439.497 5     -2961.013          39.500
                  24169303.156    98969209.640 6     -2307.285          25.300

  21757898.102                   114338527.242 7      2456.650          48.100
                  21757904.664    89094995.437 8      1914.274          39.600

  21106816.508                   110917003.154 8     -1821.338          52.500
                  21106825.172    86428921.939 9     -1419.226          44.500

 18  7  1  0 13 10.0000000  0 11G01G08G10G11G14G18G20G22G27G31G32
  23339729.430                   122651119.313 5      3167.091          41.400
                  23339739.324    95572332.205 7      2467.864          27.700

  23604029.008                   124039971.706 6     -2164.326          42.300
                  23604038.016    96654564.040 7     -1686.491          28.500

  22058865.078                   115920108.832 6     -1682.881          45.200
                  22058874.105    90327405.356 8     -1311.331          38.600

  23274843.016                   122310146.055 6      1593.382          43.800
                  23274849.621    95306614.772 7      1241.591          30.600

  20083246.336                   105538235.084 7      -220.733          49.500
                  20083252.910    82237581.223 9      -171.996          43.800

  21712605.617                   114100471.183 7      1998.243          49.100
                  21712612.754    88909524.606 8      1557.074          38.800

  23792363.750                   125029694.910 5     -2368.725          41.100
                  23792370.863    97425770.323 6     -1845.768          22.300

  23553455.891                   123774204.589 5      2737.586          39.800
                  23553459.488    96447493.241 7      2133.184          26.900

  24172109.344                   127025244.178 4     -2960.862          38.400
                  24172120.656    98980745.733 6     -2307.151          24.700

  21755561.570                   114326250.060 7      2454.642          48.800
                  21755568.648    89085428.802 8      1912.703          40.100

  21108550.094                   110926114.041 7     -1822.719          51.400
                  21108558.836    86436021.324 9     -1420.295          44.500

 18  7  1  0 13 15.0000000  0 11G01G08G10G11G14G18G20G22G27G31G32
  23336717.078                   122635287.972 5      3165.717          41.100
                  23336726.797    95559996.123 7      2466.783          27.700

  23606088.539                   124050797.976 5     -2165.851          41.600
                  23606098.430    96663000.105 7     -1687.676          28.000

  22060466.938                   115928526.575 6     -1683.959          46.500
                  22060475.984    90333964.633 8     -1312.176          37.600

  23273328.047                   122302186.134 6      1591.047          44.500
                  23273334.930    95300412.243 7      1239.774          30.100

  20083457.727                   105539346.222 7      -223.224          49.600
                  20083464.391    82238447.048 9      -173.937          43.700

  21710705.656                   114090486.812 7      1995.967          49.000
                  21710712.922    88901744.580 8      1555.295          38.700

  23794618.656                   125041541.091 5     -2369.570          40.500
                  23794625.379    97435001.120 6     -1846.430          22.000

  23550850.414                   123760517.171 5      2737.402          40.800
                  23550855.813    96436827.710 7      2133.045          26.500

  24174926.211                   127040048.241 5     -2960.789          39.400
                  24174937.527    98992281.363 6     -2307.093          25.300

  21753227.227                   114313983.079 7      2452.577          48.300
                  21753234.148    89075870.120 8      1911.097          39.500

  21110285.188                   110935231.879 8     -1824.121          52.500
                  21110294.141    86443126.133 9     -1421.395          44.800

 18  7  1  0 13 20.0000000  0 11G01G08G10G11G14G18G20G22G27G31G32
  23333705.398                   122619463.108 5      3164.434          42.000
                  23333714.887    95547665.057 7      2465.795          28.400

  23608149.930                   124061631.653 5     -2167.359          41.600
                  23608160.297    96671441.921 7     -1688.846          28.900

  22062069.789                   115936949.397 6     -1684.991          46.700
                  22062078.742    90340527.867 8     -1312.980          37.400

  23271815.828                   122294237.657 6      1588.767          45.500
                  23271822.234    95294218.622 7      1237.998          29.100

  20083671.703                   105540469.653 7      -225.687          49.600
                  20083678.020    82239322.449 9      -175.858          43.900

  21708807.563                   114080513.706 7      1993.696          49.200
                  21708815.199    88893973.328 8      1553.528          39.000

  23796873.063                   125053391.377 5     -2370.405          41.100
                  23796880.059    97444235.096 6     -1847.071          22.800

  23548245.797                   123746830.327 5      2737.312          39.900
                  23548251.582    96426162.650 7      2132.952          26.800

  24177743.852                   127054851.603 5     -2960.651          39.400
                  24177754.078    99003816.441 6     -2307.009          24.400

  21750894.820                   114301726.316 7      2450.522          48.900
                  21750901.578    89066319.404 8      1909.495          39.600

  21112021.617                   110944356.631 8     -1825.528          53.500
                  21112030.473    86450236.329 9     -1422.491          44.600

 18  7  1  0 13 25.0000000  0 11G01G08G10G11G14G18G20G22G27G31G32
  23330695.523                   122603644.754 5      3163.132          41.900
                  23330704.441    95535339.069 7      2464.774          27.800

  23610213.258                   124072472.655 5     -2168.809          41.700
                  23610222.906    96679889.462 7     -1689.984          27.600

  22063673.414                   115945377.367 6     -1686.023          46.800
                  22063682.840    90347095.109 8     -1313.777          38.400

  23270305.484                   122286300.667 6      1586.462          45.300
                  23270312.125    95288033.940 7      1236.207          31.100

  20083887.906                   105541605.338 7      -228.130          50.100
                  20083894.027    82240207.402 9      -177.762          43.900

  21706912.172                   114070551.885 7      1991.464          49.600
                  21706919.816    88886210.872 8      1551.784          39.600

  23799128.859                   125065245.726 5     -2371.190          41.500
                  23799135.355    97453472.250 6     -1847.692          23.300

  23545641.500                   123733144.072 5      2737.205          39.900
                  23545647.527    96415498.055 7      2132.885          26.100

  24180560.977                   127069654.300 5     -2960.508          39.200
                  24180571.316    99015351.001 6     -2306.892          25.300

  21748564.703                   114289479.758 7      2448.475          49.200
                  21748571.156    89056776.632 8      1907.900          39.400

  21113759.219                   110953488.317 8     -1826.906          52.200
                  21113768.180    86457351.926 9     -1423.558          44.100

 18  7  1  0 13 30.0000000  0 11G01G08G10G11G14G18G20G22G27G31G32
  23327686.242                   122587832.934 5      3161.822          41.800
                  23327696.121    95523018.145 7      2463.762          28.300

  23612277.727                   124083320.966 6     -2170.261          42.100
                  23612286.766    96688342.695 7     -1691.122          27.400

  22065278.211                   115953810.471 6     -1687.050          46.800
                  22065287.297    90353666.365 8     -1314.586          38.200

  23268797.023                   122278375.166 6      1584.159          44.500
                  23268803.672    95281858.234 7      1234.415          30.200

  20084106.227                   105542753.328 7      -230.595          50.400
                  20084112.211    82241101.939 9      -179.685          44.000

  21705018.414                   114060601.354 7      1989.190          49.500
                  21705026.160    88878457.211 8      1550.015          39.100

  23801385.609                   125077104.257 5     -2372.050          40.700
                  23801391.973    97462712.652 6     -1848.362          24.200

  23543037.234                   123719458.500 5      2737.055          39.500
                  23543043.277    96404833.986 6      2132.770          25.500

  24183377.773                   127084456.312 4     -2960.378          38.900
                  24183388.211    99026885.016 6     -2306.783          24.200

  21746235.742                   114277243.470 7      2446.418          49.700
                  21746242.699    89047241.865 8      1906.303          39.600

  21115498.508                   110962626.912 8     -1828.277          52.700
                  21115507.387    86464472.907 9     -1424.632          44.300

 18  7  1  0 13 35.0000000  0 11G01G08G10G11G14G18G20G22G27G31G32
  23324678.328                   122572027.545 5      3160.584          41.600
                  23324688.617    95510702.269 7      2462.796          28.800

  23614343.469                   124094176.635 5     -2171.695          42.000
                  23614352.828    96696801.659 7     -1692.229          28.700

  22066883.445                   115962248.640 6     -1688.025          46.600
                  22066892.918    90360241.550 8     -1315.342          38.200

  23267291.406                   122270461.045 6      1581.919          44.600
                  23267298.074    95275691.396 7      1232.655          30.000

  20084326.977                   105543913.511 7      -233.000          49.600
                  20084333.191    82242005.974 9      -181.556          43.900

  21703127.352                   114050662.042 7      1986.984          49.400
                  21703134.754    88870712.296 8      1548.299          39.200

  23803642.891                   125088966.812 5     -2372.804          41.800
                  23803649.473    97471956.199 6     -1848.939          23.300

  23540433.328                   123705773.480 5      2736.960          40.400
                  23540438.824    96394170.321 6      2132.715          25.400

  24186193.883                   127099257.525 4     -2960.153          38.900
                  24186204.758    99038418.428 6     -2306.598          23.500

  21743909.211                   114265017.342 7      2444.413          49.300
                  21743916.340    89037715.022 8      1904.735          39.700

  21117238.734                   110971772.345 8     -1829.616          53.200
                  21117247.566    86471599.220 9     -1425.678          44.100

